;device_time;lon;lat;raw_speed_kph;raw_g_x;raw_g_y;raw_roll;raw_yaw;raw_pitch;raw_g_z;apps_d;apps_e;engine_load;engine_load_abs;engine_rpm;num_samples;cumulative_time;g_x;g_y;g_z;roll;yaw;pitch;speed_kph;sample_nr;cu mulative_time;roundabout_1;roundabout_2;roundabout_3;roundabout_4;turning_right_1;turning_right_2;turning_right_3;turning_left_1;turning_left_2;road_50km_1;road_50km_2;road_100km;entering_highway;exiting_highway;speed_bumps;road_50km_3;road_50km_4
0;2022-04-23 22:15:19.966;5.173730773085111;52.36977374255918;0;-0.01;0.0;9.87398911;0.11013664;-0.61054009;-0.02;0.0;0.0;0.0;0.0;0.0;0;0.0;-0.01;0.0;0.056452089999999996;9.87398911;0.11013664;-0.61054009;0.0;1;0.0;0;0;0;0;0;0;0;0;0;0;0;0;0;0;0;0;0
1;2022-04-23 22:15:20.084;5.173730773085111;52.36977374255918;0;-0.03;-0.01;9.82610416;0.1699935;-0.53871185;0.0;0.0;0.0;0.0;0.0;0.0;1;0.1;-0.020476190476190478;-0.005238095238095238;0.045975899523809524;9.848906517142856;0.14149023333333333;-0.5729157738095237;0.0;1;0.1;0;0;0;0;0;0;0;0;0;0;0;0;0;0;0;0;0
2;2022-04-23 22:15:20.165;5.173730773085111;52.36977374255918;0;-0.01;0.0;9.89074898;0.09816527;-0.62490571;0.02;0.0;0.0;0.0;0.0;0.0;2;0.2;-0.01664652567975831;-0.003323262839879154;0.03518320782477341;9.864202402356494;0.12565240685800605;-0.5919211583383684;0.0;1;0.2;0;0;0;0;0;0;0;0;0;0;0;0;0;0;0;0;0
3;2022-04-23 22:15:20.267;5.173730773085111;52.36977374255918;0;-0.01;0.0;9.97694302;0.16281068;-0.41181526;0.01;0.0;0.0;0.0;0.0;0.0;3;0.30000000000000004;-0.014740357681534155;-0.0023701788407670763;0.03267919622710622;9.896535468954966;0.13630908894203836;-0.5402682924283558;0.0;1;0.30000000000000004;0;0;0;0;0;0;0;0;0;0;0;0;0;0;0;0;0
4;2022-04-23 22:15:20.364;5.173730773085111;52.36977374255918;0;-0.03;0.02;9.40710545;0.13647367;-0.61293435;0.0;0.0;0.0;0.0;0.0;0.0;4;0.4;-0.01839986241011613;0.002994545543889535;0.03358399611128401;9.779162372568015;0.1363485580951991;-0.5576947678162518;0.0;1;0.4;0;0;0;0;0;0;0;0;0;0;0;0;0;0;0;0;0
5;2022-04-23 22:15:20.465;5.173730773085111;52.36977374255918;0;0.0;0.01;9.62498474;-0.16281068;-0.46927786;-0.01;0.0;0.0;0.0;0.0;0.0;5;0.5;-0.014559185858279512;0.004456821949269078;0.03627000459132849;9.74698026136396;0.0739038590312626;-0.5392391545585636;0.0;1;0.5;0;0;0;0;0;0;0;0;0;0;0;0;0;0;0;0;0
6;2022-04-23 22:15:20.564;5.173730773085111;52.36977374255918;0;-0.01;0.01;10.38157558;0.34716985;-0.71349388;0.02;0.0;0.0;0.0;0.0;0.0;6;0.6000000000000001;-0.013707838722417882;0.005491912183305222;0.032569360364368895;9.865479687302228;0.12493143850954622;-0.5717781354262803;0.0;1;0.6000000000000001;0;0;0;0;0;0;0;0;0;0;0;0;0;0;0;0;0
7;2022-04-23 22:15:20.679;5.173730773085111;52.36977374255918;0;-0.05;-0.01;9.69920731;0.11492519;-0.58180881;-0.01;0.0;0.0;0.0;0.0;0.0;7;0.7000000000000001;-0.019892155555457036;0.0028520337655280133;0.034935028198739455;9.83714626692655;0.12322633721729045;-0.5734873990090836;0.0;1;0.7000000000000001;0;0;0;0;0;0;0;0;0;0;0;0;0;0;0;0;0
8;2022-04-23 22:15:20.765;5.173730773085111;52.36977374255918;0;-0.02;-0.01;9.74230385;0.07422252;-0.59856868;0.0;0.0;0.0;0.0;0.0;0.0;8;0.8;-0.01990917934408123;0.0008232755189389689;0.035174504043266705;9.822174913833607;0.11549083790973508;-0.5774466055108453;0.0;1;0.8;0;0;0;0;0;0;0;0;0;0;0;0;0;0;0;0;0
9;2022-04-23 22:15:20.864;5.173730773085111;52.36977374255918;0;0.0;0.0;9.85962391;0.20111908;-0.61532861;0.0;0.0;0.0;0.0;0.0;0.0;9;0.9;-0.016963609113045557;0.0007014716103691261;0.03536352334419844;9.827715506260018;0.12815956706616732;-0.5830512616740531;0.0;1;0.9;0;0;0;0;0;0;0;0;0;0;0;0;0;0;0;0;0
10;2022-04-23 22:15:20.965;5.173730773085111;52.36977374255918;0;-0.03;0.0;9.87159538;0.24182175;-1.13728058;-0.02;0.0;0.0;0.0;0.0;0.0;10;1.0;-0.018788267023606066;0.0006032890893023108;0.0383152160561282;9.833857218289701;0.144068464169685;-0.660624795539165;0.0;1;1.0;0;0;0;0;0;0;0;0;0;0;0;0;0;0;0;0;0
11;2022-04-23 22:15:21.066;5.173730773085111;52.36977374255918;0;-0.01;0.0;9.94581795;0.16759923;-1.44135344;-0.08;0.0;0.0;0.0;0.0;0.0;11;1.1;-0.017615725930541556;0.0005227975377479104;0.04874033119392446;9.84879515296866;0.14720796707887188;-0.7647905446799156;0.0;1;1.1;0;0;0;0;0;0;0;0;0;0;0;0;0;0;0;0;0
12;2022-04-23 22:15:21.165;5.173730773085111;52.36977374255918;0;0.01;0.02;9.43344307;0.14605077;-1.58500993;-0.08;0.0;0.0;0.0;0.0;0.0;12;1.2000000000000002;-0.014081452176665149;0.003015499182977649;0.057406114327021675;9.795638195619567;0.14705986844571606;-0.869762612162357;0.0;1;1.2000000000000002;0;0;0;0;0;0;0;0;0;0;0;0;0;0;0;0;0
13;2022-04-23 22:15:21.267;5.173730773085111;52.36977374255918;0;-0.02;0.0;10.12778282;0.31365001;-1.38867939;-0.08;0.0;0.0;0.0;0.0;0.0;13;1.3;-0.014811834462144798;0.002643369523664661;0.06469272177663518;9.836626721370477;0.16761803439430803;-0.9337998783100583;0.0;1;1.3;0;0;0;0;0;0;0;0;0;0;0;0;0;0;0;0;0
14;2022-04-23 22:15:21.364;5.173730773085111;52.36977374255918;0;-0.09;-0.03;9.82370949;0.21548474;-1.25220573;-0.08;0.0;0.0;0.0;0.0;0.0;14;1.4000000000000001;-0.0237984454625946;-0.0012582187323410966;0.07087908507629884;9.8350828330112;0.17333914036988643;-0.9718562600416193;0.0;1;1.4000000000000001;0;0;0;0;0;0;0;0;0;0;0;0;0;0;0;0;0
15;2022-04-23 22:15:21.466;5.173730773085111;52.36977374255918;0;0.0;0.0;10.11581135;0.19393626;-1.35515952;-0.07;0.0;0.0;0.0;0.0;0.0;15;1.5;-0.02103313921075832;-0.0011120175810016503;0.07501255896503362;9.867702624262607;0.17573246239474288;-1.0163949213074623;0.0;1;1.5;0;0;0;0;0;0;0;0;0;0;0;0;0;0;0;0;0
16;2022-04-23 22:15:21.564;5.173730773085111;52.36977374255918;0;-0.03;0.0;9.97454929;0.29689008;-1.64486682;-0.11;0.0;0.0;0.0;0.0;0.0;16;1.6;-0.022049362791221997;-0.0009859914817607778;0.08310887469038786;9.879811667077961;0.1894633801436819;-1.0876202897080072;0.0;1;1.6;0;0;0;0;0;0;0;0;0;0;0;0;0;0;0;0;0
17;2022-04-23 22:15:21.665;5.173730773085111;52.36977374255918;0;-0.02;0.0;9.57949352;-0.02394275;-2.04710507;-0.11;0.0;0.0;0.0;0.0;0.0;17;1.7000000000000002;-0.021822199827087704;-0.000876698608596829;0.09013019498036354;9.846522704886514;0.16580823753276286;-1.1939750101442579;0.0;1;1.7000000000000002;0;0;0;0;0;0;0;0;0;0;0;0;0;0;0;0;0
18;2022-04-23 22:15:21.769;5.173730773085111;52.36977374255918;1;0.0;0.03;9.64413929;0.31365001;-2.2027328;-0.15000001;0.0;0.0;0.0;0.0;1484.75;18;1.8;-0.01945058560225208;0.002478949227842359;0.10059836051444856;9.824527883584407;0.18187552925341627;-1.3036057688575007;0.10867897112241441;1;1.8;0;0;0;0;0;0;0;0;0;0;0;0;0;0;0;0;0
19;2022-04-23 22:15:21.863;5.173730773085111;52.36977374255918;1;0.03;0.04;10.42467213;0.68955112;-1.92739117;-0.13;0.0;0.0;26.66666603;0.0;1484.75;19;1.9000000000000001;-0.014170179029867367;0.006485502450359883;0.1076303190192173;9.888612172669298;0.23608587870366562;-1.3702144953636732;0.20385554712590595;1;1.9000000000000001;0;0;0;0;0;0;0;0;0;0;0;0;0;0;0;0;0
20;2022-04-23 22:15:21.965;5.173730773085111;52.36977374255918;1;0.0;0.02;9.05514717;-0.08619389;-1.99921942;-0.17;0.0;0.0;26.66666603;0.0;1484.75;20;2.0;-0.012680707844591384;0.007906052934672305;0.11801777990052106;9.801004097796335;0.20221005906372058;-1.4363311413614244;0.2875407440012467;1;2.0;0;0;0;0;0;0;0;0;0;0;0;0;0;0;0;0;0
21;2022-04-23 22:15:22.064;5.173730773085111;52.36977374255918;1;-0.09;0.0;10.05116558;0.30646718;-1.80528319;-0.19;0.0;0.0;26.66666603;0.0;1484.75;21;2.1;-0.02069415399864945;0.0070866619687567235;0.12925601658132368;9.826931075547622;0.21301536782315358;-1.4745696882075598;0.36138070975560094;1;2.1;0;0;0;0;0;0;0;0;0;0;0;0;0;0;0;0;0
22;2022-04-23 22:15:22.165;5.173730773085111;52.36977374255918;1;-0.08;0.0;9.55555058;0.28731298;-1.83880305;-0.18000001;0.0;0.0;26.66666603;0.0;1484.75;22;2.2;-0.026763396349135934;0.006361427074655714;0.13817949036954233;9.79915853527164;0.2206188377130101;-1.5118446061777107;0.42673573802887876;1;2.2;0;0;0;0;0;0;0;0;0;0;0;0;0;0;0;0;0
23;2022-04-23 22:15:22.265;5.173730773085111;52.36977374255918;1;0.0;0.0;10.13017654;0.22506183;-1.38389087;-0.08;0.0;0.0;26.66666603;0.0;1484.75;23;2.3000000000000003;-0.024055432687278076;0.0057177676104008136;0.13598107691334968;9.832651471539203;0.22106838684743718;-1.498898040523334;0.48473954179908596;1;2.3000000000000003;0;0;0;0;0;0;0;0;0;0;0;0;0;0;0;0;0
24;2022-04-23 22:15:22.365;5.173730773085111;52.36977374255918;1;-0.02;0.0;9.84765244;-0.13886794;-1.55627859;-0.13;0.0;0.0;26.66666603;0.0;1484.75;24;2.4000000000000004;-0.023649269777229146;0.005145117215065905;0.1390328339764707;9.834153860426756;0.18501975844749227;-1.5046448628115598;0.536344315758851;1;2.4000000000000004;0;0;0;0;0;0;0;0;0;0;0;0;0;0;0;0;0
25;2022-04-23 22:15:22.466;5.173730773085111;52.36977374255918;1;0.0;0.02;9.64413929;-0.33519846;-1.56585574;-0.18000001;0.0;0.0;26.66666603;0.0;1484.75;25;2.5;-0.021302422912033846;0.006619248781285909;0.1467155727453431;9.81529767149796;0.1333956488372875;-1.510719154178639;0.5823554145936671;1;2.5;0;0;0;0;0;0;0;0;0;0;0;0;0;0;0;0;0
26;2022-04-23 22:15:22.565;5.173730773085111;52.36977374255918;1;-0.06;0.01;9.77582359;0.03591412;-1.40543926;-0.18000001;8.62745095;0.0;26.66666603;0.0;1484.75;26;2.6;-0.02511088514598281;0.0069519689231589115;0.15357876549181362;9.811412788776154;0.12380190294874022;-1.5003579240669436;0.6234583401623048;1;2.6;0;0;0;0;0;0;0;0;0;0;0;0;0;0;0;0;0
27;2022-04-23 22:15:22.666;5.173730773085111;52.36977374255918;1;0.0;0.05;9.56273365;-0.05506832;-2.15724158;-0.20999999;8.62745095;4.313725470000001;26.66666603;48.23529434;1484.75;27;2.7;-0.022657985100295992;0.011157018517438284;0.16265088525485036;9.787121129309783;0.10632936960344849;-1.564524118937493;0.6602399609315206;1;2.7;0;0;0;0;0;0;0;0;0;0;0;0;0;0;0;0;0
28;2022-04-23 22:15:22.766;5.173801081510144;52.36977125272324;1;-0.02;-0.04;9.47175121;0.06225114;-2.92340946;-0.14;8.62745095;4.313725470000001;26.66666603;48.23529434;1484.75;28;2.8000000000000003;-0.022400092707228703;0.0061934820678997;0.1639899543559307;9.75652219811819;0.10205265634672755;-1.6963706791276307;0.6932053562357483;1;2.8000000000000003;0;0;0;0;0;0;0;0;0;0;0;0;0;0;0;0;0
29;2022-04-23 22:15:22.865;5.173801081510144;52.36977125272324;1;-0.01;-0.07;9.92905807;-0.50040346;-2.32484078;-0.17;8.62745095;4.313725470000001;26.66666603;48.23529434;1484.75;29;2.9000000000000004;-0.02120428133209617;-0.0011542882043851575;0.1680848192907709;9.77316081228713;0.04395439095830735;-1.7569776208092653;0.7227913063979723;1;2.9000000000000004;0;0;0;0;0;0;0;0;0;0;0;0;0;0;0;0;0
30;2022-04-23 22:15:22.965;5.173801081510144;52.36977125272324;1;-0.04;-0.05;9.72075558;-0.13168511;-1.91302562;-0.17;8.62745095;4.313725470000001;26.66666603;48.23529434;1484.75;30;3.0;-0.023006896931122248;-0.005838867899582687;0.17176445729208953;9.768134854468732;0.02710957061242428;-1.7719435054614106;0.7493771860922647;1;3.0;0;0;0;0;0;0;0;0;0;0;0;0;0;0;0;0;0
31;2022-04-23 22:15:23.065;5.173801081510144;52.36977125272324;1;0.03;-0.03;9.07669544;-0.62730002;-2.90425539;-0.16;8.62745095;4.313725470000001;26.66666603;48.23529434;1484.75;31;3.1;-0.01794851059614767;-0.008144536548948747;0.17412036928019997;9.702151597796373;-0.03533997316923829;-1.8799987076197622;0.7732938288406807;1;3.1;0;0;0;0;0;0;0;0;0;0;0;0;0;0;0;0;0
32;2022-04-23 22:15:23.165;5.173801081510144;52.36977125272324;1;-0.05;-0.09;11.1597147;-0.22027329;-0.81644773;-0.13;8.62745095;4.313725470000001;26.66666603;48.23529434;1484.75;32;3.2;-0.020993384790692803;-0.015920761397790927;0.17339188688730253;9.84061930583017;-0.05290853845600295;-1.7789619387653188;0.7948307927430251;1;3.2;0;0;0;0;0;0;0;0;0;0;0;0;0;0;0;0;0
33;2022-04-23 22:15:23.266;5.173801081510144;52.36977125272324;1;-0.01;-0.08;9.9314518;-0.60335726;-2.06386495;-0.15000001;8.62745095;4.313725470000001;26.66666603;48.23529434;1484.75;33;3.3000000000000003;-0.01995327360784847;-0.02198345582059823;0.17462754578285464;9.849213191585145;-0.10498784630893919;-1.805917313625125;0.8142423562338212;1;3.3000000000000003;0;0;0;0;0;0;0;0;0;0;0;0;0;0;0;0;0
34;2022-04-23 22:15:23.366;5.173801081510144;52.36977125272324;1;-0.07;-0.09;9.32570076;-0.83799618;-1.71908927;-0.08;8.62745095;4.313725470000001;26.66666603;48.23529434;1484.75;34;3.4000000000000004;-0.024670846609501543;-0.028394924374449727;0.16914373136890934;9.799865146441814;-0.1740836808278969;-1.7977326097709188;0.8317524974209867;1;3.4000000000000004;0;0;0;0;0;0;0;0;0;0;0;0;0;0;0;0;0
35;2022-04-23 22:15:23.466;5.173801081510144;52.36977125272324;1;-0.04;-0.06;8.92825031;-1.17798316;-2.44216037;-0.15000001;8.62745095;4.313725470000001;26.66666603;48.23529434;1484.75;35;3.5;-0.02611099358869783;-0.031364165599318594;0.17076982213621364;9.717978466744134;-0.2683982698672736;-1.8582754635451784;0.8475590541449002;1;3.5;0;0;0;0;0;0;0;0;0;0;0;0;0;0;0;0;0
36;2022-04-23 22:15:23.565;5.173801081510144;52.36977125272324;1;-0.09;-0.1;9.51484776;-0.77813929;-2.07104778;-0.14;8.62745095;4.313725470000001;26.66666603;48.23529434;1484.75;36;3.6;-0.03209506679617895;-0.037792843720654515;0.17130204369969376;9.69895251708358;-0.3161424398375039;-1.8782044809099836;0.8618372192167115;1;3.6;0;0;0;0;0;0;0;0;0;0;0;0;0;0;0;0;0
37;2022-04-23 22:15:23.673;5.173801081510144;52.36977125272324;11;0.0;-0.06;9.51245403;-0.42139238;-1.13967478;-0.07;8.62745095;4.313725470000001;26.66666603;48.23529434;1902.75;37;3.7;-0.029097185505276964;-0.03986713192066886;0.16524464976601555;9.681532384302427;-0.32597344684195934;-1.8092211574854296;1.8088054470020312;1;3.7;0;0;0;0;0;0;0;0;0;0;0;0;0;0;0;0;0
38;2022-04-23 22:15:23.765;5.173838134025026;52.3697626322438;11;0.02;-0.08;10.55875206;-0.61293435;-0.77335078;0.0;8.62745095;4.313725470000001;27.45098114;48.23529434;1902.75;38;3.8000000000000003;-0.024522622909733435;-0.04360645659433796;0.15324458050692136;9.763266118634096;-0.3527106335148913;-1.7127053626611604;2.6651823325159443;1;3.8000000000000003;0;0;0;0;0;0;0;0;0;0;0;0;0;0;0;0;0
39;2022-04-23 22:15:23.867;5.173838134025026;52.3697626322438;11;0.02;-0.14;11.60265541;-1.13488626;-0.06225114;-0.03;8.62745095;4.313725470000001;27.45098114;48.23529434;1902.75;39;3.9000000000000004;-0.020383661685241496;-0.05256749959614624;0.14517608118437364;9.934261456647858;-0.42542410763630933;-1.5592740150911115;3.440012854268181;1;3.9000000000000004;0;0;0;0;0;0;0;0;0;0;0;0;0;0;0;0;0
40;2022-04-23 22:15:23.966;5.173838134025026;52.3697626322438;11;0.04;-0.16;8.64093781;-0.99362403;-1.36473668;-0.03;8.62745095;4.313725470000001;27.45098114;48.23529434;1902.75;40;4.0;-0.014781715534108945;-0.06253428639488405;0.13787265593474388;9.814276526580617;-0.47813746219819514;-1.5412262908367276;4.141372124502614;1;4.0;0;0;0;0;0;0;0;0;0;0;0;0;0;0;0;0;0
41;2022-04-23 22:15:24.070;5.173838134025026;52.3697626322438;11;-0.04;0.14;8.61220646;-0.08619389;-1.76218629;-0.17;9.01960755;4.313725470000001;27.45098114;48.23529434;1902.75;41;4.1000000000000005;-0.017116928470722614;-0.04377961312054405;0.14422311097189905;9.702964848183466;-0.4418434905976389;-1.56168718496369;4.776481010039356;1;4.1000000000000005;0;0;0;0;0;0;0;0;0;0;0;0;0;0;0;0;0
42;2022-04-23 22:15:24.169;5.173838134025026;52.3697626322438;11;-0.22;-0.37;11.4853363;-1.17319465;-0.8092649;-0.2;9.01960755;4.313725470000001;27.45098114;46.66666794;1902.75;42;4.2;-0.0358721859626859;-0.07393662577287446;0.15274909708229414;9.867733822120847;-0.5094522822441995;-1.4921305009544528;5.351806000355225;1;4.2;0;0;0;0;0;0;0;0;0;0;0;0;0;0;0;0;0
43;2022-04-23 22:15:24.265;5.173838134025026;52.3697626322438;13;-0.15000001;-0.19;10.46776962;-1.07263517;-1.2689656;-0.12;9.01960755;4.313725470000001;27.45098114;46.66666794;2144.5;43;4.3;-0.04640641616473446;-0.08464951119278144;0.15309089085748182;9.923118346251108;-0.5614352078411545;-1.4715319268599973;6.0577498567442065;1;4.3;0;0;0;0;0;0;0;0;0;0;0;0;0;0;0;0;0
44;2022-04-23 22:15:24.367;5.173838134025026;52.3697626322438;13;-0.11;-0.23;9.0383873;-1.33600533;-1.85316873;-0.07;9.01960755;4.313725470000001;24.70588303;46.66666794;2144.5;44;4.4;-0.0522680683073888;-0.09804699491314725;0.14879202278794104;9.841569464741857;-0.6328301559219176;-1.5067087804028985;6.697642326595726;1;4.4;0;0;0;0;0;0;0;0;0;0;0;0;0;0;0;0;0
45;2022-04-23 22:15:24.466;5.173838134025026;52.3697626322438;13;0.02;-0.1;10.37678719;-0.81405342;-2.18118429;-0.16;9.01960755;4.313725470000001;24.70588303;46.66666794;2144.5;45;4.5;-0.04561527014441551;-0.09822678315100117;0.15317947654202388;9.890840125806752;-0.6495130675671902;-1.5687991273059343;7.277819914485365;1;4.5;0;0;0;0;0;0;0;0;0;0;0;0;0;0;0;0;0
46;2022-04-23 22:15:24.568;5.173838134025026;52.3697626322438;13;0.12;-0.03;10.24510193;-0.41420954;-2.15005875;-0.17;9.01960755;4.313725470000001;24.70588303;46.66666794;2144.5;46;4.6000000000000005;-0.030386671725924675;-0.09195321742794886;0.15807798159139275;9.923415085509228;-0.6278765184455398;-1.6222469124236516;7.803983851691166;1;4.6000000000000005;0;0;0;0;0;0;0;0;0;0;0;0;0;0;0;0;0
47;2022-04-23 22:15:24.667;5.173838134025026;52.3697626322438;13;0.06;-0.02;9.7087841;0.22506183;-1.62571263;-0.16;9.01960755;4.313725470000001;24.70588303;43.13725662;2144.5;47;4.7;-0.02208412349274383;-0.08534389055684172;0.1616028694967009;9.903699965176788;-0.5495291067898501;-1.6225652589983264;8.281268542763016;1;4.7;0;0;0;0;0;0;0;0;0;0;0;0;0;0;0;0;0
48;2022-04-23 22:15:24.765;5.173885747832841;52.36974393840001;13;-0.13;0.12;9.96736622;0.4764607;-2.07583618;-0.09;9.01960755;4.313725470000001;24.70588303;43.13725662;1816.75;48;4.800000000000001;-0.03198745597078354;-0.06649968629017974;0.15837711748054895;9.909542553955683;-0.45537504434254733;-1.6641614798565707;8.714301827651921;1;4.800000000000001;0;0;0;0;0;0;0;0;0;0;0;0;0;0;0;0;0
49;2022-04-23 22:15:24.865;5.173885747832841;52.36974393840001;15;-0.15000001;-0.20999999;8.5236187;-1.85795724;-1.92739117;-0.13;9.01960755;4.313725470000001;26.27450943;43.13725662;1816.75;49;4.9;-0.04280804572211071;-0.07965725184248869;0.15911751298850982;9.782466976500423;-0.5839780277841875;-1.688297051795009;9.290638487621223;1;4.9;0;0;0;0;0;0;0;0;0;0;0;0;0;0;0;0;0
50;2022-04-23 22:15:24.975;5.173885747832841;52.36974393840001;15;0.02;-0.13;9.01205063;-0.83799618;-1.89387143;-0.15000001;9.01960755;4.313725470000001;26.27450943;43.13725662;1816.75;50;5.0;-0.037053660634234216;-0.0842695838446978;0.16162186952553878;9.711882511010558;-0.6072508147393473;-1.7071314880967878;9.813722184469357;1;5.0;0;0;0;0;0;0;0;0;0;0;0;0;0;0;0;0;0
51;2022-04-23 22:15:25.072;5.173885747832841;52.36974393840001;15;0.0;0.02;9.70639038;-0.26815879;-1.64726102;-0.18000001;9.01960755;4.313725470000001;26.27450943;43.13725662;1816.75;51;5.1000000000000005;-0.0336612631285496;-0.07472332390441225;0.16664177670647254;9.711379686425289;-0.5762057055859346;-1.7016501288151609;10.288544796433868;1;5.1000000000000005;0;0;0;0;0;0;0;0;0;0;0;0;0;0;0;0;0
52;2022-04-23 22:15:25.169;5.173885747832841;52.36974393840001;15;0.04;-0.06;8.74149704;0.4166038;-2.00400805;-0.04;9.01960755;4.313725470000001;26.27450943;43.13725662;1816.75;52;5.2;-0.026921650374678578;-0.07337621828402151;0.15838990133835948;9.622640596488715;-0.4853689303010157;-1.7293142661826542;10.719617822209058;1;5.2;0;0;0;0;0;0;0;0;0;0;0;0;0;0;0;0;0
53;2022-04-23 22:15:25.264;5.173885747832841;52.36974393840001;15;-0.01;0.0;9.98412609;0.13647367;-1.39586222;-0.08;9.01960755;4.313725470000001;26.27450943;48.62745285;1816.75;53;5.300000000000001;-0.025374315688014678;-0.06666661459802496;0.15455506083936693;9.655695235395143;-0.428506945578127;-1.6988230371374333;11.111020768684348;1;5.300000000000001;0;0;0;0;0;0;0;0;0;0;0;0;0;0;0;0;0
54;2022-04-23 22:15:25.373;5.173885747832841;52.36974393840001;15;-0.01;0.0;9.49569416;-0.25139886;-1.64965534;-0.16;9.01960755;4.313725470000001;26.27450943;48.62745285;1816.75;54;5.4;-0.023969218574868383;-0.060573786168077584;0.15838413498599085;9.64107233745938;-0.41232059525134845;-1.6943294784835208;11.466444294641175;1;5.4;0;0;0;0;0;0;0;0;0;0;0;0;0;0;0;0;0
55;2022-04-23 22:15:25.468;5.173885747832841;52.36974393840001;15;-0.07;0.0;10.85085297;1.30487978;-1.03672099;-0.09;9.01960755;4.313725470000001;26.27450943;48.62745285;1816.75;55;5.5;-0.028174054019799936;-0.05504047138984582;0.1554671957025544;9.751583789292376;-0.25545719253786764;-1.6342580350786153;11.78922874053852;1;5.5;0;0;0;0;0;0;0;0;0;0;0;0;0;0;0;0;0
56;2022-04-23 22:15:25.565;5.173885747832841;52.36974393840001;18;-0.19;-0.18000001;7.01043653;0.20590763;-1.37670803;-0.03;9.01960755;4.313725470000001;26.27450943;48.62745285;1804.25;56;5.6000000000000005;-0.04295009510465121;-0.06645030598258543;0.14733938374343722;9.50129447828234;-0.21333078609771156;-1.610741599358778;12.356323286116796;1;5.6000000000000005;0;0;0;0;0;0;0;0;0;0;0;0;0;0;0;0;0
57;2022-04-23 22:15:25.669;5.173885747832841;52.36974393840001;18;0.2;0.07;10.07989693;0.35195839;-0.45970076;0.0;9.01960755;4.313725470000001;25.49019623;48.62745285;1804.25;57;5.7;-0.020775602118140172;-0.053996240666353335;0.13721850061989746;9.554104566716612;-0.16173582432035627;-1.5056840277264036;12.871431829936185;1;5.7;0;0;0;0;0;0;0;0;0;0;0;0;0;0;0;0;0
58;2022-04-23 22:15:25.766;5.173938307551116;52.36971609249146;18;0.05;-0.01;8.30813313;-1.72148359;-2.13569307;-0.05;9.01960755;4.313725470000001;25.49019623;48.62745285;1804.25;58;5.800000000000001;-0.014318127570109909;-0.049982080478245615;0.1325866388672326;9.440423741695302;-0.30404519643153827;-1.5631652392422;13.3393557674923;1;5.800000000000001;0;0;0;0;0;0;0;0;0;0;0;0;0;0;0;0;0
59;2022-04-23 22:15:25.870;5.173938307551116;52.36971609249146;18;0.1;0.02;8.8636055;-1.0175668;-1.3072741;-0.04;9.01960755;4.313725470000001;25.49019623;48.62745285;1804.25;59;5.9;-0.003891326084030185;-0.043599109761007324;0.12746668274137393;9.387812931602932;-0.3691245348931914;-1.539825755228268;13.764446811603367;1;5.9;0;0;0;0;0;0;0;0;0;0;0;0;0;0;0;0;0
60;2022-04-23 22:15:25.965;5.173938307551116;52.36971609249146;18;-0.1;-0.13;9.71117878;0.25618741;-2.07583618;-0.06;4.705881120000001;4.313725470000001;25.49019623;48.62745285;1804.25;60;6.0;-0.012654642895455532;-0.05147725793539045;0.12463873089378497;9.417297860070226;-0.3121077594473174;-1.588699899206243;14.150650188980265;1;6.0;0;0;0;0;0;0;0;0;0;0;0;0;0;0;0;0;0
61;2022-04-23 22:15:26.065;5.173938307551116;52.36971609249146;18;-0.04;0.08;9.62737942;1.01517248;-0.66800267;0.0;4.705881120000001;1.5686273600000007;25.49019623;35.68627548;1804.25;61;6.1000000000000005;-0.015147350338824585;-0.03949224935655439;0.11659994407812038;9.436448162849212;-0.1911175189593937;-1.5047723488159703;14.5015435011201;1;6.1000000000000005;0;0;0;0;0;0;0;0;0;0;0;0;0;0;0;0;0
62;2022-04-23 22:15:26.166;5.173938307551116;52.36971609249146;18;0.28999999;0.2;9.55555058;0.19154198;0.24900457;0.08;4.705881120000001;1.5686273600000007;25.49019623;35.68627548;1766.5;62;6.2;0.012661936961571668;-0.01766637087706505;0.10200503501007716;9.447302438469114;-0.15624424124059877;-1.3449437029493434;14.820371716294;1;6.2;0;0;0;0;0;0;0;0;0;0;0;0;0;0;0;0;0
63;2022-04-23 22:15:26.265;5.173938307551116;52.36971609249146;20;0.03;0.02;10.28341007;0.12929083;-0.05506832;0.11;4.705881120000001;1.5686273600000007;14.90196037;35.68627548;1766.5;63;6.300000000000001;0.014241668164808001;-0.014234456870564485;0.08600979583960115;9.523483111700367;-0.13022814817084072;-1.227418672257322;15.292305657403812;1;6.300000000000001;0;0;0;0;0;0;0;0;0;0;0;0;0;0;0;0;0
64;2022-04-23 22:15:26.365;5.173938307551116;52.36971609249146;20;-0.04;0.01;9.58428192;0.61054009;-0.43096948;0.01;4.705881120000001;1.5686273600000007;14.90196037;35.68627548;1766.5;64;6.4;0.009300531092916836;-0.012026822457543522;0.08058439506935396;9.529021570523266;-0.06274797052984026;-1.1548662459974361;15.721152406155287;1;6.4;0;0;0;0;0;0;0;0;0;0;0;0;0;0;0;0;0
65;2022-04-23 22:15:26.467;5.173938307551116;52.36971609249146;20;-0.09;0.03;9.13894653;0.54350036;-1.07742369;-0.05;4.705881120000001;1.5686273600000007;14.90196037;35.68627548;1766.5;65;6.5;0.00025644338635576246;-0.008199106088348729;0.08111881262990507;9.493494339804512;-0.007532122105649835;-1.1478129376117467;16.110861025996694;1;6.5;0;0;0;0;0;0;0;0;0;0;0;0;0;0;0;0;0
66;2022-04-23 22:15:26.573;5.173938307551116;52.36971609249146;20;0.02;0.1;7.65689087;-0.44294083;-0.01197137;0.05;0.0;0.0;14.90196037;35.68627548;1766.5;66;6.6000000000000005;0.0020543422582014075;0.0016537818475824435;0.07249821821785221;9.32624852026927;-0.047181555084408876;-1.0443802930803512;16.465015989595265;1;6.6000000000000005;0;0;0;0;0;0;0;0;0;0;0;0;0;0;0;0;0
67;2022-04-23 22:15:26.665;5.173938307551116;52.36971609249146;20;0.16;0.13;8.06631184;-0.44533512;-1.56106722;0.08;0.0;0.0;14.90196037;20.7843132;1766.5;67;6.7;0.016435071654433413;0.01333952401149145;0.061932381896416325;9.211533062342856;-0.08343287567820672;-1.0914239091242244;16.786871298569576;1;6.7;0;0;0;0;0;0;0;0;0;0;0;0;0;0;0;0;0
68;2022-04-23 22:15:26.765;5.173999694966078;52.36968330434722;20;0.11;0.06;10.53002071;1.28093708;0.2370332;0.0;0.0;0.0;14.90196037;20.7843132;1704.25;68;6.800000000000001;0.02495283821271315;0.017587301987662635;0.05961276083702837;9.331562759274176;0.040773758015518476;-0.9704866333918537;17.079381330741153;1;6.800000000000001;0;0;0;0;0;0;0;0;0;0;0;0;0;0;0;0;0
69;2022-04-23 22:15:26.865;5.173999694966078;52.36968330434722;20;0.08;-0.11;10.92268181;-0.94573855;0.06225114;0.06;0.0;0.0;10.98039246;20.7843132;1704.25;69;6.9;0.029963470252349713;0.0059737509446402305;0.052043114951490305;9.476393334286387;-0.04902288212987716;-0.8764823503754813;17.3452287423897;1;6.9;0;0;0;0;0;0;0;0;0;0;0;0;0;0;0;0;0
70;2022-04-23 22:15:26.965;5.173999694966078;52.36968330434722;20;0.0;0.06;10.96817303;1.17798316;2.83721566;0.06;0.0;0.0;10.98039246;20.7843132;1704.25;70;7.0;0.02723637921119283;0.010890888330441804;0.045163284104096715;9.612165960397386;0.06265167214426767;-0.5384843652167723;17.586849717930143;1;7.0;0;0;0;0;0;0;0;0;0;0;0;0;0;0;0;0;0
71;2022-04-23 22:15:27.067;5.173999694966078;52.36968330434722;20;0.09;-0.02;9.15331268;0.54350036;1.185166;-0.1;0.0;0.0;10.98039246;20.7843132;1704.25;71;7.1000000000000005;0.03294814010411919;0.008079683914634131;0.05347096018978158;9.570408327717402;0.10641098201504429;-0.38162472860895086;17.80645682849281;1;7.1000000000000005;0;0;0;0;0;0;0;0;0;0;0;0;0;0;0;0;0
72;2022-04-23 22:15:27.166;5.173999694966078;52.36968330434722;20;-0.02;0.05;10.55875206;0.84039044;-0.34716985;0.05;2.7450981200000015;1.5686273600000007;10.98039246;20.7843132;1704.25;72;7.2;0.028130089236136878;0.011894250675695434;0.04737253397397668;9.660343316327486;0.17319992602085058;-0.3784894842460395;18.006059733536393;1;7.2;0;0;0;0;0;0;0;0;0;0;0;0;0;0;0;0;0
73;2022-04-23 22:15:27.267;5.173999694966078;52.36968330434722;20;-0.14;0.04;8.64093781;0.62011719;-0.67039692;0.0;2.7450981200000015;1.5686273600000007;10.98039246;18.03921509;1704.25;73;7.300000000000001;0.012832305365342613;0.014451530462099788;0.0463789070006847;9.567589870568035;0.2138639365114265;-0.4050494943116385;18.187483935392333;1;7.300000000000001;0;0;0;0;0;0;0;0;0;0;0;0;0;0;0;0;0
74;2022-04-23 22:15:27.366;5.173999694966078;52.36968330434722;20;-0.09;0.08;9.84286404;-0.34716985;-0.28013015;-0.01;2.7450981200000015;1.5686273600000007;10.98039246;18.03921509;1704.25;74;7.4;0.0034765582163147316;0.020415171020614728;0.046385565235514396;9.592634485844473;0.16282073340502584;-0.3936842546114311;18.352387775131938;1;7.4;0;0;0;0;0;0;0;0;0;0;0;0;0;0;0;0;0
75;2022-04-23 22:15:27.465;5.173999694966078;52.36968330434722;19;-0.11;-0.03;9.91229725;1.36234236;0.24421602;0.07;2.7450981200000015;1.5686273600000007;10.98039246;18.03921509;1757.25;75;7.5;-0.006846871231790523;0.015828695458381385;0.0391136880733371;9.621715522886989;0.2719461517141028;-0.335651841720261;18.411303724101867;1;7.5;1;0;0;0;0;0;0;0;0;0;0;0;0;0;0;0;0
76;2022-04-23 22:15:27.566;5.173999694966078;52.36968330434722;19;-0.16;0.0;9.70160198;1.03432667;-0.44772938;0.02;2.7450981200000015;1.5686273600000007;15.29411793;18.03921509;1757.25;76;7.6000000000000005;-0.020778935650253835;0.01438878752727954;0.0370522032919136;9.628982650079315;0.34129853502855534;-0.3458473336160834;18.464856364551903;1;7.6000000000000005;1;0;0;0;0;0;0;0;0;0;0;0;0;0;0;0;0
77;2022-04-23 22:15:27.670;5.173999694966078;52.36968330434722;19;0.0;0.03;10.20679379;0.80447632;-0.40702671;0.01;2.7450981200000015;1.5686273600000007;15.29411793;18.03921509;1757.25;77;7.7;-0.0188888250026502;0.015808827485694402;0.03608798706178124;9.681541982580773;0.38343049394327;-0.3514123824070006;18.51353454039222;1;7.7;1;0;0;0;0;0;0;0;0;0;0;0;0;0;0;0;0
78;2022-04-23 22:15:27.766;5.174069395665991;52.3696577632221;19;0.01;0.03;9.98891449;0.65124273;-1.25220573;-0.06;2.7450981200000015;1.5686273600000007;15.29411793;18.03921509;1757.25;78;7.800000000000001;-0.01626115711491789;0.017099627243098495;0.04157858125687135;9.709499951353928;0.4077901420966129;-0.43334668581795177;18.55778243439916;1;7.800000000000001;1;0;0;0;0;0;0;0;0;0;0;0;0;0;0;0;0
79;2022-04-23 22:15:27.867;5.174069395665991;52.3696577632221;19;0.01;0.11;9.31372929;1.0606637;-0.43575802;-0.04;2.7450981200000015;1.5686273600000007;15.29411793;18.03921509;1757.25;79;7.9;-0.013872613142010102;0.025549240657251275;0.0447504486943206;9.673503227230388;0.4671712727519395;-0.4335660050848825;18.59800366670845;1;7.9;1;0;0;0;0;0;0;0;0;0;0;0;0;0;0;0;0
80;2022-04-23 22:15:27.964;5.174069395665991;52.3696577632221;19;-0.03;0.08;9.89793205;0.57941449;-1.12291491;-0.03;7.84313775;3.9215688699999998;15.29411793;18.03921509;1757.25;80;8.0;-0.015339390183460833;0.03050150753078601;0.04672420113848668;9.693914906293893;0.47737973216124896;-0.4962619121268695;18.63456501403716;1;8.0;1;0;0;0;0;0;0;0;0;0;0;0;0;0;0;0;0
81;2022-04-23 22:15:28.067;5.174069395665991;52.3696577632221;19;-0.03;0.04;9.73272705;0.65124273;-0.69194543;-0.01;7.84313775;3.9215688699999998;15.29411793;45.88235474;1757.25;81;8.1;-0.016672710834778903;0.03136535537368439;0.04669945377770578;9.697444707125703;0.49319183878023526;-0.5140585030441499;18.667799785277627;1;8.1;1;0;0;0;0;0;0;0;0;0;0;0;0;0;0;0;0
82;2022-04-23 22:15:28.166;5.174069395665991;52.3696577632221;20;0.02;0.06;9.82610416;0.85475612;-1.21868587;-0.07;7.84313775;3.9215688699999998;32.15686417;45.88235474;1988.0;82;8.200000000000001;-0.013337604777232729;0.03396946002193797;0.052133504724120566;9.709145312586118;0.5260733792237844;-0.5781390399435006;18.78895333255702;1;8.200000000000001;1;0;0;0;0;0;0;0;0;0;0;0;0;0;0;0;0
83;2022-04-23 22:15:28.264;5.174069395665991;52.3696577632221;20;0.04;0.02;9.51245403;0.14365649;-1.31206262;-0.03;7.84313775;3.9215688699999998;32.15686417;45.88235474;1988.0;83;8.3;-0.008487114280220146;0.032699085520349364;0.0534356284715477;9.691258322703204;0.4912966115975626;-0.644881619882468;18.899085206239853;1;8.3;1;0;0;0;0;0;0;0;0;0;0;0;0;0;0;0;0
84;2022-04-23 22:15:28.366;5.174069395665991;52.3696577632221;20;0.02;0.04;9.55076218;0.45491222;-0.76616794;-0.05;7.84313775;3.9215688699999998;32.15686417;45.88235474;1988.0;84;8.4;-0.005896591366113477;0.0333630062694791;0.05643803507864879;9.678482073293171;0.48798793669205415;-0.6559109922626076;18.999198716217062;1;8.4;1;0;0;0;0;0;0;0;0;0;0;0;0;0;0;0;0
85;2022-04-23 22:15:28.465;5.174069395665991;52.3696577632221;20;-0.04;0.03;9.62498474;0.59856868;-1.04390383;-0.04;7.450979240000002;3.9215688699999998;32.15686417;45.88235474;1988.0;85;8.5;-0.008997755824183601;0.033057194154709646;0.05825799614032067;9.673617338791368;0.49804350253226254;-0.6911927909617966;19.090205729743996;1;8.5;1;0;0;0;0;0;0;0;0;0;0;0;0;0;0;0;0
86;2022-04-23 22:15:28.566;5.174069395665991;52.3696577632221;20;-0.06;0.0;9.75667;0.409421;-1.01277828;-0.05;7.450979240000002;3.9215688699999998;32.15686417;52.54901886;1988.0;86;8.6;-0.01363548530443703;0.030051241645301187;0.060821737841790104;9.681169472653812;0.48998489257794614;-0.7204351611169785;19.17293502482338;1;8.6;1;0;0;0;0;0;0;0;0;0;0;0;0;0;0;0;0
87;2022-04-23 22:15:28.666;5.174069395665991;52.3696577632221;20;-0.02;0.02;10.19003391;0.38547826;-0.83320761;-0.05;7.450979240000002;3.9215688699999998;32.15686417;52.54901886;1988.0;87;8.700000000000001;-0.014214209349434417;0.029137284258059996;0.06315230062390569;9.727440413899593;0.4804821254342504;-0.7306895372797584;19.24813987716563;1;8.700000000000001;1;0;0;0;0;0;0;0;0;0;0;0;0;0;0;0;0
88;2022-04-23 22:15:28.765;5.17414957819301;52.36963778014904;20;0.0;0.04;9.55555058;0.63927138;-0.70391679;-0.02;7.450979240000002;3.9215688699999998;32.15686417;52.54901886;2094.25;88;8.8;-0.012921740908815035;0.0301250083678386;0.06254306443186625;9.711810829438228;0.49492050151204997;-0.7282551471510422;19.316504951622782;1;8.8;1;0;0;0;0;0;0;0;0;0;0;0;0;0;0;0;0
89;2022-04-23 22:15:28.865;5.17414957819301;52.36963778014904;22;-0.1;0.0;9.09106159;0.14605077;-0.70391679;-0.01;7.450979240000002;3.9215688699999998;27.45098114;52.54901886;2094.25;89;8.9;-0.02083943652390261;0.02738585568899666;0.06107997319610485;9.655368456996879;0.463199100874754;-0.7260421527055348;19.560504971827555;1;8.9;1;0;0;0;0;0;0;0;0;0;0;0;0;0;0;0;0
90;2022-04-23 22:15:28.965;5.17414957819301;52.36963778014904;22;-0.09;-0.03;10.75029373;0.80447632;-0.62730002;0.0;7.450979240000002;3.9215688699999998;27.45098114;52.54901886;2094.25;90;9.0;-0.02712783646025494;0.022168066921458215;0.05884069156884623;9.754924152772015;0.49422961212510563;-0.7170640589796881;19.78231520021289;1;9.0;1;0;0;0;0;0;0;0;0;0;0;0;0;0;0;0;0
91;2022-04-23 22:15:29.066;5.17414957819301;52.36963778014904;22;0.01;0.05;9.76864147;0.23463893;-0.82841909;0.02;7.450979240000002;3.9215688699999998;27.45098114;52.54901886;2094.25;91;9.1;-0.023752053493624463;0.02469863628860996;0.05498658282462735;9.756171375617754;0.4706267877603729;-0.7271888185349448;19.983954274455492;1;9.1;1;0;0;0;0;0;0;0;0;0;0;0;0;0;0;0;0
92;2022-04-23 22:15:29.165;5.17414957819301;52.36963778014904;22;-0.01;0.03;9.18683243;0.2753416;-0.71828246;0.0;0.0;0.0;27.45098114;52.54901886;2094.25;92;9.200000000000001;-0.022501689998419686;0.025180646605294555;0.05330139062836423;9.704405969503762;0.45287107803724075;-0.7263790350657005;20.167257079454988;1;9.200000000000001;1;0;0;0;0;0;0;0;0;0;0;0;0;0;0;0;0
93;2022-04-23 22:15:29.265;5.17414957819301;52.36963778014904;22;-0.02;0.0;9.84286404;0.19872481;-0.5411061;0.0;0.0;0.0;27.45098114;29.01960754;2094.25;93;9.3;-0.02227423439446457;0.022891202595363012;0.051769439086379876;9.71699468515881;0.4297639013183564;-0.7095338754461927;20.333891493851002;1;9.3;1;0;0;0;0;0;0;0;0;0;0;0;0;0;0;0;0
94;2022-04-23 22:15:29.364;5.17414957819301;52.36963778014904;22;0.01;0.0;10.28341007;0.22745611;-0.72546524;-0.02;0.0;0.0;27.45098114;29.01960754;2094.25;94;9.4;-0.019339870153150977;0.020809940945109313;0.05219518437990225;9.768493011368307;0.4113701342864874;-0.7109823505948408;20.485373606883883;1;9.4;1;0;0;0;0;0;0;0;0;0;0;0;0;0;0;0;0
95;2022-04-23 22:15:29.465;5.17414957819301;52.36963778014904;22;0.0;0.0;9.921875;0.19872481;-0.6440599;0.0;0.0;0.0;27.45098114;29.01960754;1558.75;95;9.5;-0.017581513325306677;0.018917927117813378;0.05076384191094631;9.782438310113497;0.39203668711712303;-0.7048978450109015;20.623081545917536;1;9.5;1;0;0;0;0;0;0;0;0;0;0;0;0;0;0;0;0
96;2022-04-23 22:15:29.570;5.17414957819301;52.36963778014904;22;-0.02;-0.01;9.95060635;0.30646718;-0.06464542;0.0;0.0;0.0;21.56862831;29.01960754;1558.75;96;9.600000000000001;-0.017801396987735266;0.016288770715570992;0.04946264787962203;9.797727790473512;0.3842568896040736;-0.6466874568523497;20.748268041967822;1;9.600000000000001;1;0;0;0;0;0;0;0;0;0;0;0;0;0;0;0;0
97;2022-04-23 22:15:29.666;5.17414957819301;52.36963778014904;22;0.0;-0.01;10.17566776;0.03591412;-0.48603779;0.0;0.0;0.0;21.56862831;29.01960754;1558.75;97;9.700000000000001;-0.01618294606336795;0.013898672607292736;0.04827976602819675;9.832088986589577;0.3525865842987759;-0.6320816592289598;20.86207184882259;1;9.700000000000001;1;0;0;0;0;0;0;0;0;0;0;0;0;0;0;0;0
98;2022-04-23 22:15:29.765;5.174239051965336;52.36962083894525;22;-0.01;0.0;9.56033897;-0.0287313;-0.45251793;0.03;0.0;0.0;21.56862831;29.01960754;1558.75;98;9.8;-0.015620815187034807;0.01263505605095663;0.04447694647587783;9.807382467496017;0.3179185548083795;-0.6157563807234346;20.965528120682265;1;9.8;1;0;0;0;0;0;0;0;0;0;0;0;0;0;0;0;0
99;2022-04-23 22:15:29.866;5.174239051965336;52.36962083894525;22;0.04;0.0;9.34006596;-0.41420954;0.20590763;0.05;0.0;0.0;21.56862831;25.09803963;1558.75;99;9.9;-0.010564010492106053;0.011486331233740021;0.03920157671254177;9.764896065576572;0.2513566251662687;-0.5410542316609235;21.059577843587533;1;9.9;1;0;0;0;0;0;0;0;0;0;0;0;0;0;0;0;0
100;2022-04-23 22:15:29.966;5.174239051965336;52.36962083894525;22;0.04;0.0;11.25309181;0.22027329;-0.00718282;0.03;0.0;0.0;21.56862831;25.09803963;1474.75;100;10.0;-0.005966979004750136;0.010442050413413355;0.03622415423067985;9.90019551334351;0.2485306809996429;-0.49251726503744797;21.145076407138188;1;10.0;1;0;0;0;0;0;0;0;0;0;0;0;0;0;0;0;0
101;2022-04-23 22:15:30.066;5.174239051965336;52.36962083894525;22;-0.07;-0.04;9.35443211;-0.2466103;-0.29928434;0.02;0.0;0.0;9.8039217;25.09803963;1474.75;101;10.100000000000001;-0.011788511858615153;0.005856134441718296;0.03442658604291356;9.85057768283014;0.20351516488963142;-0.4749495819253644;21.222801395059008;1;10.100000000000001;1;0;0;0;0;0;0;0;0;0;0;0;0;0;0;0;0
102;2022-04-23 22:15:30.167;5.174239051965336;52.36962083894525;22;-0.18000001;-0.12;9.49329948;-0.12210801;-0.25858167;0.05;0.0;0.0;9.8039217;25.09803963;1474.75;102;10.200000000000001;-0.027081299993270816;-0.005585956145015551;0.03006503043014269;9.818096075321838;0.17391144409561327;-0.4552786992997827;21.293459665957485;1;10.200000000000001;1;0;0;0;0;0;0;0;0;0;0;0;0;0;0;0;0
103;2022-04-23 22:15:30.269;5.174239051965336;52.36962083894525;22;-0.11;-0.05;8.50925255;-0.53871185;-0.27773589;0.03;0.0;0.0;9.8039217;25.09803963;1474.75;103;10.3;-0.03461973726052901;-0.009623796624411436;0.02791829308243114;9.699104402665428;0.1091242972000311;-0.43913764390394816;21.357693789074887;1;10.3;1;0;0;0;0;0;0;0;0;0;0;0;0;0;0;0;0
104;2022-04-23 22:15:30.367;5.174239051965336;52.36962083894525;22;-0.04;-0.04;9.67526436;-0.03112557;-0.31843856;0.0;0.0;0.0;9.8039217;21.1764698;1474.75;104;10.4;-0.03510887409435834;-0.012385394089510697;0.028694127759458923;9.696937028402797;0.09637373476300932;-0.42816450548939505;21.416087893893586;1;10.4;1;0;0;0;0;0;0;0;0;0;0;0;0;0;0;0;0
105;2022-04-23 22:15:30.465;5.174239051965336;52.36962083894525;22;-0.23;-0.14;7.7550559;-1.20910883;-1.21868587;-0.06;0.0;0.0;9.8039217;21.1764698;1350.25;105;10.5;-0.052826974935876916;-0.02398719712628636;0.034854194833908315;9.520395148953956;-0.0223113599114102;-0.5000330279205044;21.46917298707318;1;10.5;1;0;0;0;0;0;0;0;0;0;0;0;0;0;0;0;0
106;2022-04-23 22:15:30.570;5.174239051965336;52.36962083894525;22;0.05;0.06;8.73670864;0.08858817;-0.6847626;0.07;0.0;0.0;14.50980377;21.1764698;1350.25;106;10.600000000000001;-0.04347872001614106;-0.016351713059773246;0.028635590100737594;9.449148267798227;-0.012229209028947375;-0.5168272507602771;21.51743178529433;1;10.600000000000001;1;0;0;0;0;0;0;0;0;0;0;0;0;0;0;0;0
107;2022-04-23 22:15:30.665;5.174239051965336;52.36962083894525;22;0.05;-0.05;9.47414589;-1.57064426;-0.54589468;0.08;0.0;0.0;14.50980377;21.1764698;1350.25;107;10.700000000000001;-0.034980366870121106;-0.019410751792088815;0.022073231576081806;9.451420855840135;-0.15390810074823752;-0.5194698337854132;21.56130310814626;1;10.700000000000001;1;0;0;0;0;0;0;0;0;0;0;0;0;0;0;0;0
108;2022-04-23 22:15:30.765;5.174328021760405;52.36960574463368;22;0.0;0.04;12.40952587;-0.11492519;0.96249849;0.06;0.7843132100000005;0.0;14.50980377;21.1764698;1350.25;108;10.8;-0.03180023564992124;-0.014009608136533073;0.017925727429943798;9.72034776970263;-0.1503640907044027;-0.3847412944503156;21.601185871159256;1;10.8;1;0;0;0;0;0;0;0;0;0;0;0;0;0;0;0;0
109;2022-04-23 22:15:30.864;5.174328021760405;52.36960574463368;22;-0.25999999;-0.25999999;7.50365734;-2.370332;-1.350371;-0.07;0.7843132100000005;0.7843132000000015;14.50980377;18.8235302;1350.25;109;10.9;-0.05254624827942399;-0.03637299578964484;0.02597380373551626;9.51882481985861;-0.35218500157481514;-0.47252826917257756;21.637442715419752;1;10.9;1;0;0;0;0;0;0;0;0;0;0;0;0;0;0;0;0
110;2022-04-23 22:15:30.966;5.174328021760405;52.36960574463368;22;-0.16;-0.05;11.6649065;0.22266756;0.19393626;-0.02;0.7843132100000005;0.7843132000000015;14.50980377;18.8235302;1350.25;110;11.0;-0.06231501962048719;-0.037611845862938045;0.028744627504977967;9.713928116643096;-0.2999243486061622;-0.41193904368563194;21.670403306877844;1;11.0;1;0;0;0;0;0;0;0;0;0;0;0;0;0;0;0;0
111;2022-04-23 22:15:31.065;5.174328021760405;52.36960574463368;21;0.11;0.07;8.3632021;-1.10854924;-0.69673395;0.05;0.7843132100000005;0.7843132000000015;14.50980377;18.8235302;1386.75;111;11.100000000000001;-0.04664965562737666;-0.02782872458235409;0.024899762468448165;9.591132003151184;-0.3734374021140519;-0.43783008835848963;21.6094561425067;1;11.100000000000001;1;0;0;0;0;0;0;0;0;0;0;0;0;0;0;0;0
112;2022-04-23 22:15:31.173;5.174328021760405;52.36960574463368;21;0.1;-0.02;9.79497814;-1.71190643;-0.96249849;0.01;0.7843132100000005;0.7843132000000015;12.15686321;18.8235302;1386.75;112;11.200000000000001;-0.033317588516068385;-0.027117007387510515;0.025040886119511937;9.609663859671562;-0.4951189623594056;-0.485528218380976;21.554049874019142;1;11.200000000000001;1;0;0;0;0;0;0;0;0;0;0;0;0;0;0;0;0
113;2022-04-23 22:15:31.267;5.174328021760405;52.36960574463368;21;-0.07;-0.18000001;9.30654621;-1.59698129;-0.59378016;0.0;0.7843132100000005;0.7843132000000015;12.15686321;18.8235302;1386.75;113;11.3;-0.03665241692106482;-0.04101572775862364;0.026078288113994402;9.58210718312582;-0.5952901790260344;-0.49536949203784203;21.503680741159023;1;11.3;1;0;0;0;0;0;0;0;0;0;0;0;0;0;0;0;0
114;2022-04-23 22:15:31.369;5.174328021760405;52.36960574463368;21;0.0;-0.11;7.68801641;-1.59458697;-0.53152901;0.06;0.7843132100000005;0.7843132000000015;12.15686321;18.8235302;1386.75;114;11.4;-0.03332032113512994;-0.04728713417982389;0.021566737185068473;9.40991412156312;-0.6861369200001318;-0.4986567780490927;21.45789078742454;1;11.4;1;0;0;0;0;0;0;0;0;0;0;0;0;0;0;0;0
115;2022-04-23 22:15:31.472;5.174328021760405;52.36960574463368;21;-0.1;-0.12;11.37041092;-1.00080693;0.47885495;-0.04;0.7843132100000005;0.7843132000000015;12.15686321;18.8235302;1386.75;115;11.5;-0.03938220585463876;-0.05389749910255062;0.026556393512417252;9.588143917917938;-0.714743736316262;-0.40979067208883574;21.416263694811843;1;11.5;1;0;0;0;0;0;0;0;0;0;0;0;0;0;0;0;0
116;2022-04-23 22:15:31.567;5.174328021760405;52.36960574463368;21;-0.08;-0.25;10.40791225;-1.30248547;-0.2370332;0.08;5.490196230000002;2.7450981199999998;12.15686321;24.70588303;1386.75;116;11.600000000000001;-0.04307478560853374;-0.07172525513259569;0.02018318351276925;9.662669381686289;-0.7681755701217313;-0.39408522187442113;21.37842099744027;1;11.600000000000001;1;0;0;0;0;0;0;0;0;0;0;0;0;0;0;0;0
117;2022-04-23 22:15:31.666;5.174328021760405;52.36960574463368;21;-0.06;-0.19;9.44541454;-1.65444386;-0.88109314;-0.03;5.490196230000002;2.7450981199999998;12.15686321;24.70588303;1386.75;117;11.700000000000001;-0.04461346154445832;-0.08247764500169255;0.024389502637999494;9.64291868375514;-0.8487464662337648;-0.438359246822807;21.344018639576873;1;11.700000000000001;1;0;0;0;0;0;0;0;0;0;0;0;0;0;0;0;0
118;2022-04-23 22:15:31.766;5.174328021760405;52.36960574463368;21;-0.02;-0.2;10.34087276;-1.93217981;-0.77813929;0.01;5.490196230000002;2.7450981199999998;12.15686321;24.70588303;1386.75;118;11.8;-0.04237584758186958;-0.09316162222226886;0.02457701280482162;9.706369807175154;-0.9472415752279469;-0.46924870816285463;21.312743846719414;1;11.8;1;0;0;0;0;0;0;0;0;0;0;0;0;0;0;0;0
119;2022-04-23 22:15:31.865;5.174415098901347;52.369588811216886;21;-0.11;-0.20999999;9.85004616;-1.81007171;-0.42618093;0.06;5.490196230000002;2.7450981199999998;12.15686321;24.70588303;1669.0;119;11.9;-0.048523564113621534;-0.1037834065913916;0.020201972631494924;9.719431434683942;-1.025681524476165;-0.4653334133705369;21.284312281251612;1;11.9;1;0;0;0;0;0;0;0;0;0;0;0;0;0;0;0;0
120;2022-04-23 22:15:31.965;5.174415098901347;52.369588811216886;21;0.07;-0.17;9.47893429;-1.46050763;-1.10854924;0.0;5.490196230000002;2.7450981199999998;15.29411793;24.70588303;1669.0;120;12.0;-0.03774858899099346;-0.1098031559300038;0.021679270514788206;9.697567843503471;-1.0652115580583237;-0.5238081528220871;21.25846545677874;1;12.0;1;0;0;0;0;0;0;0;0;0;0;0;0;0;0;0;0
121;2022-04-23 22:15:32.065;5.174415098901347;52.369588811216886;21;-0.09;-0.17;9.11739826;-1.48923898;-0.4932206;0.0;5.490196230000002;2.7450981199999998;15.29411793;24.70588303;1669.0;121;12.100000000000001;-0.04249875960948906;-0.11527564508399368;0.02302226607636063;9.644824683920126;-1.103759849142685;-0.5210274414135069;21.234968387609168;1;12.100000000000001;1;0;0;0;0;0;0;0;0;0;0;0;0;0;0;0;0
122;2022-04-23 22:15:32.165;5.174415098901347;52.369588811216886;21;-0.16;-0.38;10.93465328;-3.25381947;-0.967287;0.06;5.098039630000002;2.7450981199999998;15.29411793;24.70588303;1669.0;122;12.200000000000001;-0.053180777121209326;-0.13934169056226758;0.01878857939596237;9.762082779278543;-1.299221398696635;-0.561596820968571;21.213607451990107;1;12.200000000000001;1;0;0;0;0;0;0;0;0;0;0;0;0;0;0;0;0
123;2022-04-23 22:15:32.265;5.174415098901347;52.369588811216886;21;0.07;-0.18000001;9.07190704;-3.03354621;-0.81884199;0.08;5.098039630000002;2.7450981199999998;15.29411793;25.49019623;1669.0;123;12.3;-0.041982442154401355;-0.1430379286514557;0.013121584064182904;9.699339068002876;-1.456888452210272;-0.5849829177178427;21.194188449653094;1;12.3;1;0;0;0;0;0;0;0;0;0;0;0;0;0;0;0;0
124;2022-04-23 22:15:32.367;5.174415098901347;52.369588811216886;22;0.07;-0.23999999;10.28101635;-1.04869235;0.25139886;0.04;5.098039630000002;2.7450981199999998;15.29411793;25.49019623;1660.0;124;12.4;-0.031802151957614905;-0.151852720538614;0.011606165363338635;9.752219175077554;-1.4197794671073396;-0.5089477014048082;21.267444535773656;1;12.4;1;0;0;0;0;0;0;0;0;0;0;0;0;0;0;0;0
125;2022-04-23 22:15:32.465;5.174415098901347;52.369588811216886;22;-0.05;-0.1;9.56512833;-0.82123625;-0.58659732;0.0;5.098039630000002;2.7450981199999998;14.50980377;25.49019623;1660.0;125;12.5;-0.0334565118524836;-0.14713880815187919;0.013864899537516046;9.73521081287602;-1.3653661160659554;-0.5160068006211845;21.334040892549485;1;12.5;1;0;0;0;0;0;0;0;0;0;0;0;0;0;0;0;0
126;2022-04-23 22:15:32.567;5.174415098901347;52.369588811216886;22;-0.04;-0.31999999;8.58586979;-2.91143823;-1.05348086;-0.25999999;5.098039630000002;2.7450981199999998;14.50980377;25.49019623;1660.0;126;12.600000000000001;-0.03405137770401734;-0.16285354803052332;0.03955478541316136;9.630724686996002;-1.5059189044036283;-0.5648683492022769;21.394582964699573;1;12.600000000000001;1;0;0;0;0;0;0;0;0;0;0;0;0;0;0;0;0
127;2022-04-23 22:15:32.665;5.174415098901347;52.369588811216886;22;-0.03;-0.22;9.26584339;-1.36952519;-1.69035804;0.02;5.098039630000002;2.7450981199999998;14.50980377;25.49019623;1660.0;127;12.700000000000001;-0.03368306878670378;-0.16804870616952342;0.037454529807220464;9.597553493080584;-1.4935194134278642;-0.667186108678081;21.449621153949018;1;12.700000000000001;1;0;0;0;0;0;0;0;0;0;0;0;0;0;0;0;0
128;2022-04-23 22:15:32.764;5.174494229296243;52.36956017546443;22;0.15000001;-0.1;9.83328629;-2.29132104;-0.16041641;-0.05;3.1372547200000014;1.5686273600000007;14.50980377;25.88235283;1660.0;128;12.8;-0.01698453069136215;-0.1618624318550015;0.04190887383750547;9.618983845379129;-1.566047165803521;-0.6211159253229374;21.499655823382692;1;12.8;1;0;0;0;0;0;0;0;0;0;0;0;0;0;0;0;0
129;2022-04-23 22:15:32.865;5.174494229296243;52.36956017546443;22;0.02;-0.19;10.36002731;-1.6592325;-0.37590113;0.02;3.1372547200000014;1.5686273600000007;14.50980377;25.88235283;1660.0;129;12.9;-0.013622286646161254;-0.16442040323312826;0.03959461113719197;9.686351713230389;-1.5745185950509755;-0.5988235784969099;21.545141846780453;1;12.9;1;0;0;0;0;0;0;0;0;0;0;0;0;0;0;0;0
130;2022-04-23 22:15:32.965;5.174494229296243;52.36956017546443;22;0.0;-0.14;9.01205063;-1.74063778;-0.51476908;0.01;3.1372547200000014;1.5686273600000007;14.50980377;25.88235283;1540.25;130;13.0;-0.0123838922692087;-0.16220035818251685;0.038399831971400074;9.625051383004196;-1.589620396230793;-0.5911822315630254;21.586492744312537;1;13.0;1;0;0;0;0;0;0;0;0;0;0;0;0;0;0;0;0
131;2022-04-23 22:15:33.065;5.174494229296243;52.36956017546443;22;0.0;-0.16;9.44062519;-1.72866642;-0.45730647;0.01;3.1372547200000014;1.5686273600000007;15.29411793;25.88235283;1540.25;131;13.100000000000001;-0.01125808001180658;-0.1620003249329777;0.0373136698773447;9.608285307835216;-1.6022609872904894;-0.5790116659556803;21.624084442209906;1;13.100000000000001;1;0;0;0;0;0;0;0;0;0;0;0;0;0;0;0;0
132;2022-04-23 22:15:33.164;5.174494229296243;52.36956017546443;22;0.03;-0.25999999;10.52523232;-0.9337672;-0.65124273;0.03;3.1372547200000014;1.5686273600000007;15.29411793;25.88235283;1540.25;132;13.200000000000001;-0.0075073337462785664;-0.17090941322957182;0.03450806294071263;9.691644387573778;-1.5414886349296675;-0.5855781468399537;21.658258690602747;1;13.200000000000001;1;0;0;0;0;0;0;0;0;0;0;0;0;0;0;0;0
133;2022-04-23 22:15:33.265;5.174494229296243;52.36956017546443;22;-0.01;-0.2;9.96257782;-1.80288899;-0.75659084;-0.01;3.1372547200000014;1.5686273600000007;15.29411793;25.88235283;1540.25;133;13.3;-0.007733940412998743;-0.17355401953863506;0.035593886666644606;9.716274769572772;-1.5652523710710478;-0.6011247994678306;21.689326170610343;1;13.3;1;0;0;0;0;0;0;0;0;0;0;0;0;0;0;0;0
134;2022-04-23 22:15:33.365;5.174494229296243;52.36956017546443;22;-0.01;-0.20999999;9.2083807;-1.87471712;-0.87151605;-0.04;4.705881120000001;2.3529405600000004;15.29411793;25.88235283;1540.25;134;13.4;-0.00793994636194451;-0.17686729813607857;0.0393082783791086;9.670102462204312;-1.5933856027098225;-0.6257058857164165;21.717569318938462;1;13.4;1;0;0;0;0;0;0;0;0;0;0;0;0;0;0;0;0
135;2022-04-23 22:15:33.465;5.174494229296243;52.36956017546443;22;-0.04;-0.18000001;9.61780167;-1.3072741;-0.26815879;0.03;4.705881120000001;2.3529405600000004;15.29411793;29.41176414;1540.25;135;13.5;-0.010854503534429925;-0.17715209079224195;0.036321345151174335;9.66534783356998;-1.5673754050424153;-0.593201527985566;21.74324489567052;1;13.5;1;0;0;0;0;0;0;0;0;0;0;0;0;0;0;0;0
136;2022-04-23 22:15:33.565;5.174494229296243;52.36956017546443;22;-0.04;-0.18000001;10.19482231;-2.33681226;-0.94573855;0.02;4.705881120000001;2.3529405600000004;15.29411793;29.41176414;1615.5;136;13.600000000000001;-0.013504099776547892;-0.17741099309090907;0.034515045373628074;9.713481979601895;-1.6373243593122806;-0.62525041656224;21.766586318602865;1;13.600000000000001;1;0;0;0;0;0;0;0;0;0;0;0;0;0;0;0;0
137;2022-04-23 22:15:33.665;5.174494229296243;52.36956017546443;22;-0.09;-0.19;9.17486095;-1.73106074;-0.66321415;0.0;4.705881120000001;2.3529405600000004;17.25490189;29.41176414;1615.5;137;13.700000000000001;-0.020458286015495517;-0.1785554504847496;0.03469114068129285;9.664516336461231;-1.6458458649977246;-0.6287016717521359;21.787805785350923;1;13.700000000000001;1;0;0;0;0;0;0;0;0;0;0;0;0;0;0;0;0
138;2022-04-23 22:15:33.764;5.174554993473055;52.369518133838895;22;-0.06;-0.19;10.14693642;-1.56106722;-0.63208854;-0.04;4.705881120000001;2.3529405600000004;17.25490189;29.41176414;1615.5;138;13.8;-0.02405299362668384;-0.17959586591199217;0.038487597315045106;9.70837278504023;-1.6381387018596025;-0.6290095694086072;21.807096202522725;1;13.8;1;0;0;0;0;0;0;0;0;0;0;0;0;0;0;0;0
139;2022-04-23 22:15:33.864;5.174554993473055;52.369518133838895;22;0.0;-0.2;9.86201763;-1.68317521;-0.70631105;0.0;4.705881120000001;2.3529405600000004;17.25490189;29.41176414;1615.5;139;13.9;-0.02186635433652612;-0.18145079016678378;0.038302550898804286;9.72234052061334;-1.642232936436793;-0.6360369880023986;21.824632939501548;1;13.9;1;0;0;0;0;0;0;0;0;0;0;0;0;0;0;0;0
140;2022-04-23 22:15:33.965;5.174554993473055;52.369518133838895;22;-0.06;-0.23;9.5818882;-2.09738469;-1.00798965;0.0;4.705881120000001;2.3529405600000004;17.25490189;29.80392075;1615.5;140;14.0;-0.02533305444982295;-0.185864361130194;0.038134326935531856;9.709572109219371;-1.683610428889768;-0.6698509156522072;21.84057542278425;1;14.0;1;0;0;0;0;0;0;0;0;0;0;0;0;0;0;0;0
141;2022-04-23 22:15:34.070;5.174554993473055;52.369518133838895;22;0.01;-0.22;10.8149395;-1.60416412;-0.58899158;0.02;4.705881120000001;2.3529405600000004;17.25490189;29.80392075;1637.5;141;14.100000000000001;-0.022120954334491752;-0.18896760513946356;0.03616321187498239;9.810060186989492;-1.6763880276023315;-0.6625000572161526;21.855068585371953;1;14.100000000000001;1;0;0;0;0;0;0;0;0;0;0;0;0;0;0;0;0
142;2022-04-23 22:15:34.166;5.174554993473055;52.369518133838895;22;0.0;-0.23999999;9.57470512;-2.14048171;-0.90024734;0.0;4.705881120000001;2.3529405600000004;17.25490189;29.80392075;1637.5;142;14.200000000000001;-0.02010995606343543;-0.1936069184426153;0.03618947355434632;9.788664246034891;-1.7185784131886646;-0.6841134725958485;21.8682441843914;1;14.200000000000001;1;0;0;0;0;0;0;0;0;0;0;0;0;0;0;0;0
143;2022-04-23 22:15:34.265;5.174554993473055;52.369518133838895;22;0.01;-0.25999999;9.7518816;-2.17639589;-0.42378664;0.07;4.705881120000001;2.3529405600000004;17.25490189;29.80392075;1637.5;143;14.3;-0.01737268433281262;-0.19964265883029195;0.02984970447036804;9.785320365460748;-1.7601982293856913;-0.6604473709885954;21.880221998927254;1;14.3;1;0;0;0;0;0;0;0;0;0;0;0;0;0;0;0;0
144;2022-04-23 22:15:34.364;5.174554993473055;52.369518133838895;22;-0.07;-0.23;10.28341007;-2.39906335;-0.06225114;-0.03;5.098039630000002;2.3529405600000004;17.25490189;29.80392075;1637.5;144;14.4;-0.022156990520091815;-0.202402419865912;0.03317719737663802;9.830601292770766;-1.8182769345341967;-0.606065841304948;21.89111091895609;1;14.4;1;0;0;0;0;0;0;0;0;0;0;0;0;0;0;0;0
145;2022-04-23 22:15:34.465;5.174554993473055;52.369518133838895;22;-0.06;-0.28;9.47175121;-2.5379312;-0.6344828;0.0;5.098039630000002;2.7450981199999998;17.25490189;32.15686417;1637.5;145;14.5;-0.025597267222763787;-0.2094567517171026;0.03347491515729936;9.797978528448501;-1.8837001087871583;-0.6086492035243635;21.90100993528273;1;14.5;1;0;0;0;0;0;0;0;0;0;0;0;0;0;0;0;0
146;2022-04-23 22:15:34.566;5.174554993473055;52.369518133838895;22;-0.06;-0.2;10.38397026;-2.17639589;-0.41420954;-0.03;5.098039630000002;2.7450981199999998;17.25490189;32.15686417;1637.5;146;14.600000000000001;-0.028724790957544658;-0.20859704630821316;0.036472842609586206;9.851250547874391;-1.9103088380628486;-0.5909728559332316;21.91000903947935;1;14.600000000000001;1;0;0;0;0;0;0;0;0;0;0;0;0;0;0;0;0
147;2022-04-23 22:15:34.666;5.174554993473055;52.369518133838895;22;-0.06;-0.23999999;9.99370289;-2.05428767;-1.06305802;-0.04;5.098039630000002;2.7450981199999998;17.25490189;32.15686417;1637.5;147;14.700000000000001;-0.03156799390620881;-0.21145186150641118;0.04010732236355029;9.864200770481244;-1.9233978325745473;-0.6338897211306211;21.91819004200944;1;14.700000000000001;1;0;0;0;0;0;0;0;0;0;0;0;0;0;0;0;0
148;2022-04-23 22:15:34.766;5.174598173591948;52.36946725302592;22;-0.05;-0.23999999;8.71037197;-2.15245295;-1.36713088;0.02;5.098039630000002;2.7450981199999998;17.25490189;32.15686417;1665.25;148;14.8;-0.03324363196321022;-0.21404714767963662;0.03795684523187615;9.75930717184024;-1.9442210392269315;-0.7005480536262477;21.925627315974797;1;14.8;1;0;0;0;0;0;0;0;0;0;0;0;0;0;0;0;0
149;2022-04-23 22:15:34.873;5.174598173591948;52.36946725302592;22;0.09;-0.23;9.88356686;-1.90584278;-0.08858817;0.03;5.098039630000002;2.7450981199999998;18.43137169;32.15686417;1665.25;149;14.9;-0.022039658495310536;-0.21549740787797309;0.03509277480399406;9.770603514110379;-1.940732104413236;-0.6449153025433019;21.93238847324744;1;14.9;1;0;0;0;0;0;0;0;0;0;0;0;0;0;0;0;0
150;2022-04-23 22:15:34.967;5.174598173591948;52.36946725302592;22;0.09;-0.25999999;9.56752205;-2.54750848;-0.65603131;-0.01;5.098039630000002;2.7450981199999998;18.43137169;32.15686417;1665.25;150;15.0;-0.011854229271944412;-0.21954309943530603;0.03612544040212839;9.752141552452754;-1.9958936241014478;-0.6459258492436146;21.938534979133575;1;15.0;1;0;0;0;0;0;0;0;0;0;0;0;0;0;0;0;0
151;2022-04-23 22:15:35.067;5.174598173591948;52.36946725302592;22;0.02;-0.16;9.26584339;-2.87312984;-0.79489923;-0.02;5.098039630000002;2.7450981199999998;18.43137169;32.15686417;1665.25;151;15.100000000000001;-0.008958388767819195;-0.21413008763037814;0.03797331858232723;9.707932606008312;-2.0756424117427157;-0.6594688907765882;21.944122711157863;1;15.100000000000001;1;0;0;0;0;0;0;0;0;0;0;0;0;0;0;0;0
152;2022-04-23 22:15:35.167;5.174598173591948;52.36946725302592;22;0.0;-0.20999999;8.4853096;-3.55789232;-0.2849187;0.01;5.098039630000002;2.7450981199999998;18.43137169;32.15686417;1665.25;152;15.200000000000001;-0.008143989410696;-0.21375462403505854;0.03692593367931628;9.596785008387409;-2.210392465984279;-0.625418857619445;21.949202467048153;1;15.200000000000001;1;0;0;0;0;0;0;0;0;0;0;0;0;0;0;0;0
153;2022-04-23 22:15:35.266;5.174598173591948;52.36946725302592;22;-0.11;-0.22;8.95458794;-2.03034496;-1.11333776;-0.05;5.098039630000002;2.7450981199999998;18.43137169;32.54901886;1665.25;153;15.3;-0.01740363064649122;-0.2143223857261304;0.04142831342759203;9.538403432066655;-2.194024503984114;-0.6697751401998013;21.953820426538968;1;15.3;1;0;0;0;0;0;0;0;0;0;0;0;0;0;0;0;0
154;2022-04-23 22:15:35.367;5.174598173591948;52.36946725302592;22;0.05;-0.23;10.57790565;-1.85556293;-0.45970076;0.01;5.098039630000002;2.7450981199999998;18.43137169;32.54901886;1688.25;154;15.4;-0.011276025508515586;-0.215747623934434;0.040066838047969275;9.63290366996856;-2.1632552581755378;-0.6506774619423712;21.958018571192238;1;15.4;1;0;0;0;0;0;0;0;0;0;0;0;0;0;0;0;0
155;2022-04-23 22:15:35.465;5.174598173591948;52.36946725302592;23;0.08;-0.18000001;9.14134121;-2.77496457;-0.72546524;0.0;5.098039630000002;2.7450981199999998;18.43137169;32.54901886;1688.25;155;15.5;-0.002978202112363221;-0.21249783971553096;0.0397382244743991;9.588216158014868;-2.2188652150182326;-0.6574763532290535;22.05274418868213;1;15.5;1;0;0;0;0;0;0;0;0;0;0;0;0;0;0;0;0
156;2022-04-23 22:15:35.565;5.174598173591948;52.36946725302592;23;0.06;-0.28999999;11.87081432;-1.85556293;0.41420954;0.02;5.098039630000002;2.7450981199999998;18.43137169;32.54901886;1688.25;156;15.600000000000001;0.002747090804887401;-0.21954349197635117;0.0376213024870334;9.795725147655862;-2.1858377240853417;-0.560050332030884;22.138858380663773;1;15.600000000000001;1;0;0;0;0;0;0;0;0;0;0;0;0;0;0;0;0
157;2022-04-23 22:15:35.668;5.174598173591948;52.36946725302592;23;-0.07;-0.25;9.35443211;-2.24822402;-0.73743665;-0.01;5.098039630000002;2.7450981199999998;18.43137169;32.54901886;1688.25;157;15.700000000000001;-0.0038662829935894928;-0.22231226623148836;0.03842410158335474;9.755607587209205;-2.1915092071676354;-0.5761763655874922;22.21714400499713;1;15.700000000000001;1;0;0;0;0;0;0;0;0;0;0;0;0;0;0;0;0
158;2022-04-23 22:15:35.765;5.174613473886202;52.36940849353402;23;-0.1;-0.19;9.28020954;-1.72866642;-0.96489275;-0.02;5.098039630000002;2.7450981199999998;18.43137169;32.94117737;1688.25;158;15.8;-0.012605714103465577;-0.21937478671308758;0.040063010050884494;9.712389571587511;-2.1494325791216724;-0.6115142279800041;22.288312750473025;1;15.8;1;0;0;0;0;0;0;0;0;0;0;0;0;0;0;0;0
159;2022-04-23 22:15:35.866;5.174613473886202;52.36940849353402;23;-0.09;-0.28;10.44622135;-3.08622026;-0.0574626;-0.01;5.098039630000002;2.7450981199999998;18.43137169;32.94117737;1719.0;159;15.9;-0.019641559952698746;-0.22488617105267356;0.04064383563922959;9.779101567342357;-2.2345951158615547;-0.5611458861595837;22.353011606758496;1;15.9;1;0;0;0;0;0;0;0;0;0;0;0;0;0;0;0;0
160;2022-04-23 22:15:35.966;5.174613473886202;52.36940849353402;23;0.04;-0.28;9.21556377;-2.96411228;-1.36473668;0.02;5.098039630000002;2.7450981199999998;19.6078434;32.94117737;1719.0;160;16.0;-0.014219598782279588;-0.22989652022433377;0.03844458555917489;9.727870847393431;-2.300914872424763;-0.6341996105183123;22.411828746160104;1;16.0;1;0;0;0;0;0;0;0;0;0;0;0;0;0;0;0;0
