;device_time;lon;lat;raw_speed_kph;raw_g_x;raw_g_y;raw_roll;raw_yaw;raw_pitch;raw_g_z;apps_d;apps_e;engine_load;engine_load_abs;engine_rpm;num_samples;cumulative_time;g_x;g_y;g_z;roll;yaw;pitch;speed_kph;sample_nr;cu mulative_time;roundabout_1;roundabout_2;roundabout_3;roundabout_4;turning_right_1;turning_right_2;turning_right_3;turning_left_1;turning_left_2;road_50km_1;road_50km_2;road_100km;entering_highway;exiting_highway;speed_bumps;road_50km_3;road_50km_4
0;2022-04-23 21:48:34.884;5.173725759914766;52.369768735768815;0;0.0;0.0;9.8787775;0.04309694;-0.51476908;0.0;0.0;0.0;0.0;0.0;0.0;0;0.0;0.0;0.0;-0.0;9.8787775;0.04309694;-0.51476908;0.0;10;0.0;0;0;0;0;0;0;0;0;0;0;0;0;0;0;0;0;0
1;2022-04-23 21:48:34.981;5.173725759914766;52.369768735768815;0;0.0;0.0;9.82131481;-0.08858817;-0.5602603;0.0;0.0;0.0;0.0;0.0;0.0;1;0.1;0.0;0.0;-0.0;9.848677995714286;-0.025880974761904756;-0.5385978142857142;0.0;10;0.1;0;0;0;0;0;0;0;0;0;0;0;0;0;0;0;0;0
2;2022-04-23 21:48:35.082;5.173725759914766;52.369768735768815;0;0.0;0.0;9.77103519;-0.03351985;-0.62969428;0.01;0.0;0.0;0.0;0.0;0.0;2;0.2;0.0;0.0;-0.0036555891238670697;9.82029497610272;-0.028673433685800602;-0.5718989392145015;0.0;10;0.2;0;0;0;0;0;0;0;0;0;0;0;0;0;0;0;0;0
3;2022-04-23 21:48:35.181;5.173725759914766;52.369768735768815;0;-0.01;0.0;9.9266634;-0.09098244;-0.54589468;0.0;0.0;0.0;0.0;0.0;0.0;3;0.30000000000000004;-0.002867916397328162;0.0;-0.002607196724843784;9.850800550808016;-0.04654313577677224;-0.5644411350743375;0.0;10;0.30000000000000004;0;0;0;0;0;0;0;0;0;0;0;0;0;0;0;0;0
4;2022-04-23 21:48:35.283;5.173725759914766;52.369768735768815;0;-0.01;0.0;9.74230385;0.08858817;-0.20590763;0.03;0.0;0.0;0.0;0.0;0.0;4;0.4;-0.004578303385693927;0.0;-0.00917642626656402;9.824781317764655;-0.014136501194575022;-0.47845910287513715;0.0;10;0.4;0;0;0;0;0;0;0;0;0;0;0;0;0;0;0;0;0
5;2022-04-23 21:48:35.385;5.173725759914766;52.369768735768815;0;-0.05;0.01;9.88596058;-0.22027329;-0.21548474;0.01;0.0;0.0;0.0;0.0;0.0;5;0.5;-0.014059354995910885;0.002087339821478794;-0.009348334091536509;9.837551508795908;-0.057164253989107794;-0.42356741690940825;0.0;10;0.5;0;0;0;0;0;0;0;0;0;0;0;0;0;0;0;0;0
6;2022-04-23 21:48:35.489;5.173725759914766;52.369768735768815;0;-0.01;0.03;9.63695621;-0.06464542;-0.37111259;-0.03;0.0;0.0;0.0;0.0;0.0;6;0.6000000000000001;-0.013301342412822534;0.007299534286880673;-0.0020007302493019272;9.800093892807942;-0.05856122911893545;-0.41377240787937614;0.0;10;0.6000000000000001;0;0;0;0;0;0;0;0;0;0;0;0;0;0;0;0;0
7;2022-04-23 21:48:35.582;5.173725759914766;52.369768735768815;0;0.02;0.03;9.73991013;-0.08379962;-0.45970076;0.0;0.0;0.0;0.0;0.0;0.0;7;0.7000000000000001;-0.007626672037827999;0.011167776554231935;-0.0016597985074722806;9.78983835981386;-0.06286194310427207;-0.421598766826722;0.0;10;0.7000000000000001;0;0;0;0;0;0;0;0;0;0;0;0;0;0;0;0;0
8;2022-04-23 21:48:35.683;5.173725759914766;52.369768735768815;0;-0.03;-0.02;9.60822487;-0.17478207;-0.66800267;-0.01;0.0;0.0;0.0;0.0;976.0;8;0.8;-0.011158414518044934;0.0062477860791178294;0.0001807594001056397;9.761169755927995;-0.08052909871103855;-0.46049486371493137;0.0;10;0.8;0;0;0;0;0;0;0;0;0;0;0;0;0;0;0;0;0
9;2022-04-23 21:48:35.782;5.173725759914766;52.369768735768815;0;0.02;0.01;9.73751545;0.05506832;-0.38547826;0.0;0.0;0.0;27.05882263;0.0;976.0;9;0.9;-0.006548515904724745;0.00680292747569749;0.0001540159819702595;9.757670092874427;-0.060467411935422884;-0.44939613026553926;0.0;10;0.9;0;0;0;0;0;0;0;0;0;0;0;0;0;0;0;0;0
10;2022-04-23 21:48:35.881;5.173725759914766;52.369768735768815;0;0.02;0.0;9.74469852;-0.02154847;-1.02474964;0.0;0.0;0.0;27.05882263;0.0;976.0;10;1.0;-0.00283261324583213;0.005850745576493885;0.000132458905146489;9.755854507313748;-0.05502006413119448;-0.5299263431142732;0.0;10;1.0;0;0;0;0;0;0;0;0;0;0;0;0;0;0;0;0;0
11;2022-04-23 21:48:35.982;5.173725759914766;52.369768735768815;0;-0.01;0.0;10.04398251;0.15323359;-0.98404694;-0.02;0.0;0.0;27.05882263;0.0;976.0;11;1.1;-0.0037888945555117344;0.005070132106844263;0.0027832099905754828;9.794296889902347;-0.027234612620246533;-0.590515656072701;0.0;10;1.1;0;0;0;0;0;0;0;0;0;0;0;0;0;0;0;0;0
12;2022-04-23 21:48:36.083;5.173725759914766;52.369768735768815;0;-0.02;0.0;9.65850449;-0.04549122;-0.9864412;-0.04;0.0;0.0;27.05882263;0.0;976.0;12;1.2000000000000002;-0.0058635995492491285;0.0044212541856563205;0.007546232496834087;9.776918113905008;-0.029571101925629194;-0.641186395705293;0.0;10;1.2000000000000002;0;0;0;0;0;0;0;0;0;0;0;0;0;0;0;0;0
13;2022-04-23 21:48:36.182;5.173725759914766;52.369768735768815;0;-0.02;-0.01;9.98412609;0.11013664;-0.77095652;-0.05;0.0;0.0;27.05882263;30.19607925;976.0;13;1.3;-0.0076081113413084935;0.0026415898311546323;0.012785267588167098;9.802488750430609;-0.012330376177915882;-0.6572007632154537;0.0;10;1.3;0;0;0;0;0;0;0;0;0;0;0;0;0;0;0;0;0
14;2022-04-23 21:48:36.287;5.173725759914766;52.369768735768815;0;0.0;0.0;9.74469852;-0.17478207;-0.96968132;-0.05;0.0;0.0;25.49019623;30.19607925;927.0;14;1.4000000000000001;-0.006698777584016239;0.0023258627474372;0.01723323252092762;9.795581568737969;-0.03174686504022533;-0.6945489441284839;0.0;10;1.4000000000000001;0;0;0;0;0;0;0;0;0;0;0;0;0;0;0;0;0
15;2022-04-23 21:48:36.383;5.173725759914766;52.369768735768815;0;0.0;0.0;9.7518816;-0.0287313;-0.89785308;-0.03;0.0;0.0;25.49019623;30.19607925;927.0;15;1.5;-0.0059204002079873575;0.002055604641439886;0.01871669168136347;9.790503766620764;-0.03139646564663213;-0.7181722601485707;0.0;10;1.5;0;0;0;0;0;0;0;0;0;0;0;0;0;0;0;0;0
16;2022-04-23 21:48:36.481;5.173725759914766;52.369768735768815;0;0.0;0.0;9.90032673;0.13647367;-0.94094998;-0.04;0.0;0.0;25.49019623;30.19607925;927.0;16;1.6;-0.005249435146908535;0.0018226408475502669;0.021128750961867407;9.802950116317223;-0.01237157005503107;-0.7434198888824277;0.0;10;1.6;0;0;0;0;0;0;0;0;0;0;0;0;0;0;0;0;0
17;2022-04-23 21:48:36.582;5.173725759914766;52.369768735768815;0;-0.03;-0.02;10.05116558;0.05985687;-0.98883551;-0.03;0.0;0.0;25.49019623;30.19607925;927.0;17;1.7000000000000002;-0.007992927758421095;-0.0005963041051936408;0.02211209038605694;9.830463722358898;-0.0043653611944157265;-0.7706231445366811;0.0;10;1.7000000000000002;0;0;0;0;0;0;0;0;0;0;0;0;0;0;0;0;0
18;2022-04-23 21:48:36.681;5.173725759914766;52.369768735768815;0;0.0;0.0;9.7087841;-0.04549122;-0.70631105;-0.02;0.0;0.0;25.49019623;29.01960754;927.0;18;1.8;-0.007124264593380105;-0.0005314983885651239;0.021882550575982727;9.81723970619437;-0.008834877215932312;-0.7636337722717071;0.0;10;1.8;0;0;0;0;0;0;0;0;0;0;0;0;0;0;0;0;0
19;2022-04-23 21:48:36.782;5.173725759914766;52.369768735768815;0;-0.02;0.0;9.85722923;-0.05267405;-0.92179579;-0.02;0.0;0.0;25.49019623;29.01960754;969.0;19;1.9000000000000001;-0.008499154638409338;-0.00047474420557596736;0.021681529044827934;9.821509846613498;-0.013516088839164485;-0.7805225461404653;0.0;10;1.9000000000000001;0;0;0;0;0;0;0;0;0;0;0;0;0;0;0;0;0
20;2022-04-23 21:48:36.882;5.173725759914766;52.369768735768815;0;-0.01;0.0;9.77582359;-0.03351985;-0.82602483;-0.03;0.0;0.0;24.31372643;29.01960754;969.0;20;2.0;-0.008656913119437176;-0.0004248423791352636;0.022555909161491847;9.816707623392077;-0.01561874581924967;-0.7853054314187793;0.0;10;2.0;0;0;0;0;0;0;0;0;0;0;0;0;0;0;0;0;0
21;2022-04-23 21:48:36.984;5.173725759914766;52.369768735768815;0;-0.01;0.0;9.87159538;0.18196489;-0.79729348;-0.03;0.0;0.0;24.31372643;29.01960754;969.0;21;2.1;-0.008796111941588565;-0.00038081130442858433;0.0233274219293584;9.822396243525983;0.004859013125803215;-0.7865478843580116;0.0;10;2.1;0;0;0;0;0;0;0;0;0;0;0;0;0;0;0;0;0
22;2022-04-23 21:48:37.088;5.173725759914766;52.369768735768815;0;-0.01;-0.01;9.62737942;-0.03591412;-0.62251145;-0.04;1.96078301;0.0;24.31372643;29.01960754;969.0;22;2.2;-0.008919315451562762;-0.00136521994783877;0.02503366041579405;9.802438609596027;0.0006863717588203905;-0.7697607218512029;0.0;10;2.2;0;0;0;0;0;0;0;0;0;0;0;0;0;0;0;0;0
23;2022-04-23 21:48:37.189;5.173725759914766;52.369768735768815;0;0.0;0.0;9.97215462;0.03112557;-1.01996112;-0.03;1.96078301;1.1764707600000008;24.31372643;30.19607925;969.0;23;2.3000000000000003;-0.00801684471068988;-0.0012270847888715402;0.025536162674888313;9.819610749597022;0.003766258992036336;-0.7950764021755794;0.0;10;2.3000000000000003;0;0;0;0;0;0;0;0;0;0;0;0;0;0;0;0;0
24;2022-04-23 21:48:37.281;5.173725759914766;52.369768735768815;0;0.0;0.0;9.86441231;0.05985687;-0.99362403;-0.04;1.96078301;1.1764707600000008;24.31372643;30.19607925;969.0;24;2.4000000000000004;-0.007213935322668545;-0.0011041888201409253;0.02698475637904979;9.824097750997659;0.009383890339952444;-0.8149615016258686;0.0;10;2.4000000000000004;0;0;0;0;0;0;0;0;0;0;0;0;0;0;0;0;0
25;2022-04-23 21:48:37.383;5.173725759914766;52.369768735768815;0;0.0;0.01;9.65371609;-0.10295381;-0.97446984;-0.04;1.96078301;1.1764707600000008;29.01960754;30.19607925;986.25;25;2.5;-0.0064980569189291;-2.259205883816517e-06;0.028276330452131338;9.807189843448473;-0.001763996354625888;-0.830790389680851;0.0;10;2.5;0;0;0;0;0;0;0;0;0;0;0;0;0;0;0;0;0
26;2022-04-23 21:48:37.495;5.173725759914766;52.369768735768815;0;-0.03;0.0;9.51005936;-0.14605077;-0.96249849;-0.03;1.96078301;1.1764707600000008;29.01960754;30.19607925;986.25;26;2.6;-0.008811025052443345;-2.0368637907270216e-06;0.02844596718059998;9.777947438369825;-0.015964129015066598;-0.8437525791437832;0.0;10;2.6;0;0;0;0;0;0;0;0;0;0;0;0;0;0;0;0;0
27;2022-04-23 21:48:37.581;5.173725759914766;52.369768735768815;0;0.0;0.0;9.96975994;0.01197137;-0.90264159;-0.03;1.96078301;1.1764707600000008;29.01960754;30.19607925;986.25;27;2.7;-0.00795033998984835;-1.8378973561992678e-06;0.028597769363260795;9.796684208948667;-0.013235312949365185;-0.8495050190350857;0.0;10;2.7;0;0;0;0;0;0;0;0;0;0;0;0;0;0;0;0;0
28;2022-04-23 21:48:37.681;5.173725759914766;52.369768735768815;0;-0.05;-0.01;9.38555717;-0.08140534;-0.96968132;-0.04;3.921567920000001;1.9607839600000005;29.01960754;36.47058868;986.25;28;2.8000000000000003;-0.012030230221917805;-0.000971914799080864;0.02970407674808637;9.756794393194118;-0.019849545440582716;-0.8611651874244287;0.0;10;2.8000000000000003;0;0;0;0;0;0;0;0;0;0;0;0;0;0;0;0;0
29;2022-04-23 21:48:37.781;5.173783272728101;52.36975934410804;0;-0.02;0.0;10.32411289;0.17478207;-0.91700727;-0.05;3.921567920000001;1.9607839600000005;29.01960754;36.47058868;1067.75;29;2.9000000000000004;-0.012798800391741005;-0.0008781875343062205;0.03166132791277378;9.811504138340466;-0.0010801132113711232;-0.8665503566430454;0.0;10;2.9000000000000004;0;0;0;0;0;0;0;0;0;0;0;0;0;0;0;0;0
30;2022-04-23 21:48:37.885;5.173783272728101;52.36975934410804;2;0.03;0.0;9.43823147;-0.28013015;-1.4772675;-0.05;3.921567920000001;1.9607839600000005;33.72549057;36.47058868;1067.75;30;3.0;-0.008694153659743511;-0.0007939643888026711;0.03342011016281397;9.775705180794372;-0.027842588119178526;-0.9251215806892855;0.1918112981872071;10;3.0;0;0;0;0;0;0;0;0;0;0;0;0;0;0;0;0;0
31;2022-04-23 21:48:37.983;5.173783272728101;52.36975934410804;2;0.03;0.01;9.8787775;0.09098244;-1.3910737;-0.06;3.921567920000001;1.9607839600000005;33.72549057;36.47058868;1067.75;31;3.1;-0.00500161571755484;0.00023609104031383703;0.035956598041217015;9.785541251969438;-0.016503254309994216;-0.9695868478437923;0.36436463652335493;10;3.1;0;0;0;0;0;0;0;0;0;0;0;0;0;0;0;0;0
32;2022-04-23 21:48:38.086;5.173783272728101;52.36975934410804;2;-0.03;-0.01;9.5340023;-0.08140534;-1.14685762;-0.06;3.921567920000001;1.9607839600000005;33.72549057;36.47058868;1067.75;32;3.2;-0.007376448732266203;-0.0007363320838958031;0.03824070825060326;9.761645187292872;-0.02266891742160935;-0.9864274755221009;0.5197491132689783;10;3.2;0;0;0;0;0;0;0;0;0;0;0;0;0;0;0;0;0
33;2022-04-23 21:48:38.182;5.173783272728101;52.36975934410804;2;0.02;0.0;9.43104839;-0.19872481;-1.16361761;-0.07;5.882352830000002;3.1372547200000014;33.72549057;36.47058868;1067.75;33;3.3000000000000003;-0.004786295561506484;-0.0006666658937888678;0.04124553298263027;9.730366610910469;-0.03932599858113134;-1.0031918700983904;0.6597992916278447;10;3.3000000000000003;0;0;0;0;0;0;0;0;0;0;0;0;0;0;0;0;0
34;2022-04-23 21:48:38.281;5.173783272728101;52.36975934410804;2;0.0;-0.02;9.33527756;-0.15802214;-1.42459357;-0.08;5.882352830000002;3.1372547200000014;33.72549057;39.60784149;1067.75;34;3.4000000000000004;-0.0043351232202435;-0.0024890910869320394;0.04489865958000287;9.693124186196826;-0.05051469667439692;-1.0429146137345917;0.7861311245847415;10;3.4000000000000004;0;0;0;0;0;0;0;0;0;0;0;0;0;0;0;0;0
35;2022-04-23 21:48:38.381;5.173783272728101;52.36975934410804;3;-0.03;-0.01;9.51484776;-0.14126222;-1.28093708;-0.08;5.882352830000002;3.1372547200000014;28.62745094;39.60784149;1203.25;35;3.5;-0.006746293219280831;-0.0031947277588749226;0.0481963687283067;9.67637542975158;-0.059040266760212484;-1.065276405481385;0.9941202086552411;10;3.5;0;0;0;0;0;0;0;0;0;0;0;0;0;0;0;0;0
36;2022-04-23 21:48:38.483;5.173783272728101;52.36975934410804;3;0.0;0.0;9.89314365;0.03351985;-1.40065074;-0.08;5.882352830000002;3.1372547200000014;28.62745094;39.60784149;1203.25;36;3.6;-0.006114411229390182;-0.0028954981126349134;0.05117521076207296;9.696678717780058;-0.05037075465009571;-1.0966887670502858;1.1819980954944793;10;3.6;0;0;0;0;0;0;0;0;0;0;0;0;0;0;0;0;0
37;2022-04-23 21:48:38.582;5.173783272728101;52.36975934410804;3;0.0;0.0;9.3783741;-0.19393626;-1.64486682;-0.09;5.882352830000002;3.1372547200000014;28.62745094;39.60784149;1203.25;37;3.7;-0.005543286727737732;-0.0026250403605188265;0.054801690495508225;9.666947062616027;-0.06378067665588529;-1.147892048210513;1.3518109184729357;10;3.7;0;0;0;0;0;0;0;0;0;0;0;0;0;0;0;0;0
38;2022-04-23 21:48:38.689;5.173783272728101;52.36975934410804;3;-0.05;-0.03;9.69681263;-0.25858167;-1.74782062;-0.09;5.882352830000002;3.1372547200000014;28.62745094;39.60784149;1203.25;38;3.8000000000000003;-0.009685479718295944;-0.005175664497778685;0.05808124447459132;9.669729745697415;-0.08193099074325659;-1.203789566087807;1.5053786646714744;10;3.8000000000000003;0;0;0;0;0;0;0;0;0;0;0;0;0;0;0;0;0
39;2022-04-23 21:48:38.781;5.173798653667926;52.36975720996289;3;-0.06;-0.07;9.05035877;-0.65124273;-1.84119737;-0.13;5.882352830000002;3.1372547200000014;28.62745094;39.60784149;1203.25;39;3.9000000000000004;-0.014362873700611376;-0.01120193594164939;0.06476703522498994;9.612151097260984;-0.13485597717563913;-1.2630449740616345;1.6443233033277633;10;3.9000000000000004;0;0;0;0;0;0;0;0;0;0;0;0;0;0;0;0;0
40;2022-04-23 21:48:38.881;5.173798653667926;52.36975720996289;3;-0.04;-0.05;9.51245403;-0.51716334;-2.09977889;-0.15000001;8.62745095;3.1372547200000014;28.62745094;39.60784149;1203.25;40;4.0;-0.01674129523038855;-0.01480133120118187;0.0726743154671079;9.602901946304668;-0.17032360533782812;-1.3406709114277122;1.770092884720329;10;4.0;0;0;0;0;0;0;0;0;0;0;0;0;0;0;0;0;0
41;2022-04-23 21:48:38.982;5.173798653667926;52.36975720996289;3;0.0;-0.02;9.81413269;-0.45730647;-1.79091752;-0.13;8.62745095;4.313725470000001;28.62745094;48.23529434;1203.25;41;4.1000000000000005;-0.015191051428097032;-0.015282727889707208;0.07798267338901595;9.62246191145436;-0.19689821627347617;-1.3823637437227296;1.8839822736008032;10;4.1000000000000005;0;0;0;0;0;0;0;0;0;0;0;0;0;0;0;0;0
42;2022-04-23 21:48:39.081;5.173798653667926;52.36975720996289;3;0.0;0.0;9.66808128;-0.66321415;-1.57064426;-0.20999999;8.62745095;4.313725470000001;28.62745094;48.23529434;1650.5;42;4.2;-0.013786734749726448;-0.013869936301968927;0.09018683979764477;9.626679133705803;-0.24000617665539573;-1.399769087287781;1.987151057799695;10;4.2;0;0;0;0;0;0;0;0;0;0;0;0;0;0;0;0;0
43;2022-04-23 21:48:39.183;5.173798653667926;52.36975720996289;6;0.0;0.02;9.9266634;-0.4166038;-1.62810683;-0.20999999;8.62745095;4.313725470000001;26.27450943;48.23529434;1650.5;43;4.3;-0.012514191101293117;-0.010743672317324758;0.10124583716406764;9.654368291409384;-0.25630649634639846;-1.4208451251938417;2.3575451740439872;10;4.3;0;0;0;0;0;0;0;0;0;0;0;0;0;0;0;0;0
44;2022-04-23 21:48:39.281;5.173798653667926;52.36975720996289;6;0.0;-0.03;9.73272705;-0.10055954;-2.02076793;-0.13;8.62745095;4.313725470000001;26.27450943;48.23529434;1650.5;44;4.4;-0.011360712547977134;-0.0125185981449554;0.10389621303585501;9.661590903463741;-0.24195073236327952;-1.47614219420836;2.693283496174006;10;4.4;0;0;0;0;0;0;0;0;0;0;0;0;0;0;0;0;0
45;2022-04-23 21:48:39.382;5.173798653667926;52.36975720996289;6;-0.05;-0.03;9.4166832;-0.32801566;-2.83003283;-0.23;8.23529435;4.313725470000001;26.27450943;48.62745285;1650.5;45;4.5;-0.014917738307763943;-0.014127887570718946;0.11550497831640236;9.639045378754663;-0.24987363117444733;-1.6007776154340918;2.99769065686572;10;4.5;0;0;0;0;0;0;0;0;0;0;0;0;0;0;0;0;0
46;2022-04-23 21:48:39.483;5.173798653667926;52.36975720996289;8;-0.04;-0.09;9.66808128;-0.47406641;-2.2889266;-0.13;8.23529435;4.313725470000001;26.27450943;48.62745285;1710.0;46;4.6000000000000005;-0.017224093817165255;-0.021104453984797697;0.11683781957007627;9.641715277969865;-0.27048852854521976;-1.6640540544297737;3.457661286900195;10;4.6000000000000005;0;0;0;0;0;0;0;0;0;0;0;0;0;0;0;0;0
47;2022-04-23 21:48:39.584;5.173798653667926;52.36975720996289;8;-0.09;-0.08;9.87398911;-0.55547178;-1.34558249;-0.08;8.23529435;4.313725470000001;28.23529434;48.62745285;1710.0;47;4.7;-0.023908989496570228;-0.02651435681862988;0.11345404884430843;9.663050997682873;-0.2966659189244849;-1.6348005652362299;3.8749018549710175;10;4.7;0;0;0;0;0;0;0;0;0;0;0;0;0;0;0;0;0
48;2022-04-23 21:48:39.682;5.173798653667926;52.36975720996289;8;-0.03;0.0;9.80934429;-1.15882897;-0.83081335;-0.20999999;8.23529435;4.313725470000001;28.23529434;48.62745285;1710.0;48;4.800000000000001;-0.024467955462422725;-0.024081160707781303;0.1223139736822055;9.676476187377054;-0.3757857632090083;-1.561019459450166;4.253458002193897;10;4.800000000000001;0;0;0;0;0;0;0;0;0;0;0;0;0;0;0;0;0
49;2022-04-23 21:48:39.782;5.1738265544682935;52.36975106361168;8;-0.01;-0.12;9.78779507;-1.15643477;-1.63289547;-0.11;8.23529435;4.313725470000001;28.23529434;48.62745285;1710.0;49;4.9;-0.02314138633689908;-0.032875974259122843;0.12118490348692106;9.686683033338042;-0.44736359415888405;-1.5676097822299717;4.596979030764645;10;4.9;0;0;0;0;0;0;0;0;0;0;0;0;0;0;0;0;0
50;2022-04-23 21:48:39.882;5.1738265544682935;52.36975106361168;8;-0.04;-0.12;10.29059315;-0.65603131;-2.06625915;-0.12;8.23529435;3.9215688699999998;28.23529434;47.45098114;1710.0;50;5.0;-0.024685948883780992;-0.04085815534364876;0.12107634429076523;9.742012431503252;-0.46648143771781303;-1.613295338164484;4.908759040697437;10;5.0;0;0;0;0;0;0;0;0;0;0;0;0;0;0;0;0;0
51;2022-04-23 21:48:39.984;5.1738265544682935;52.36975106361168;10;0.0;-0.14;10.66409969;-1.0175668;-0.56744313;-0.05;8.23529435;3.9215688699999998;26.27450943;47.45098114;1740.75;51;5.1000000000000005;-0.02242586040708608;-0.04993495209636801;0.11456904625440331;9.826432876398725;-0.5169353085749921;-1.517543761624865;5.374880682541916;10;5.1000000000000005;0;0;0;0;0;0;0;0;0;0;0;0;0;0;0;0;0
52;2022-04-23 21:48:40.083;5.1738265544682935;52.36975106361168;10;0.06;-0.04;9.96018314;-1.58740425;-0.6440599;-0.07;8.23529435;3.9215688699999998;26.27450943;47.45098114;1740.75;52;5.2;-0.014884333742264576;-0.04902595696087965;0.11049121620090775;9.838670312251917;-0.6148775080952524;-1.4376246464199862;5.7980544351521175;10;5.2;0;0;0;0;0;0;0;0;0;0;0;0;0;0;0;0;0
53;2022-04-23 21:48:40.183;5.1738265544682935;52.36975106361168;10;-0.1;-0.06;8.88036537;-0.5913859;-1.25699425;-0.07;8.23529435;3.9215688699999998;26.27450943;47.45098114;1740.75;53;5.300000000000001;-0.02266740571591678;-0.050029435762969955;0.10678865398353528;9.751041833662931;-0.6127294091068882;-1.4211076004074572;6.182285049778923;10;5.300000000000001;0;0;0;0;0;0;0;0;0;0;0;0;0;0;0;0;0
54;2022-04-23 21:48:40.282;5.1738265544682935;52.36975106361168;10;-0.17;0.03;10.35044956;-1.36473668;-1.40783358;-0.1;8.23529435;3.9215688699999998;26.27450943;45.88235474;1740.75;54;5.4;-0.03613249951923341;-0.0427153457287099;0.10616822193908008;9.805823202991153;-0.6814572319797243;-1.4198944545261805;6.531195555080495;10;5.4;0;0;0;0;0;0;0;0;0;0;0;0;0;0;0;0;0
55;2022-04-23 21:48:40.381;5.1738265544682935;52.36975106361168;10;0.08;-0.09;8.93303967;-1.5179702;-0.63208854;-0.2;8.23529435;3.9215688699999998;26.27450943;45.88235474;1740.75;55;5.5;-0.025523988536616027;-0.04703472037596935;0.11473959904883503;9.726095876587998;-0.7578713025033271;-1.3479296924568185;6.848065080862002;10;5.5;0;0;0;0;0;0;0;0;0;0;0;0;0;0;0;0;0
56;2022-04-23 21:48:40.483;5.1738265544682935;52.36975106361168;11;0.30000001;0.11;12.29938984;-0.38547826;-0.26815879;0.01;8.23529435;3.9215688699999998;26.66666603;45.88235474;1863.5;56;5.6000000000000005;0.004199032375436113;-0.03269615763209787;0.10334984674867558;9.961058799847708;-0.7238687520321241;-1.2493377199502524;7.2271709193924805;10;5.6000000000000005;0;0;0;0;0;0;0;0;0;0;0;0;0;0;0;0;0
57;2022-04-23 21:48:40.584;5.1738265544682935;52.36975106361168;11;-0.02;-0.1;9.71596718;-0.95770991;-0.18675344;0.03;8.23529435;3.9215688699999998;26.66666603;45.88235474;1863.5;57;5.7;0.0019903430828539484;-0.038839100609376495;0.09117876593388062;9.93868884603878;-0.745211855911473;-1.1523537378975421;7.571523828376522;10;5.7;0;0;0;0;0;0;0;0;0;0;0;0;0;0;0;0;0
58;2022-04-23 21:48:40.682;5.1738265544682935;52.36975106361168;11;-0.15000001;-0.15000001;9.46217442;-1.35515952;-1.45093048;-0.1;8.23529435;3.9215688699999998;26.66666603;45.88235474;1863.5;58;5.800000000000001;-0.011877060474382693;-0.04898127844528739;0.09198360393962587;9.89521228510782;-0.8008626931859842;-1.179595494308771;7.884333567244323;10;5.800000000000001;0;0;0;0;0;0;0;0;0;0;0;0;0;0;0;0;0
59;2022-04-23 21:48:40.782;5.173866323367738;52.36973636108371;11;-0.07;-0.23999999;10.01525116;-1.25699425;-1.69275224;-0.1;7.84313775;3.9215688699999998;26.66666603;45.88235474;1863.5;59;5.9;-0.017178375017427094;-0.06640383624817144;0.09271476856007552;9.906160868204108;-0.8424658343109073;-1.2263998256278235;8.168509280070463;10;5.9;0;0;0;0;0;0;0;0;0;0;0;0;0;0;0;0;0
60;2022-04-23 21:48:40.882;5.173866323367738;52.36973636108371;11;0.13;-0.02;10.80057335;-0.0191542;-1.42938209;-0.13;7.84313775;3.9215688699999998;26.66666603;48.23529434;1863.5;60;6.0;-0.0037584548841396318;-0.062172672694049615;0.09611448559062215;9.987714588786327;-0.7673951836399069;-1.2449080186692667;8.426688372719772;10;6.0;0;0;0;0;0;0;0;0;0;0;0;0;0;0;0;0;0
61;2022-04-23 21:48:40.987;5.173866323367738;52.36973636108371;11;-0.04;0.12;9.42625999;1.41980493;-0.21309046;0.02;7.84313775;3.9215688699999998;26.66666603;48.23529434;1863.5;61;6.1000000000000005;-0.0070621078195948865;-0.04556644680104691;0.08552989379289386;9.936534344470708;-0.5680176446096423;-1.1508511263470842;8.661262491569495;10;6.1000000000000005;0;0;0;0;0;0;0;0;0;0;0;0;0;0;0;0;0
62;2022-04-23 21:48:41.082;5.173866323367738;52.36973636108371;12;0.0;-0.02;9.88117218;-0.05506832;-1.40065074;-0.09;7.84313775;3.9215688699999998;25.09803963;48.23529434;2030.5;62;6.2;-0.006418509926578934;-0.0432364751108098;0.08593727229941686;9.93148897086323;-0.5212705383665577;-1.1736163558125894;8.965534881718654;10;6.2;0;0;0;0;0;0;0;0;0;0;0;0;0;0;0;0;0
63;2022-04-23 21:48:41.182;5.173866323367738;52.36973636108371;12;-0.16;-0.23;8.83726788;-3.04312325;-0.95770991;-0.09;7.84313775;3.9215688699999998;25.09803963;48.23529434;2030.5;63;6.300000000000001;-0.020411853448907447;-0.060253149190257836;0.08630744154523393;9.831790682960785;-0.7510453067304543;-1.1539443688856736;9.242015548668391;10;6.300000000000001;0;0;0;0;0;0;0;0;0;0;0;0;0;0;0;0;0
64;2022-04-23 21:48:41.282;5.173866323367738;52.36973636108371;12;0.01;-0.06;10.13017654;0.57223165;-1.52754736;-0.16;7.84313775;3.9215688699999998;25.09803963;48.23529434;2030.5;64;6.4;-0.01764148997032232;-0.06023008860065905;0.09302045471062907;9.858972100307037;-0.6305015799517425;-1.187977680397323;9.493253751276171;10;6.4;0;0;0;0;0;0;0;0;0;0;0;0;0;0;0;0;0
65;2022-04-23 21:48:41.383;5.173866323367738;52.36973636108371;12;0.1;0.1;10.91310501;1.08221221;-1.34558249;-0.08;8.23529435;3.9215688699999998;25.09803963;48.23529434;2030.5;65;6.5;-0.006926945531213946;-0.0456366623763981;0.09183457853165831;9.95498035307977;-0.4745111379865728;-1.2023320016213324;9.721563033029533;10;6.5;0;0;0;0;0;0;0;0;0;0;0;0;0;0;0;0;0
66;2022-04-23 21:48:41.483;5.173866323367738;52.36973636108371;12;-0.03;0.0;9.30654621;-0.31365001;-1.41022789;-0.13;8.23529435;3.9215688699999998;25.09803963;43.92156982;2030.5;66;6.6000000000000005;-0.009028037011904704;-0.04148087092468853;0.09531001963602474;9.895932277947063;-0.4598627113535005;-1.221263534095023;9.929043343322597;10;6.6000000000000005;0;0;0;0;0;0;0;0;0;0;0;0;0;0;0;0;0
67;2022-04-23 21:48:41.582;5.173866323367738;52.36973636108371;14;-0.02;-0.11;9.3592205;-1.07502937;-2.03992224;-0.02;8.23529435;3.9215688699999998;25.49019623;43.92156982;1749.25;67;6.7;-0.010027018768878423;-0.047719440998633546;0.0884531485533069;9.847065427456974;-0.5158727680911248;-1.2958012547630688;10.299698205890396;10;6.7;0;0;0;0;0;0;0;0;0;0;0;0;0;0;0;0;0
68;2022-04-23 21:48:41.685;5.173866323367738;52.36973636108371;14;-0.07;-0.08;9.7135725;0.4668836;-0.71828246;-0.08;8.23529435;3.9215688699999998;25.49019623;43.92156982;1749.25;68;6.800000000000001;-0.015486712512714766;-0.05065813042859712;0.08768360864842287;9.834912779949347;-0.42640666711633923;-1.243226317082972;10.636558474312785;10;6.800000000000001;0;0;0;0;0;0;0;0;0;0;0;0;0;0;0;0;0
69;2022-04-23 21:48:41.781;5.173907223900687;52.369713336568736;14;0.03;0.0;10.23552513;0.07661679;-1.36713088;-0.08;8.23529435;3.9215688699999998;25.49019623;43.92156982;1749.25;69;6.9;-0.01134631413986744;-0.04604700710902501;0.08698421317690724;9.87137825812231;-0.38061928464137246;-1.2545046492013157;10.942713547978085;10;6.9;0;0;0;0;0;0;0;0;0;0;0;0;0;0;0;0;0
70;2022-04-23 21:48:41.882;5.173907223900687;52.369713336568736;14;-0.12;-0.04;10.01285744;0.42618093;-1.80288899;-0.09;8.23529435;3.9215688699999998;25.49019623;43.92156982;1749.25;70;7.0;-0.021235305328216377;-0.04549664565976862;0.08725869157203406;9.884254824359779;-0.3071892840832963;-1.3044152239881441;11.220968984459294;10;7.0;0;0;0;0;0;0;0;0;0;0;0;0;0;0;0;0;0
71;2022-04-23 21:48:41.982;5.173907223900687;52.369713336568736;14;-0.08;-0.05;11.03281784;1.28572559;-0.70391679;0.0;8.23529435;3.9215688699999998;25.49019623;43.92156982;1749.25;71;7.1000000000000005;-0.026583146652420373;-0.045906470378040944;0.07931777331675793;9.988779025375367;-0.16222714249231543;-1.2497672698323719;11.473872823901672;10;7.1000000000000005;0;0;0;0;0;0;0;0;0;0;0;0;0;0;0;0;0
72;2022-04-23 21:48:42.082;5.173907223900687;52.369713336568736;14;0.03;0.0;8.93064499;-0.18675344;-1.52275872;0.0;8.23529435;3.9215688699999998;25.49019623;43.92156982;1749.25;72;7.2;-0.021434325970413916;-0.04172918088277277;0.07210020031374514;9.892493422187856;-0.1644589290812857;-1.2746083065684208;11.703739429404731;10;7.2;0;0;0;0;0;0;0;0;0;0;0;0;0;0;0;0;0
73;2022-04-23 21:48:42.182;5.173907223900687;52.369713336568736;14;0.04;0.02;10.31932449;0.32083282;-1.86274576;-0.13;8.23529435;3.9215688699999998;25.49019623;53.33333206;1749.25;73;7.300000000000001;-0.0158445529249517;-0.03611257964288681;0.07736837465295339;9.931329834244712;-0.12030330931415135;-1.3281216288404332;11.912671085121971;10;7.300000000000001;0;0;0;0;0;0;0;0;0;0;0;0;0;0;0;0;0
74;2022-04-23 21:48:42.282;5.173907223900687;52.369713336568736;16;-0.09;-0.05;9.7039957;1.26178277;-2.05189347;-0.01;8.23529435;3.9215688699999998;25.49019623;53.33333206;1640.5;74;7.4;-0.022591261657119194;-0.03737606579105599;0.07123915799429008;9.910646833209382;0.00543974244682198;-1.3939708414533154;12.28453881391255;10;7.4;0;0;0;0;0;0;0;0;0;0;0;0;0;0;0;0;0
75;2022-04-23 21:48:42.384;5.173907223900687;52.369713336568736;16;0.12;0.08;9.86441231;0.18914771;-0.90264159;-0.06;8.23529435;3.9215688699999998;28.62745094;53.33333206;1640.5;75;7.5;-0.009619147832275066;-0.02669788209270766;0.07021668554329287;9.906440688381576;0.022152412199061434;-1.3492725976671425;12.622549606843284;10;7.5;0;0;0;0;0;0;0;0;0;0;0;0;0;0;0;0;0
76;2022-04-23 21:48:42.484;5.173907223900687;52.369713336568736;16;0.1;0.11;11.3680172;0.76137936;-1.66880953;-0.13;8.23529435;3.9215688699999998;28.62745094;53.33333206;1640.5;76;7.6000000000000005;0.00035270871012499697;-0.01426272184165293;0.07565506603776294;10.039397672519973;0.08939855688745177;-1.3783402971724992;12.929790189037586;10;7.6000000000000005;0;0;0;0;0;0;0;0;0;0;0;0;0;0;0;0;0
77;2022-04-23 21:48:42.584;5.173907223900687;52.369713336568736;16;0.0;0.01;9.99609756;0.19633053;-1.19474316;-0.06;7.84313775;3.9215688699999998;28.62745094;53.33333206;1640.5;77;7.7;0.0003206253301227274;-0.012055716167029105;0.07423103703526915;10.035458972044934;0.0991253910406161;-1.3616397832635951;13.209065140928894;10;7.7;0;0;0;0;0;0;0;0;0;0;0;0;0;0;0;0;0
78;2022-04-23 21:48:42.685;5.173907223900687;52.369713336568736;16;-0.01;0.01;10.67607117;0.15323359;-0.40463245;-0.02;7.84313775;3.9215688699999998;28.62745094;51.37254715;1640.5;78;7.800000000000001;-0.0006181174452858367;-0.010049573753562167;0.06929829385437046;10.093727735170527;0.10404696112370396;-1.2745923717572294;13.462922814450092;10;7.800000000000001;0;0;0;0;0;0;0;0;0;0;0;0;0;0;0;0;0
79;2022-04-23 21:48:42.781;5.173957627219245;52.3696847966116;16;0.14;0.08;8.68403435;-0.34956414;-0.8930645;-0.1;7.84313775;3.9215688699999998;28.62745094;51.37254715;1640.5;79;7.9;0.012171591531961833;-0.0018592504669388292;0.07209072127298075;9.965511197564714;0.06278944695965318;-1.2398910790992452;13.693678846784428;10;7.9;0;0;0;0;0;0;0;0;0;0;0;0;0;0;0;0;0
80;2022-04-23 21:48:42.883;5.173957627219245;52.3696847966116;16;0.18000001;0.1;11.19802284;1.01996112;-0.85236186;0.07;7.84313775;3.9215688699999998;28.62745094;51.37254715;1630.25;80;8.0;0.027435494684997896;0.007404792825373394;0.05916764764663383;10.077607459430546;0.14984368873515896;-1.204645507918289;13.903437498172693;10;8.0;0;0;0;0;0;0;0;0;0;0;0;0;0;0;0;0;0
81;2022-04-23 21:48:42.983;5.173957627219245;52.3696847966116;18;-0.13;0.05;8.55235004;0.62011719;-1.67359805;-0.11;7.84313775;3.9215688699999998;27.45098114;51.37254715;1630.25;81;8.1;0.013117400216841855;0.011278647329640389;0.06379063577577422;9.938891727864686;0.19261308092624613;-1.2472947644410475;14.276002585945484;10;8.1;0;0;0;0;0;0;0;0;0;0;0;0;0;0;0;0;0
82;2022-04-23 21:48:43.083;5.173957627219245;52.3696847966116;18;-0.05;0.11;10.09426212;1.69754088;-1.84838021;-0.08;7.84313775;3.9215688699999998;27.45098114;51.37254715;1630.25;82;8.200000000000001;0.0073773493995425;0.020256608702155697;0.06526475502091929;9.953021491500332;0.3294748973726214;-1.3019589456524714;14.614672023006051;10;8.200000000000001;0;0;0;0;0;0;0;0;0;0;0;0;0;0;0;0;0
83;2022-04-23 21:48:43.184;5.173957627219245;52.3696847966116;18;0.05;0.1;10.77663136;1.38149655;-2.27216673;-0.01;7.84313775;3.9215688699999998;27.45098114;51.37254715;1630.25;83;8.3;0.011253428247823563;0.027508425938891714;0.06023901061098059;10.027920089911122;0.4251451294730836;-1.390189072553747;14.922531763807331;10;8.3;0;0;0;0;0;0;0;0;0;0;0;0;0;0;0;0;0
84;2022-04-23 21:48:43.283;5.173957627219245;52.3696847966116;18;0.1;0.1;7.72153616;0.12929083;-0.62251145;0.01;7.84313775;3.9215688699999998;27.45098114;51.37254715;1630.25;84;8.4;0.019323744721825083;0.03410056727822538;0.05385170985941704;9.818185247680693;0.3982411287911277;-1.3203790366087147;15.20238643440933;10;8.4;0;0;0;0;0;0;0;0;0;0;0;0;0;0;0;0;0
85;2022-04-23 21:48:43.382;5.173957627219245;52.3696847966116;18;0.14;0.19;11.35604572;1.95851684;-0.33998701;0.01;7.84313775;3.9215688699999998;27.45098114;48.23529434;1630.25;85;8.5;0.030297337356486723;0.048277149595268805;0.048045408931295906;9.958029281730965;0.5401234735249365;-1.2312279215241873;15.456785044535472;10;8.5;0;0;0;0;0;0;0;0;0;0;0;0;0;0;0;0;0
86;2022-04-23 21:48:43.481;5.173957627219245;52.3696847966116;19;-0.06;0.06;9.39034557;0.72546524;-0.86672747;-0.06;7.84313775;3.9215688699999998;27.45098114;48.23529434;1715.75;86;8.6;0.02208643153824555;0.04934313031421925;0.049132462262372514;9.906408739774445;0.5569769470964235;-1.1980832135428674;15.778976209245522;10;8.6;0;0;0;0;0;0;0;0;0;0;0;0;0;0;0;0;0
87;2022-04-23 21:48:43.581;5.173957627219245;52.3696847966116;19;-0.08;0.05;11.28661156;2.70792484;-1.68317521;0.02;7.84313775;3.9215688699999998;26.27450943;48.23529434;1715.75;87;8.700000000000001;0.012803732789769094;0.04940285934302583;0.042846261331922694;10.031910305446779;0.7525622076705853;-1.242192531505672;16.071863256629953;10;8.700000000000001;0;0;0;0;0;0;0;0;0;0;0;0;0;0;0;0;0
88;2022-04-23 21:48:43.682;5.173957627219245;52.3696847966116;19;0.01;0.19;9.95539474;0.56265455;0.15802214;-0.01;7.84313775;3.9215688699999998;26.27450943;48.23529434;1715.75;88;8.8;0.012548795208815956;0.06218706440665071;0.03985961922470369;10.024952904502065;0.7352943000341365;-1.1148739287945528;16.338112629886467;10;8.8;0;0;0;0;0;0;0;0;0;0;0;0;0;0;0;0;0
89;2022-04-23 21:48:43.782;5.174020744020364;52.36965543761508;19;-0.07;-0.02;9.1988039;-0.20351335;-1.17080033;-0.06;7.84313775;3.9215688699999998;26.27450943;48.23529434;1715.75;89;8.9;0.005042946554088215;0.05471410656090373;0.041690907610749305;9.949834310967653;0.64993208342962;-1.1199591042012902;16.58014794591334;10;8.9;0;0;0;0;0;0;0;0;0;0;0;0;0;0;0;0;0
90;2022-04-23 21:48:43.882;5.174020744020364;52.36965543761508;19;-0.05;0.05;10.37918091;0.92658436;-0.33998701;0.04;7.84313775;3.9215688699999998;26.27450943;49.01960754;1715.75;90;9.0;3.818597652293983e-05;0.05428547807802866;0.03426319053615459;9.98887249964524;0.6750865944824133;-1.0490404155583453;16.800172143780955;10;9.0;0;0;0;0;0;0;0;0;0;0;0;0;0;0;0;0;0
91;2022-04-23 21:48:43.986;5.174020744020364;52.36965543761508;20;0.04;0.13;10.15651417;1.3096683;-0.47406641;-0.07;7.84313775;3.9215688699999998;26.27450943;49.01960754;1802.0;91;9.1;0.0036716433486087253;0.0611696872805868;0.03751249682953132;10.004115022486205;0.732784815457794;-0.9967619194413693;17.09111084107718;10;9.1;0;0;0;0;0;0;0;0;0;0;0;0;0;0;0;0;0
92;2022-04-23 21:48:44.084;5.174020744020364;52.36965543761508;20;-0.06;0.11;8.23630524;0.5506832;-1.13009775;0.01;7.84313775;3.9215688699999998;27.45098114;49.01960754;1802.0;92;9.200000000000001;-0.0021175065088803653;0.06560943444359002;0.03319256805458723;9.843382313039474;0.7162277818124694;-1.0088850729188201;17.355592710464922;10;9.200000000000001;0;0;0;0;0;0;0;0;0;0;0;0;0;0;0;0;0
93;2022-04-23 21:48:44.187;5.174020744020364;52.36965543761508;20;0.01;0.12;9.97933769;0.47406641;-0.90024734;-0.06;7.84313775;3.9215688699999998;27.45098114;49.01960754;1802.0;93;9.3;-0.001015773375219317;0.07055466704471508;0.03562992065522172;9.855743481848172;0.6942102811968859;-0.9990076455921033;17.596024281732532;10;9.3;0;0;0;0;0;0;0;0;0;0;0;0;0;0;0;0;0
94;2022-04-23 21:48:44.282;5.174020744020364;52.36965543761508;20;0.09;0.08;10.13735962;0.73983091;-0.22985038;0.06;7.84313775;3.9215688699999998;27.45098114;49.01960754;1802.0;94;9.4;0.007259354936842252;0.07141343403923262;0.026935275380585332;9.881347941290013;0.6983580958340957;-0.9290760850625959;17.814593072503914;10;9.4;0;0;0;0;0;0;0;0;0;0;0;0;0;0;0;0;0
95;2022-04-23 21:48:44.382;5.174020744020364;52.36965543761508;20;0.07;0.16;10.08947372;0.409421;-0.69194543;-0.03;7.84313775;3.9215688699999998;27.45098114;48.62745285;1802.0;95;9.5;0.012963655987290882;0.0794676139214598;0.027213916313401122;9.90027047702304;0.6720882961273686;-0.9075164622151503;18.013287539537597;10;9.5;0;0;0;0;0;0;0;0;0;0;0;0;0;0;0;0;0
96;2022-04-23 21:48:44.488;5.174020744020364;52.36965543761508;20;0.03;0.02;9.74230385;1.37191951;-0.79011071;0.01;7.84313775;3.9215688699999998;27.45098114;48.62745285;1802.0;96;9.600000000000001;0.01451256413514449;0.07406094499838291;0.023830506225628236;9.885908487414095;0.7357154609980096;-0.8968421810386686;18.19391520913366;10;9.600000000000001;0;0;0;0;0;0;0;0;0;0;0;0;0;0;0;0;0
97;2022-04-23 21:48:44.583;5.174020744020364;52.36965543761508;21;0.02;0.1;10.16609097;1.11333776;-1.09897208;-0.05;7.84313775;3.9215688699999998;27.45098114;48.62745285;1854.75;97;9.700000000000001;0.015011465746855112;0.07641924797727304;0.026209760023436217;9.91138185887169;0.7700477754395424;-0.9152192399875605;18.449036227262727;10;9.700000000000001;0;0;0;0;0;0;0;0;0;0;0;0;0;0;0;0;0
98;2022-04-23 21:48:44.684;5.174020744020364;52.36965543761508;21;-0.01;0.06;9.37119198;0.2083019;-0.97446984;-0.02;7.84313775;3.9215688699999998;26.27450943;48.62745285;1854.75;98;9.8;0.01273751462152418;0.07492646991328843;0.025645191319776644;9.862269767825724;0.7189758919068322;-0.920606088161053;18.68096053751327;10;9.8;0;0;0;0;0;0;0;0;0;0;0;0;0;0;0;0;0
99;2022-04-23 21:48:44.784;5.174099594086974;52.369630901583896;21;-0.01;0.05;9.83328629;0.59617442;-0.83560193;-0.03;7.84313775;3.9215688699999998;26.27450943;48.62745285;1854.75;99;9.9;0.010670317830134177;0.07266026274495302;0.0260411117482281;9.859634714990708;0.7078113115677187;-0.9128778766159357;18.891797606373085;10;9.9;0;0;0;0;0;0;0;0;0;0;0;0;0;0;0;0;0
100;2022-04-23 21:48:44.882;5.174099594086974;52.369630901583896;21;0.04;0.11;9.71596718;-0.01197137;-0.49082634;0.04;7.84313775;3.9215688699999998;26.27450943;48.62745285;1854.75;100;10.0;0.013336828479444004;0.07605500826099244;0.020036978230891858;9.846573168336567;0.6423722053928465;-0.8745070238250301;19.08346501350518;10;10.0;0;0;0;0;0;0;0;0;0;0;0;0;0;0;0;0;0
101;2022-04-23 21:48:44.985;5.174099594086974;52.369630901583896;21;-0.04;0.05;9.48611641;0.58659732;-0.93855572;-0.04;7.84313775;3.9215688699999998;26.27450943;48.62745285;1854.75;101;10.100000000000001;0.008487735082193849;0.07368622908672322;0.021851907236036045;9.813802406806985;0.6373014571650047;-0.8803299817806991;19.257705916340125;10;10.100000000000001;0;0;0;0;0;0;0;0;0;0;0;0;0;0;0;0;0
102;2022-04-23 21:48:45.090;5.174099594086974;52.369630901583896;21;0.0;0.04;9.81173801;-0.09337672;-0.06225114;0.03;0.0;3.9215688699999998;26.27450943;48.62745285;1854.75;102;10.200000000000001;0.0077160807316334935;0.07062367765491957;0.01713784047781705;9.813614724137585;0.5708725466477892;-0.8059551230877384;19.41610492344771;10;10.200000000000001;0;0;0;0;0;0;0;0;0;0;0;0;0;0;0;0;0
103;2022-04-23 21:48:45.183;5.174099594086974;52.369630901583896;21;0.01;0.02;10.0822916;0.21787901;0.32083282;0.08;0.0;0.0;26.27450943;26.27450943;1854.75;103;10.3;0.007923720047332676;0.06602129703138662;0.008306690005613172;9.838041105324065;0.53878063455135;-0.703514778246581;19.560102521957326;10;10.3;0;0;0;0;0;0;0;0;0;0;0;0;0;0;0;0;0
104;2022-04-23 21:48:45.286;5.174099594086974;52.369630901583896;22;0.0;-0.02;9.43583679;-0.32562137;-0.13168511;0.06;0.0;0.0;26.27450943;26.27450943;1461.0;104;10.4;0.007203349403038947;0.058200826747817985;0.0020967111074465627;9.801475429096614;0.46019509326167995;-0.6515279205483809;19.78192137822294;10;10.4;0;0;0;0;0;0;0;0;0;0;0;0;0;0;0;0;0
105;2022-04-23 21:48:45.388;5.174099594086974;52.369630901583896;22;-0.03;0.0;9.69441891;0.08619389;-0.57941449;0.0;0.0;0.0;15.29411793;26.27450943;1461.0;105;10.5;0.00382108818769537;0.05290962576272614;0.0019060931987827446;9.791742619599612;0.4261935911232601;-0.6449718855901618;19.983573149243494;10;10.5;0;0;0;0;0;0;0;0;0;0;0;0;0;0;0;0;0
106;2022-04-23 21:48:45.485;5.174099594086974;52.369630901583896;22;0.0;0.02;9.7470932;0.21069619;-0.29449579;0.03;0.0;0.0;15.29411793;26.27450943;1461.0;106;10.600000000000001;0.003473703598470187;0.04991773019120981;-0.0009945687423185171;9.787683430299374;0.40660218875537885;-0.6131092358633399;20.166891507481953;10;10.600000000000001;0;0;0;0;0;0;0;0;0;0;0;0;0;0;0;0;0
107;2022-04-23 21:48:45.582;5.174099594086974;52.369630901583896;22;0.0;0.0;10.4318552;0.26097596;0.08379962;0.03;0.0;0.0;15.29411793;26.27450943;1461.0;107;10.700000000000001;0.003157901671579205;0.04537960109252946;-0.0036315153964641854;9.846246482774497;0.39336299250758466;-0.5497517405243716;20.333543375647206;10;10.700000000000001;0;0;0;0;0;0;0;0;0;0;0;0;0;0;0;0;0
108;2022-04-23 21:48:45.681;5.174099594086974;52.369630901583896;22;-0.07;0.01;9.65850449;-0.13886794;-0.43096948;0.05;0.0;0.0;15.29411793;20.7843132;1461.0;108;10.8;-0.003493021344005956;0.04216317473512972;-0.007846961908748023;9.829178503619747;0.34497687319935116;-0.5389530208739461;20.4850440948332;10;10.8;0;0;0;0;0;0;0;0;0;0;0;0;0;0;0;0;0
109;2022-04-23 21:48:45.781;5.174184480646646;52.36961238693933;22;0.0;0.03;9.88596058;0.41420954;0.31125572;0.08;0.0;0.0;15.29411793;20.7843132;1461.0;109;10.9;-0.0031754650647529093;0.04105740064090023;-0.014406512525975012;9.834340654986077;0.35127092808959876;-0.4616591546902623;20.622771212161794;10;10.9;0;0;0;0;0;0;0;0;0;0;0;0;0;0;0;0;0
110;2022-04-23 21:48:45.882;5.174184480646646;52.36961238693933;21;-0.03;0.0;9.85244083;0.34956414;0.04070267;0.05;0.0;0.0;15.29411793;20.7843132;1395.5;110;11.0;-0.0056141211741664665;0.03732481473955032;-0.017642366414715185;9.835986167293587;0.3511157615895188;-0.41598873632609146;20.657065610567173;10;11.0;0;0;0;0;0;0;0;0;0;0;0;0;0;0;0;0;0
111;2022-04-23 21:48:45.984;5.174184480646646;52.36961238693933;21;-0.04;0.0;10.38636398;0.32562137;-0.61772293;0.02;0.0;0.0;16.07843208;20.7843132;1395.5;111;11.100000000000001;-0.008740182438100711;0.03393157130576114;-0.017856701696440547;9.886021670807832;0.34879803603714205;-0.4343286325273551;20.688242185006548;10;11.100000000000001;0;0;0;0;0;0;0;0;0;0;0;0;0;0;0;0;0
112;2022-04-23 21:48:46.082;5.174184480646646;52.36961238693933;21;-0.07;-0.02;9.32570076;0.03112557;0.23224466;0.0;0.0;0.0;16.07843208;20.7843132;1395.5;112;11.200000000000001;-0.014309373824659119;0.02902859812801514;-0.016233331055813448;9.835082335459234;0.3199181138954678;-0.3737297867096672;20.71658440029636;10;11.200000000000001;0;0;0;0;0;0;0;0;0;0;0;0;0;0;0;0;0
113;2022-04-23 21:48:46.183;5.174184480646646;52.36961238693933;21;0.02;0.03;10.18524456;0.41899809;-0.38068968;0.01;0.0;0.0;16.07843208;20.7843132;1395.5;113;11.3;-0.011190280238398213;0.029116909076622784;-0.01566665376765919;9.866915873264315;0.328925556572035;-0.3743625163722335;20.742349947164094;10;11.3;0;0;0;0;0;0;0;0;0;0;0;0;0;0;0;0;0
114;2022-04-23 21:48:46.292;5.174184480646646;52.36961238693933;21;-0.08;-0.01;9.80455494;0.0574626;-0.30646718;0.02;0.0;0.0;16.07843208;29.80392075;1395.5;114;11.4;-0.017445817976680943;0.025560764657177878;-0.016060601177754298;9.861246599028334;0.3042466772615891;-0.36819010584067785;20.765773086138786;10;11.4;0;0;0;0;0;0;0;0;0;0;0;0;0;0;0;0;0
115;2022-04-23 21:48:46.386;5.174184480646646;52.36961238693933;21;0.0;0.01;9.51484776;-0.09577099;0.24900457;0.01;0.0;0.0;16.07843208;29.80392075;1395.5;115;11.5;-0.01585980947735251;0.02414612734780542;-0.01550962873313712;9.829755298156641;0.26788086047922727;-0.3120806128417258;20.787066778223153;10;11.5;0;0;0;0;0;0;0;0;0;0;0;0;0;0;0;0;0
116;2022-04-23 21:48:46.482;5.174184480646646;52.36961238693933;21;0.01;0.0;9.85483551;-0.37350687;0.08140534;0.03;0.0;0.0;20.7843132;29.80392075;1241.0;116;11.600000000000001;-0.01350888395505753;0.02195099334667309;-0.01682695412444102;9.832035350149242;0.20957204785665107;-0.27630864901460184;20.806424621754758;10;11.600000000000001;0;0;0;0;0;0;0;0;0;0;0;0;0;0;0;0;0
117;2022-04-23 21:48:46.585;5.174184480646646;52.36961238693933;21;-0.04;-0.01;9.51724243;-0.14126222;0.03112557;0.05;0.0;0.0;20.7843132;29.80392075;1241.0;117;11.700000000000001;-0.015917198664187032;0.01904631967729848;-0.019842724928253147;9.80341743844484;0.17767760723314402;-0.24835971887188862;20.824022613095043;10;11.700000000000001;0;0;0;0;0;0;0;0;0;0;0;0;0;0;0;0;0
118;2022-04-23 21:48:46.683;5.174184480646646;52.36961238693933;21;0.0;0.01;9.90272045;0.41420954;-0.38787252;0.07;0.0;0.0;20.7843132;29.80392075;1241.0;118;11.8;-0.014470163434625719;0.01822391722149592;-0.024402531309944873;9.812445092063637;0.1991807653485202;-0.2610428512789358;20.840020747178183;10;11.8;0;0;0;0;0;0;0;0;0;0;0;0;0;0;0;0;0
119;2022-04-23 21:48:46.781;5.174270048216109;52.369595728792376;21;0.0;-0.01;9.50766563;-0.05985687;-0.44772938;0.06;0.0;0.0;20.7843132;32.15686417;1241.0;119;11.9;-0.013154679842104552;0.015658078888757435;-0.027638699733930936;9.78473756937438;0.17563163539667365;-0.2780145369538629;20.854564472491425;10;11.9;0;0;0;0;0;0;0;0;0;0;0;0;0;0;0;0;0
120;2022-04-23 21:48:46.882;5.174270048216109;52.369595728792376;21;0.0;0.01;9.79737282;-0.33759275;-0.47885495;0.03;0.0;0.0;20.7843132;32.15686417;1273.0;120;12.0;-0.011958788129727978;0.01514370303679787;-0.027853365499462244;9.78588623978585;0.12897441557434383;-0.2962729353607479;20.86778601373152;10;12.0;0;0;0;0;0;0;0;0;0;0;0;0;0;0;0;0;0
121;2022-04-23 21:48:46.981;5.174270048216109;52.369595728792376;20;0.02;0.0;10.19721603;0.0383084;-0.30646718;0.02;0.0;0.0;20.7843132;32.15686417;1273.0;121;12.100000000000001;-0.009053417854647895;0.013766990488150707;-0.02713941681690088;9.823280190422905;0.12073197704568714;-0.29719969313490224;20.788895672859038;10;12.100000000000001;0;0;0;0;0;0;0;0;0;0;0;0;0;0;0;0;0
122;2022-04-23 21:48:47.083;5.174270048216109;52.369595728792376;20;0.27000001;-0.07;10.9992981;-2.3679378;1.09657788;0.12;0.0;0.0;20.7843132;32.15686417;1273.0;122;12.200000000000001;0.01631528117475946;0.0061517478207142205;-0.03558135642888924;9.930191775887442;-0.10551256344546017;-0.1704916141887643;20.717177303211248;10;12.200000000000001;0;0;0;0;0;0;0;0;0;0;0;0;0;0;0;0;0
123;2022-04-23 21:48:47.183;5.174270048216109;52.369595728792376;20;0.13;0.11;9.22274685;0.39266106;0.13886794;0.03;0.0;0.0;20.7843132;32.15686417;1273.0;123;12.3;0.02665033175460537;0.015592567571971942;-0.03507395665174424;9.865878126990253;-0.06022371856764863;-0.14236781115755515;20.651978886220835;10;12.3;0;0;0;0;0;0;0;0;0;0;0;0;0;0;0;0;0
124;2022-04-23 21:48:47.282;5.174270048216109;52.369595728792376;20;-0.03;0.05;10.20918751;-0.49561489;0.35914123;0.02;0.0;0.0;20.7843132;32.15686417;1273.0;124;12.4;0.02150026710240809;0.018720536924173456;-0.03370358777805109;9.897088279931017;-0.09980499924903198;-0.09677577478942023;20.59270768141219;10;12.4;0;0;0;0;0;0;0;0;0;0;0;0;0;0;0;0;0
125;2022-04-23 21:48:47.383;5.174270048216109;52.369595728792376;20;0.01;0.01;10.10383987;0.21309046;0.72546524;0.12;0.0;0.0;20.7843132;32.15686417;1273.0;125;12.5;0.020454781909313345;0.017927756013184856;-0.04154876392846902;9.915883993468894;-0.0713597843058987;-0.022026136501668535;20.538824836845894;10;12.5;1;0;0;0;0;0;0;0;0;0;0;0;0;0;0;0;0
126;2022-04-23 21:48:47.482;5.174270048216109;52.369595728792376;20;0.06;0.1;11.20999432;2.22428131;0.23942748;-0.02;0.0;0.0;19.6078434;32.15686417;1256.25;126;12.600000000000001;0.02404982163480477;0.025388910401465084;-0.03595339078195319;10.033531037983327;0.1373360157924695;0.001742505652267767;20.48984048963354;10;12.600000000000001;1;0;0;0;0;0;0;0;0;0;0;0;0;0;0;0;0
127;2022-04-23 21:48:47.582;5.174270048216109;52.369595728792376;20;0.07;-0.04;8.5331955;0.03112557;0.32083282;-0.11;0.0;0.0;19.6078434;32.15686417;1256.25;127;12.700000000000001;0.02822713159710927;0.01944443408902551;-0.022684833944154617;9.897136211834743;0.12768047213421585;0.03075086201610914;20.44530931195184;10;12.700000000000001;1;0;0;0;0;0;0;0;0;0;0;0;0;0;0;0;0
128;2022-04-23 21:48:47.681;5.174270048216109;52.369595728792376;20;0.03;0.06;10.27862167;0.28013015;-0.71828246;0.13;0.0;0.0;19.6078434;32.15686417;1256.25;128;12.8;0.028388302189192364;0.023131320582957512;-0.03244080275972722;9.931816866678234;0.14153959715694292;-0.037343387846125266;20.404826462040152;10;12.8;1;0;0;0;0;0;0;0;0;0;0;0;0;0;0;0;0
129;2022-04-23 21:48:47.783;5.174353506093522;52.3695810456896;20;0.02;-0.1;10.16848469;-1.02953815;-0.47167215;0.0;0.0;0.0;19.6078434;28.23529434;1256.25;129;12.9;0.027625726091625585;0.011937517615370798;-0.029491626607928596;9.953332212818347;0.03507754104207876;-0.07682798497127966;20.368023903351684;10;12.9;1;0;0;0;0;0;0;0;0;0;0;0;0;0;0;0;0
130;2022-04-23 21:48:47.882;5.174353506093522;52.3695810456896;20;0.07;-0.07;10.40312386;-1.40783358;-0.00239427;0.01;0.0;0.0;19.6078434;28.23529434;1256.25;130;13.0;0.03147794737419314;0.004488624216484613;-0.02771965385358051;9.994222517151133;-0.09609669314894524;-0.07006125802811276;20.334567058378944;10;13.0;1;0;0;0;0;0;0;0;0;0;0;0;0;0;0;0;0
131;2022-04-23 21:48:47.981;5.174353506093522;52.3695810456896;20;-0.01;-0.04;9.46696281;-0.86433321;0.33759275;0.0;0.0;0.0;19.6078434;28.23529434;1256.25;131;13.100000000000001;0.02770721192602936;0.0004441899328944315;-0.025199676660553873;9.946289651761072;-0.1659366165311349;-0.03300167538314228;20.304151766719592;10;13.100000000000001;1;0;0;0;0;0;0;0;0;0;0;0;0;0;0;0;0
132;2022-04-23 21:48:48.083;5.174353506093522;52.3695810456896;20;0.01;-0.06;7.76223898;-2.26019549;-1.24741721;0.04;0.0;0.0;19.6078434;28.23529434;1256.25;132;13.200000000000001;0.026097460357719295;-0.005050753593289851;-0.026545164804407124;9.747738970331216;-0.35632438170257336;-0.14340343256524862;20.276501519717048;10;13.200000000000001;1;0;0;0;0;0;0;0;0;0;0;0;0;0;0;0;0
133;2022-04-23 21:48:48.182;5.174353506093522;52.3695810456896;20;0.12;-0.09;11.16929245;-0.86433321;0.43815228;0.09;0.0;0.0;19.6078434;28.23529434;1225.75;133;13.3;0.034634079118104066;-0.012773434293073078;-0.03231380257108921;9.876971471919136;-0.40250713363458035;-0.09053458125403123;20.251364946526554;10;13.3;1;0;0;0;0;0;0;0;0;0;0;0;0;0;0;0;0
134;2022-04-23 21:48:48.281;5.174353506093522;52.3695810456896;19;0.12;-0.11;9.43823147;-1.63289547;0.10055954;0.08;0.0;0.0;17.64705849;28.23529434;1225.75;134;13.4;0.042394637419298754;-0.02161223581713138;-0.03664892262234875;9.837085914207291;-0.5143609075859463;-0.0731623435544086;20.137604203090937;10;13.4;1;0;0;0;0;0;0;0;0;0;0;0;0;0;0;0;0
135;2022-04-23 21:48:48.382;5.174353506093522;52.3695810456896;19;-0.04;-0.2;10.78141975;-1.77894616;-0.12689656;0.0;0.0;0.0;17.64705849;28.23529434;1225.75;135;13.5;0.03490419825235675;-0.03782934335701605;-0.033317194562915965;9.922934646258796;-0.6293234731278736;-0.07804728378930213;20.034185396403956;10;13.5;1;0;0;0;0;0;0;0;0;0;0;0;0;0;0;0;0
136;2022-04-23 21:48:48.482;5.174353506093522;52.3695810456896;19;-0.13;-0.34;9.70639038;-3.19875121;0.01436565;0.05;0.0;0.0;17.64705849;28.23529434;1225.75;136;13.600000000000001;0.01991287551009121;-0.06529946167410709;-0.03483381647554319;9.903248761861208;-0.8629083113224251;-0.06964609006180862;19.94016834154945;10;13.600000000000001;1;0;0;0;0;0;0;0;0;0;0;0;0;0;0;0;0
137;2022-04-23 21:48:48.585;5.174353506093522;52.3695810456896;19;-0.02;-0.19;9.69202423;-1.86514008;1.35515952;0.19;0.0;0.0;17.64705849;28.23529434;1225.75;137;13.700000000000001;0.01628442524258248;-0.07663589624226218;-0.04893986052579652;9.884046494438946;-0.9540204670538373;0.05988194395993495;19.854698326502906;10;13.700000000000001;1;0;0;0;0;0;0;0;0;0;0;0;0;0;0;0;0
138;2022-04-23 21:48:48.682;5.174353506093522;52.3695810456896;19;0.05;-0.05;10.34087276;-0.40223816;-0.90743017;0.01;0.0;0.0;17.64705849;25.49019623;1225.75;138;13.8;0.01934948289900001;-0.07421444685869717;-0.04539986696189723;9.925576228189147;-0.9038583506705471;-0.028055676038254335;19.77699834160205;10;13.8;1;0;0;0;0;0;0;0;0;0;0;0;0;0;0;0;0
139;2022-04-23 21:48:48.780;5.174432998322993;52.36956473245151;19;-0.04;-0.02;10.57072353;0.65124273;0.1053481;-0.01;0.0;0.0;17.64705849;25.49019623;1226.5;139;13.9;0.013954066712071557;-0.06928585287845011;-0.04036350734493856;9.984226076934538;-0.762485298486782;-0.015928040590123028;19.70636201547549;10;13.9;1;0;0;0;0;0;0;0;0;0;0;0;0;0;0;0;0
140;2022-04-23 21:48:48.881;5.174432998322993;52.36956473245151;19;-0.06;0.01;8.49249268;-2.41342902;0.11013664;-0.05;0.0;0.0;17.25490189;25.49019623;1226.5;140;14.0;0.007230959938803639;-0.062078037565375215;-0.032148631067041654;9.848613752275137;-0.9125713101134811;-0.00446759837745743;19.64214719319788;10;14.0;1;0;0;0;0;0;0;0;0;0;0;0;0;0;0;0;0
141;2022-04-23 21:48:48.982;5.174432998322993;52.36956473245151;19;0.08;-0.27000001;10.73114014;-2.62412524;-0.02633702;0.05;0.0;0.0;17.25490189;25.49019623;1226.5;141;14.100000000000001;0.013846335982928252;-0.08098006010592845;-0.0337714849386141;9.928843530196533;-1.068167328096908;-0.006455730250283601;19.583770098280716;10;14.100000000000001;1;0;0;0;0;0;0;0;0;0;0;0;0;0;0;0;0
142;2022-04-23 21:48:49.081;5.174432998322993;52.36956473245151;19;-0.02;-0.27000001;9.79018974;-2.24582982;0.90982443;0.12;0.0;0.0;17.25490189;25.49019623;1226.5;142;14.200000000000001;0.010769392641603644;-0.098163712614059;-0.041610450296172004;9.916238624994687;-1.1752276835993962;0.076842566477965;19.53070002541743;10;14.200000000000001;1;0;0;0;0;0;0;0;0;0;0;0;0;0;0;0;0
143;2022-04-23 21:48:49.182;5.174432998322993;52.36956473245151;19;0.02;-0.13;9.14134121;-1.25460005;-0.82363051;0.04;0.0;0.0;17.25490189;25.49019623;1226.5;143;14.3;0.011608539684043214;-0.10105792372768282;-0.04146404556346507;9.845793328305149;-1.1824433611740588;-0.0050187119389539046;19.482454515727696;10;14.3;1;0;0;0;0;0;0;0;0;0;0;0;0;0;0;0;0
144;2022-04-23 21:48:49.283;5.174432998322993;52.36956473245151;19;-0.02;-0.13;10.59945488;-0.76377368;0.25858167;0.06;0.0;0.0;17.25490189;27.45098114;1226.5;144;14.4;0.008735033215699527;-0.10368902418999819;-0.04314913400800322;9.914308083032346;-1.1443824431759908;0.01894498300332885;19.43859497063378;10;14.4;1;0;0;0;0;0;0;0;0;0;0;0;0;0;0;0;0
145;2022-04-23 21:48:49.388;5.174432998322993;52.36956473245151;19;-0.23;-0.25;8.75346851;-2.90664959;-1.02714384;0.0;0.0;0.0;17.25490189;27.45098114;1158.75;145;14.5;-0.012968171264368245;-0.11699003402885873;-0.03922648191166248;9.80877711724689;-1.3045886924258472;-0.07615408697456519;19.398722664490116;10;14.5;1;0;0;0;0;0;0;0;0;0;0;0;0;0;0;0;0
146;2022-04-23 21:48:49.482;5.174432998322993;52.36956473245151;19;-0.1;-0.25999999;9.31372929;-2.116539;-0.05506832;0.0;0.0;0.0;20.3921566;27.45098114;1158.75;146;14.600000000000001;-0.02088016220458155;-0.1299909498138298;-0.03566043516749646;9.763772732287366;-1.378402417482046;-0.07423719749063887;19.36247511971329;10;14.600000000000001;1;0;0;0;0;0;0;0;0;0;0;0;0;0;0;0;0
147;2022-04-23 21:48:49.583;5.174432998322993;52.36956473245151;19;0.0;-0.15000001;9.64653301;-1.37670803;0.21309046;0.01;0.0;0.0;20.3921566;27.45098114;1158.75;147;14.700000000000001;-0.01898196422073871;-0.1318099566458574;-0.03332766658925314;9.753114567743829;-1.378248382141192;-0.04811648181768574;19.329522811455746;10;14.700000000000001;1;0;0;0;0;0;0;0;0;0;0;0;0;0;0;0;0
148;2022-04-23 21:48:49.681;5.174432998322993;52.36956473245151;19;0.03;-0.09;9.83089256;-0.92179579;0.41899809;0.04;1.5686264100000002;0.0;20.3921566;27.45098114;1158.75;148;14.8;-0.014529055354644185;-0.12800904891172984;-0.03393424276632024;9.760185299120458;-1.336752663730684;-0.005651491868420865;19.29956617186287;10;14.8;1;0;0;0;0;0;0;0;0;0;0;0;0;0;0;0;0
149;2022-04-23 21:48:49.781;5.174493285709469;52.36953708745392;19;0.02;-0.17;10.16130257;-1.71430075;-0.22266756;0.03;1.5686264100000002;1.1764707600000008;20.3921566;27.05882263;1158.75;149;14.9;-0.011390048382011663;-0.13182641046129284;-0.03357658411193;9.796650528105209;-1.3710752382445577;-0.025380237530346343;19.272332866677303;10;14.9;1;0;0;0;0;0;0;0;0;0;0;0;0;0;0;0;0
150;2022-04-23 21:48:49.881;5.174493285709469;52.36953708745392;18;0.01;-0.17;9.77582359;-1.96569967;0.2753416;0.04;1.5686264100000002;1.1764707600000008;20.3921566;27.05882263;1167.75;150;15.0;-0.009445497436343833;-0.13529673873317527;-0.03416053133899979;9.794757169031655;-1.4251320351454768;0.0019581266990854338;19.156666177433987;10;15.0;1;0;0;0;0;0;0;0;0;0;0;0;0;0;0;0;0
151;2022-04-23 21:48:49.983;5.174493285709469;52.36953708745392;18;-0.07;-0.14;9.21077538;-1.09657788;0.17717634;0.04;1.5686264100000002;1.1764707600000008;18.03921509;27.05882263;1167.75;151;15.100000000000001;-0.014950455027185144;-0.13572430815768335;-0.034691392397565336;9.741667888361512;-1.3952634603277871;0.01788706331862989;19.05151465303923;10;15.100000000000001;1;0;0;0;0;0;0;0;0;0;0;0;0;0;0;0;0
152;2022-04-23 21:48:50.082;5.174493285709469;52.36953708745392;18;-0.02;-0.07;9.69202423;-2.08301902;-0.27773589;0.0;1.5686264100000002;1.1764707600000008;18.03921509;27.05882263;1167.75;152;15.200000000000001;-0.015409504783364255;-0.12974936827750508;-0.03153762798763301;9.73715482641447;-1.4577867220628664;-0.008987763100871555;18.955922367458033;10;15.200000000000001;1;0;0;0;0;0;0;0;0;0;0;0;0;0;0;0;0
153;2022-04-23 21:48:50.186;5.174493285709469;52.36953708745392;18;0.01;-0.07;9.28020954;-1.29290843;-0.57941449;-0.01;1.5686264100000002;1.1764707600000008;18.03921509;27.05882263;1167.75;153;15.3;-0.013099548827776466;-0.12431760523167067;-0.027761478394436608;9.695614328292605;-1.4427977800923362;-0.06084476016796002;18.869020297362006;10;15.3;1;0;0;0;0;0;0;0;0;0;0;0;0;0;0;0;0
154;2022-04-23 21:48:50.283;5.174493285709469;52.36953708745392;18;-0.03;-0.16;10.19482231;-1.38628507;-0.39505535;0.01;8.23529435;4.313725470000001;18.03921509;27.05882263;1167.75;154;15.4;-0.014635954069508265;-0.1275614605465931;-0.026146797920641413;9.74099688950317;-1.4376602590211214;-0.09122755272347174;18.790018421824346;10;15.4;1;0;0;0;0;0;0;0;0;0;0;0;0;0;0;0;0
155;2022-04-23 21:48:50.388;5.174493285709469;52.36953708745392;18;0.09;-0.13;10.76226521;-0.71349388;-0.57223165;-0.03;8.23529435;4.313725470000001;18.03921509;36.47058868;1167.75;155;15.5;-0.005123591289473693;-0.12778314602880148;-0.021042541783179866;9.833839496489572;-1.3718269288660108;-0.13495521318841996;18.71819854023459;10;15.5;1;0;0;0;0;0;0;0;0;0;0;0;0;0;0;0;0
156;2022-04-23 21:48:50.483;5.174493285709469;52.36953708745392;18;0.0;-0.09;10.36002731;-1.23065722;-0.67757976;-0.04;8.23529435;4.313725470000001;18.03921509;36.47058868;1688.0;156;15.600000000000001;-0.004657810115406925;-0.12434831348207057;-0.015493218042583478;9.881674767437127;-1.3589933148981352;-0.18428473309189142;18.65290774313866;10;15.600000000000001;1;0;0;0;0;0;0;0;0;0;0;0;0;0;0;0;0
157;2022-04-23 21:48:50.585;5.174493285709469;52.36953708745392;18;-0.07;-0.2;9.14852428;-1.92978549;-1.50121033;-0.09;8.23529435;4.313725470000001;25.49019623;36.47058868;1688.0;157;15.700000000000001;-0.010598010908822538;-0.13122574151242486;-0.005902922727668152;9.815024703904532;-1.4108835275984444;-0.30400527642598313;18.593552476645915;10;15.700000000000001;1;0;0;0;0;0;0;0;0;0;0;0;0;0;0;0;0
158;2022-04-23 21:48:50.682;5.174493285709469;52.36953708745392;18;0.01;-0.1;10.1062336;-0.70631105;-1.80288899;-0.05;8.23529435;4.313725470000001;25.49019623;36.47058868;1688.0;158;15.8;-0.008725463971662845;-0.12838703699437906;-0.0008208375110255555;9.841498246853462;-1.3468314673886461;-0.4402674679276583;18.539593146441327;10;15.8;1;0;0;0;0;0;0;0;0;0;0;0;0;0;0;0;0
159;2022-04-23 21:48:50.781;5.174541900246997;52.36950065817552;18;-0.05;-0.2;9.68723583;-1.58022141;-0.64166564;-0.06;8.23529435;4.313725470000001;25.49019623;36.47058868;1688.0;159;15.9;-0.012477695413945647;-0.1348973079100895;0.004708330853172711;9.827474387433632;-1.3680487399553847;-0.4585763970249909;18.490539212346768;10;15.9;1;0;0;0;0;0;0;0;0;0;0;0;0;0;0;0;0
160;2022-04-23 21:48:50.882;5.174541900246997;52.36950065817552;18;-0.03;-0.11;10.08468533;-0.58420306;-1.42938209;-0.08;8.23529435;4.313725470000001;25.49019623;48.62745285;1688.0;160;16.0;-0.014070632539620969;-0.1326339157915142;0.011553029531307662;9.85085720546032;-1.2967900263387468;-0.546831479144019;18.445944728835244;10;16.0;1;0;0;0;0;0;0;0;0;0;0;0;0;0;0;0;0
161;2022-04-23 21:48:50.983;5.174541900246997;52.36950065817552;18;-0.04;-0.18000001;9.49569416;-1.73345494;-0.83320761;-0.03;8.23529435;4.313725470000001;25.49019623;48.62745285;1827.75;161;16.1;-0.016427848227576446;-0.1369399252040472;0.013230027176950088;9.81856964951356;-1.3364868444903988;-0.5728656779859771;18.40540429095616;10;16.1;1;0;0;0;0;0;0;0;0;0;0;0;0;0;0;0;0
162;2022-04-23 21:48:51.083;5.174541900246997;52.36950065817552;19;-0.01;-0.13;9.60104179;-1.45093048;-1.350371;-0.08;8.23529435;4.313725470000001;25.49019623;48.62745285;1827.75;162;16.2;-0.01584349828407367;-0.13630902279980242;0.019300025793196545;9.798794386016874;-1.346890813217816;-0.6435479926434448;18.45945845600258;10;16.2;1;0;0;0;0;0;0;0;0;0;0;0;0;0;0;0;0
