;device_time;lon;lat;raw_speed_kph;raw_g_x;raw_g_y;raw_roll;raw_yaw;raw_pitch;raw_g_z;apps_d;apps_e;engine_load;engine_load_abs;engine_rpm;num_samples;cumulative_time;g_x;g_y;g_z;roll;yaw;pitch;speed_kph;sample_nr;roundabout_1;roundabout_2;roundabout_3;roundabout_4;turning_right_1;turning_right_2;turning_right_3;turning_left_1;turning_left_2;road_50km_1;road_50km_2;road_100km;entering_highway;exiting_highway;speed_bumps;road_50km_3;road_50km_4
0;2022-05-01 11:12:29.262;5.173733322206652;52.36975247246323;0;0.0;0.0;9.68005276;0.28970724;-0.65603131;0.02;0.0;0.0;0.0;0.0;0.0;0;0.0;0.0;0.0;-0.02;9.68005276;0.28970724;-0.65603131;0.0;2;0;0;0;0;0;0;0;0;0;0;0;0;0;0;0;0;0
1;2022-05-01 11:12:29.360;5.173733322206652;52.36975247246323;0;0.0;-0.03;9.81173801;-0.10774237;-0.59378016;0.04;0.0;0.0;0.0;0.0;0.0;1;0.1;0.0;-0.015714285714285712;-0.030476190476190476;9.749030748095239;0.08151934904761902;-0.6234235647619047;0.0;2;0;0;0;0;0;0;0;0;0;0;0;0;0;0;0;0;0
2;2022-05-01 11:12:29.465;5.173733322206652;52.36975247246323;0;-0.01;-0.02;9.7470932;0.2849187;-0.44533512;0.01;0.0;0.0;0.0;0.0;0.0;2;0.2;-0.0036555891238670697;-0.017280966767371602;-0.022990936555891236;9.748322460120846;0.1558737945619335;-0.5583217465861027;0.0;2;0;0;0;0;0;0;0;0;0;0;0;0;0;0;0;0;0
3;2022-05-01 11:12:29.561;5.173733322206652;52.36975247246323;0;-0.01;0.0;9.76385307;0.0191542;-0.60335726;0.01;0.0;0.0;0.0;0.0;0.0;3;0.30000000000000004;-0.005475113122171946;-0.012324929971988795;-0.019265244559362203;9.752776509194138;0.11666375785391078;-0.5712375553242836;0.0;2;0;0;0;0;0;0;0;0;0;0;0;0;0;0;0;0;0
4;2022-05-01 11:12:29.661;5.173733322206652;52.36975247246323;0;-0.05;0.0;9.90511513;-0.10295381;-0.84996754;0.02;0.0;0.0;0.0;0.0;0.0;4;0.4;-0.016152888568573817;-0.009369215901459435;-0.019441450590489916;9.78930973137262;0.06399597500106466;-0.6380814351237488;0.0;2;0;0;0;0;0;0;0;0;0;0;0;0;0;0;0;0;0
5;2022-05-01 11:12:29.760;5.173733322206652;52.36975247246323;0;-0.05;-0.01;10.10862827;-0.06225114;-0.29689008;0.02;0.0;0.0;0.0;0.0;0.0;5;0.5;-0.023217930921858414;-0.009500881978223366;-0.019558038832963302;9.855962361513953;0.03764391195221114;-0.5668632048943374;0.0;2;0;0;0;0;0;0;0;0;0;0;0;0;0;0;0;0;0
6;2022-05-01 11:12:29.861;5.173733322206652;52.36975247246323;0;-0.04;0.0;9.84525776;0.26337022;-0.46927786;0.03;0.0;0.0;0.0;0.0;0.0;6;0.6000000000000001;-0.02635168481731804;-0.007726760696102135;-0.021507889970571837;9.853963466947528;0.07979429840687173;-0.5486408716839044;0.0;2;0;0;0;0;0;0;0;0;0;0;0;0;0;0;0;0;0
7;2022-05-01 11:12:29.961;5.173733322206652;52.36975247246323;0;-0.01;0.0;10.29538155;0.31604427;-0.70152253;0.03;0.0;0.0;0.0;0.0;0.0;7;0.7000000000000001;-0.023565298002522432;-0.006410092452723457;-0.022954976535665823;9.929182720508917;0.12005215643173674;-0.5746924646368761;0.0;2;0;0;0;0;0;0;0;0;0;0;0;0;0;0;0;0;0
8;2022-05-01 11:12:30.063;5.173733322206652;52.36975247246323;0;0.0;-0.01;10.04398251;0.27294734;-0.56265455;0.03;0.0;0.0;0.0;0.0;0.0;8;0.8;-0.019845397049244665;-0.00697677743611996;-0.02406706896488254;9.947304445356966;0.1441874310650676;-0.5727922191942596;0.0;2;0;0;0;0;0;0;0;0;0;0;0;0;0;0;0;0;0
9;2022-05-01 11:12:30.160;5.173733322206652;52.36975247246323;0;-0.06;-0.04;9.5387907;0.06464542;-0.57462597;0.03;0.0;0.0;0.0;0.0;0.0;9;0.9;-0.025786284970672972;-0.011862575069257891;-0.024944848241356083;9.886864690081463;0.13241916197367345;-0.5730635232842564;0.0;2;0;0;0;0;0;0;0;0;0;0;0;0;0;0;0;0;0
10;2022-05-01 11:12:30.264;5.173733322206652;52.36975247246323;0;0.03;-0.02;9.59864807;0.02154847;-0.99362403;0.03;0.0;0.0;0.0;0.0;0.0;10;1.0;-0.017978074319795385;-0.013001541896827427;-0.025652400103330694;9.846524020616503;0.11690098006939165;-0.6319279023982745;0.0;2;0;0;0;0;0;0;0;0;0;0;0;0;0;0;0;0;0
11;2022-05-01 11:12:30.360;5.173733322206652;52.36975247246323;0;-0.01;-0.02;9.50048256;0.10295381;-1.11812639;-0.02;0.0;0.0;0.0;0.0;0.0;11;1.1;-0.01691363010589571;-0.013935284543929314;-0.019561402302012955;9.800354755232663;0.115040131964254;-0.6967970858866155;0.0;2;0;0;0;0;0;0;0;0;0;0;0;0;0;0;0;0;0
12;2022-05-01 11:12:30.462;5.173733322206652;52.36975247246323;0;0.01;-0.01;9.65611076;-0.18196489;-1.07024086;0.0;0.0;0.0;0.0;0.0;0.0;12;1.2000000000000002;-0.013469210909961877;-0.013431644954203268;-0.01705792472119869;9.781894340040708;0.07702928783370595;-0.744590597913681;0.0;2;0;0;0;0;0;0;0;0;0;0;0;0;0;0;0;0;0
13;2022-05-01 11:12:30.562;5.173733322206652;52.36975247246323;0;0.0;-0.02;9.64174461;0.22506183;-1.08700073;-0.01;0.0;0.0;0.0;0.0;0.0;13;1.3;-0.011807034081848957;-0.014242217127207633;-0.013718823730869962;9.764599070459054;0.09529734102852813;-0.7868459453924276;0.0;2;0;0;0;0;0;0;0;0;0;0;0;0;0;0;0;0;0
14;2022-05-01 11:12:30.660;5.173733322206652;52.36975247246323;0;0.0;-0.03;9.54118538;0.15323359;-1.08939505;-0.01;0.0;0.0;0.0;0.0;0.0;14;1.4000000000000001;-0.010395838295868404;-0.01612561279053232;-0.010883911604303317;9.7378963052836;0.10222197509304316;-0.8230071030984731;0.0;2;0;0;0;0;0;0;0;0;0;0;0;0;0;0;0;0;0
15;2022-05-01 11:12:30.760;5.173733322206652;52.36975247246323;0;0.0;-0.01;9.63934994;-0.00239427;-1.09178936;-0.01;0.0;0.0;0.0;0.0;0.0;15;1.5;-0.009187873822817914;-0.015413835402693624;-0.008457265233096178;9.726445520380745;0.09006588880353605;-0.8542387756277016;0.0;2;0;0;0;0;0;0;0;0;0;0;0;0;0;0;0;0;0
16;2022-05-01 11:12:30.861;5.173733322206652;52.36975247246323;0;0.0;0.0;9.69441891;0.16520496;-0.93137288;0.0;0.0;0.0;0.0;0.0;0.0;16;1.6;-0.008146602607335802;-0.01366696954074152;-0.007498794642539052;9.722815911598337;0.09858147723060293;-0.8629804632219955;0.0;2;0;0;0;0;0;0;0;0;0;0;0;0;0;0;0;0;0
17;2022-05-01 11:12:30.962;5.173733322206652;52.36975247246323;0;0.0;0.0;9.82370949;0.01436565;-1.04869235;0.0;0.0;0.0;0.0;0.0;858.5;17;1.7000000000000002;-0.0072435870925459216;-0.012152045328734769;-0.006667585826935549;9.733999526539531;0.08924651856800421;-0.883565819243956;0.0;2;0;0;0;0;0;0;0;0;0;0;0;0;0;0;0;0;0
18;2022-05-01 11:12:31.060;5.173733322206652;52.36975247246323;0;-0.02;-0.02;9.81892109;-0.14605077;-0.77813929;0.0;0.0;0.0;29.41176414;0.0;858.5;18;1.8;-0.008629940922540718;-0.013004952967823221;-0.005942959459393801;9.743228714682521;0.06367465133853967;-0.8721081725167157;0.0;2;0;0;0;0;0;0;0;0;0;0;0;0;0;0;0;0;0
19;2022-05-01 11:12:31.162;5.173733322206652;52.36975247246323;0;0.0;-0.02;9.81652641;0.14844504;-0.61293435;0.0;0.0;0.0;29.41176414;0.0;858.5;19;1.9000000000000001;-0.007708423083839927;-0.01375189442206485;-0.005308361470176667;9.751055550854051;0.07272655865126512;-0.8444332089315522;0.0;2;0;0;0;0;0;0;0;0;0;0;0;0;0;0;0;0;0
20;2022-05-01 11:12:31.261;5.173733322206652;52.36975247246323;0;-0.02;-0.03;9.83807564;0.16281068;-0.79011071;0.0;0.0;0.0;29.41176414;0.0;858.5;20;2.0;-0.009000428611761278;-0.015459782870238034;-0.004750383237566334;9.760202500589115;0.08219557825341911;-0.838723203666256;0.0;2;0;0;0;0;0;0;0;0;0;0;0;0;0;0;0;0;0
21;2022-05-01 11:12:31.361;5.173733322206652;52.36975247246323;0;0.0;0.0;10.07510853;0.25858167;-0.91700727;-0.03;0.0;0.0;29.41176414;0.0;858.5;21;2.1;-0.008067615493156604;-0.013857516034490551;-0.0011488199388826645;9.792839665776818;0.10047640324719911;-0.8468366399484358;0.0;2;0;0;0;0;0;0;0;0;0;0;0;0;0;0;0;0;0
22;2022-05-01 11:12:31.472;5.173733322206652;52.36975247246323;0;0.0;-0.01;10.03680038;0.22985038;-0.98165268;0.02;0.0;0.0;29.41176414;0.0;858.5;22;2.2;-0.007241991765988259;-0.013462745514166508;-0.0030780122208876166;9.817806120156114;0.11371627876876358;-0.8606334454064881;0.0;2;0;0;0;0;0;0;0;0;0;0;0;0;0;0;0;0;0
23;2022-05-01 11:12:31.562;5.173733322206652;52.36975247246323;0;-0.01;-0.03;9.82610416;0.14605077;-1.00559545;0.01;0.0;0.0;29.41176414;0.0;858.5;23;2.3000000000000003;-0.0075210514929144965;-0.015136011628464396;-0.0037783901224488917;9.818645729227727;0.1169879348073544;-0.8753009351252201;0.0;2;0;0;0;0;0;0;0;0;0;0;0;0;0;0;0;0;0
24;2022-05-01 11:12:31.661;5.173733322206652;52.36975247246323;0;0.01;-0.01;9.51963711;0.00239427;-0.80208206;0.01;0.0;0.0;29.41176414;0.0;858.5;24;2.4000000000000004;-0.0057662692513540635;-0.014621625719506714;-0.004401501728019981;9.788699180910893;0.10551105922824922;-0.8679678602884318;0.0;2;0;0;0;0;0;0;0;0;0;0;0;0;0;0;0;0;0
25;2022-05-01 11:12:31.761;5.173733322206652;52.36975247246323;0;-0.01;-0.03;9.58907032;0.11492519;-0.7996878;0.01;0.0;0.0;29.41176414;28.62745094;858.5;25;2.5;-0.006186405595060859;-0.01614770622059372;-0.004957071445104794;9.76888891315868;0.10644527510460979;-0.8611920550753023;0.0;2;0;0;0;0;0;0;0;0;0;0;0;0;0;0;0;0;0
26;2022-05-01 11:12:31.861;5.173733322206652;52.36975247246323;0;-0.01;-0.01;9.71596718;0.05027977;-0.69912827;-0.01;0.0;0.0;29.41176414;28.62745094;858.5;26;2.6;-0.0065617244485848;-0.01554267332891366;-0.003485055726919892;9.7636805658342;0.10091768859563187;-0.8452423793747519;0.0;2;0;0;0;0;0;0;0;0;0;0;0;0;0;0;0;0;0
27;2022-05-01 11:12:31.961;5.173733322206652;52.36975247246323;0;0.0;-0.02;10.03680038;0.09816527;-0.61054009;0.01;0.0;0.0;29.41176414;28.62745094;858.5;27;2.7;-0.005920757230338698;-0.01597807720781268;-0.004121453329480779;9.790359657421398;0.1006488248076879;-0.8223160168437907;0.0;2;0;0;0;0;0;0;0;0;0;0;0;0;0;0;0;0;0
28;2022-05-01 11:12:32.061;5.173733322206652;52.36975247246323;0;0.0;-0.02;10.05595398;0.15562786;-0.57941449;0.02;0.0;0.0;29.41176414;28.62745094;858.5;28;2.8000000000000003;-0.005346292666661329;-0.01636830636804896;-0.005662077616213905;9.816129085334012;0.10598319442198595;-0.7987483692935968;0.0;2;0;0;0;0;0;0;0;0;0;0;0;0;0;0;0;0;0
29;2022-05-01 11:12:32.163;5.173733322206652;52.36975247246323;0;0.01;0.0;10.02961731;0.34477556;-0.8930645;0.0;0.0;0.0;29.41176414;28.62745094;858.5;29;2.9000000000000004;-0.0038663624943482905;-0.014789817609238564;-0.005116051309781144;9.836716967500701;0.1290112986301531;-0.8078438095148991;0.0;2;0;0;0;0;0;0;0;0;0;0;0;0;0;0;0;0;0
30;2022-05-01 11:12:32.262;5.173733322206652;52.36975247246323;0;0.01;-0.02;9.73512173;0.17238778;-1.03911531;0.02;0.0;0.0;29.41176414;28.62745094;858.5;30;3.0;-0.0025364999987606174;-0.015289503533320602;-0.006543506069992475;9.826973410303378;0.13317134823132484;-0.8300240528857744;0.0;2;0;0;0;0;0;0;0;0;0;0;0;0;0;0;0;0;0
31;2022-05-01 11:12:32.362;5.173733322206652;52.36975247246323;0;-0.05;-0.04;9.46217442;-0.12689656;-0.8834874;0.01;0.0;0.0;29.41176414;28.62745094;858.5;31;3.1;-0.007065886431781006;-0.017647597383256938;-0.0068733552533014304;9.792161068242287;0.1083533711504902;-0.8351259977292165;0.0;2;0;0;0;0;0;0;0;0;0;0;0;0;0;0;0;0;0
32;2022-05-01 11:12:32.462;5.173733322206652;52.36975247246323;0;0.0;-0.03;9.31612301;-0.14605077;-0.70391679;0.0;0.0;0.0;29.41176414;28.62745094;858.5;32;3.2;-0.0063946310343600465;-0.018821068965012268;-0.006220390213923157;9.746937709636397;0.08418511504812506;-0.8226611938111376;0.0;2;0;0;0;0;0;0;0;0;0;0;0;0;0;0;0;0;0
33;2022-05-01 11:12:32.562;5.173733322206652;52.36975247246323;0;-0.03;-0.05;9.58907032;-0.21309046;-0.57702023;0.02;0.0;0.0;29.41176414;28.62745094;858.5;33;3.3000000000000003;-0.008627993070146788;-0.021770984341946804;-0.007524112998725862;9.732001487490669;0.05605914148484103;-0.7994204978572463;0.0;2;0;0;0;0;0;0;0;0;0;0;0;0;0;0;0;0;0
34;2022-05-01 11:12:32.660;5.173733322206652;52.36975247246323;0;-0.02;-0.02;9.94581795;0.1699935;-0.86672747;0.01;0.0;0.0;29.41176414;28.62745094;858.5;34;3.4000000000000004;-0.009699956747581253;-0.021604045392684606;-0.007757498446973409;9.752156547442825;0.06679897788253332;-0.8057650797608784;0.0;2;0;0;0;0;0;0;0;0;0;0;0;0;0;0;0;0;0
35;2022-05-01 11:12:32.760;5.173756310212816;52.36975223366706;0;0.0;-0.03;9.58428192;0.06464542;-0.92897862;0.0;0.0;0.0;29.41176414;28.62745094;876.25;35;3.5;-0.00878866288467148;-0.02239283054977548;-0.007028695122358404;9.736385021681635;0.06659665491008677;-0.8173407749901687;0.0;2;0;0;0;0;0;0;0;0;0;0;0;0;0;0;0;0;0
36;2022-05-01 11:12:32.862;5.173756310212816;52.36975223366706;2;-0.03;-0.01;9.49090576;-0.13886794;-0.54828894;0.0;0.0;0.0;29.41176414;28.62745094;876.25;36;3.6;-0.010775392703406505;-0.02123207364614885;-0.006370362358588617;9.713392554662121;0.04735210492331616;-0.7921404163115042;0.1873271645189499;2;0;0;0;0;0;0;0;0;0;0;0;0;0;0;0;0;0
37;2022-05-01 11:12:32.962;5.173756310212816;52.36975223366706;2;0.01;-0.03;9.7518816;-0.21309046;-0.69912827;0.02;0.0;0.0;29.41176414;28.62745094;876.25;37;3.7;-0.008834840234947431;-0.022051053165435788;-0.007643456318680489;9.716987673801642;0.023025129762414203;-0.783452496294865;0.3566422189017577;2;0;0;0;0;0;0;0;0;0;0;0;0;0;0;0;0;0
38;2022-05-01 11:12:33.064;5.173756310212816;52.36975223366706;2;-0.07;-0.04;10.16609097;0.15083931;-0.58420306;0.0;0.0;0.0;29.41176414;28.62745094;876.25;38;3.8000000000000003;-0.014533819700513336;-0.023723421550176944;-0.0069312878101139746;9.758832254487505;0.034934039857313144;-0.7648877046662358;0.5097598153411591;2;0;0;0;0;0;0;0;0;0;0;0;0;0;0;0;0;0
39;2022-05-01 11:12:33.162;5.173756310212816;52.36975223366706;2;0.03;0.0;10.30735302;0.34477556;-0.66560841;0.0;0.0;0.0;29.41176414;28.62745094;876.25;39;3.9000000000000004;-0.010393817587595514;-0.0215180186450621;-0.006286933780477872;9.809824447465168;0.06373786932190335;-0.755658393269835;0.6482971686320455;2;0;0;0;0;0;0;0;0;0;0;0;0;0;0;0;0;0
40;2022-05-01 11:12:33.261;5.173756310212816;52.36975223366706;2;0.0;-0.02;10.35763264;0.1699935;-0.91700727;0.02;0.0;0.0;29.41176414;25.49019623;876.25;40;4.0;-0.009429556646715284;-0.02137718818747275;-0.007559129874333729;9.860646009293033;0.07359547491753766;-0.770627139678419;0.7736980844149883;2;0;0;0;0;0;0;0;0;0;0;0;0;0;0;0;0;0
41;2022-05-01 11:12:33.361;5.173756310212816;52.36975223366706;2;-0.06;-0.06;9.79018974;0.22506183;-0.84757328;0.03;0.0;0.0;29.41176414;25.49019623;855.75;41;4.1000000000000005;-0.014112379290285875;-0.024953660247457578;-0.009637154265612296;9.854121759329038;0.08762125816733365;-0.7777523516469206;0.8872536318330334;2;0;0;0;0;0;0;0;0;0;0;0;0;0;0;0;0;0
42;2022-05-01 11:12:33.462;5.173756310212816;52.36975223366706;2;0.04;0.0;9.5387907;-0.11013664;-0.6847626;0.01;0.0;0.0;29.41176414;25.49019623;855.75;42;4.2;-0.00911003188179035;-0.022646852095450188;-0.009670697060124453;9.82497139617478;0.06933979055527335;-0.7691560369169358;0.9901199996423692;2;0;0;0;0;0;0;0;0;0;0;0;0;0;0;0;0;0
43;2022-05-01 11:12:33.563;5.173756310212816;52.36975223366706;2;0.0;-0.03;9.46935654;-0.19154198;-0.49561489;0.04;0.0;0.0;29.41176414;25.49019623;855.75;43;4.3;-0.00826915741668704;-0.023325562597377513;-0.012470153386671588;9.792147421917733;0.04525987271114849;-0.7439076328957283;1.0833339769520038;2;0;0;0;0;0;0;0;0;0;0;0;0;0;0;0;0;0
44;2022-05-01 11:12:33.661;5.173756310212816;52.36975223366706;2;-0.05;-0.05;9.64174461;-0.18675344;-0.33998701;0.02;0.0;0.0;29.41176414;25.49019623;855.75;44;4.4;-0.01211564110404921;-0.025784242604470847;-0.01316420676238964;9.778284247182643;0.023874361004486904;-0.706676798558852;1.1678264215359817;2;0;0;0;0;0;0;0;0;0;0;0;0;0;0;0;0;0
45;2022-05-01 11:12:33.760;5.173767976203465;52.36975031192749;2;0.02;0.0;9.96257782;-0.0478855;-0.37590113;0.02;0.0;0.0;29.41176414;26.27450943;855.75;45;4.5;-0.009159164154493284;-0.023410616660809878;-0.013793490950534873;9.795249802944726;0.017268346997923806;-0.6762265068645381;1.2444340157853813;2;0;0;0;0;0;0;0;0;0;0;0;0;0;0;0;0;0
46;2022-05-01 11:12:33.864;5.173767976203465;52.36975031192749;2;-0.02;-0.03;10.05595398;0.20590763;-0.4932206;0.04;0.0;0.0;29.41176414;26.27450943;866.0;46;4.6000000000000005;-0.010155996967482353;-0.02401652137364535;-0.016203222866661014;9.81922198386099;0.03461404153614891;-0.6593988105934055;1.3139095595697368;2;0;0;0;0;0;0;0;0;0;0;0;0;0;0;0;0;0
47;2022-05-01 11:12:33.965;5.173767976203465;52.36975031192749;2;-0.01;-0.02;10.0966568;0.31365001;-0.63927138;0.02;0.0;0.0;29.80392075;26.27450943;866.0;47;4.7;-0.010141667727097448;-0.02364758022560297;-0.0165519792117975;9.844706005991403;0.0602451389394066;-0.6575499875299957;1.3769310080336117;2;0;0;0;0;0;0;0;0;0;0;0;0;0;0;0;0;0
48;2022-05-01 11:12:34.064;5.173767976203465;52.36975031192749;2;0.01;0.0;9.73272705;0.28970724;-0.49800915;0.04;0.0;0.0;29.80392075;26.27450943;866.0;48;4.800000000000001;-0.008293286945514894;-0.021477465346727693;-0.01870378071990963;9.834429808756864;0.08130264735671355;-0.6429090838092328;1.4341094287063596;2;0;0;0;0;0;0;0;0;0;0;0;0;0;0;0;0;0
49;2022-05-01 11:12:34.162;5.173767976203465;52.36975031192749;2;-0.02;-0.04;9.49329948;-0.21069619;-0.08858817;0.08;0.0;0.0;29.80392075;26.27450943;866.0;49;4.9;-0.00936667731776062;-0.023175799479791037;-0.024324040764218513;9.803151514938229;0.05452922775832678;-0.5920833115153331;1.485996024725599;2;0;0;0;0;0;0;0;0;0;0;0;0;0;0;0;0;0
50;2022-05-01 11:12:34.261;5.173767976203465;52.36975031192749;2;0.0;-0.01;9.72793865;-0.06943397;-0.05985687;0.04;0.0;0.0;29.80392075;26.27450943;866.0;50;5.0;-0.008508515474630734;-0.021968651204826172;-0.02576025017063195;9.796260617706178;0.04317189338460527;-0.5433214711616339;1.5330883482714501;2;0;0;0;0;0;0;0;0;0;0;0;0;0;0;0;0;0
51;2022-05-01 11:12:34.361;5.173767976203465;52.36975031192749;2;-0.02;0.0;9.62019634;-0.05985687;-0.20111908;0.07;0.0;0.0;29.80392075;25.88235283;866.0;51;5.1000000000000005;-0.009560602711713558;-0.01995734122155148;-0.029810560299359166;9.780141292211551;0.03373923507400407;-0.5119915966405862;1.575835809536737;2;0;0;0;0;0;0;0;0;0;0;0;0;0;0;0;0;0
52;2022-05-01 11:12:34.466;5.173767976203465;52.36975031192749;2;-0.02;-0.03;9.93863487;0.17717634;-0.2466103;0.07;0.0;0.0;29.80392075;25.88235283;866.0;52;5.2;-0.010515751892146126;-0.02087619094406966;-0.03348767970884685;9.794642609361185;0.046862965250209825;-0.4877106232291419;1.6146445709720756;2;0;0;0;0;0;0;0;0;0;0;0;0;0;0;0;0;0
53;2022-05-01 11:12:34.567;5.173767976203465;52.36975031192749;2;0.0;-0.02;9.89314365;0.04309694;-0.37111259;0.05;0.0;0.0;29.41176414;25.88235283;866.0;53;5.300000000000001;-0.009554179746475417;-0.02079607106155935;-0.03499758479363919;9.80364965497897;0.04651859567800653;-0.47704876831443366;1.6498819035505465;2;0;0;0;0;0;0;0;0;0;0;0;0;0;0;0;0;0
54;2022-05-01 11:12:34.662;5.173767976203465;52.36975031192749;2;0.0;-0.04;9.88835526;0.0574626;-0.31604427;0.08;0.0;0.0;29.41176414;25.88235283;866.0;54;5.4;-0.008680999394733402;-0.022551166095382873;-0.03911046792770693;9.811391111801997;0.047518795569249914;-0.46233416505169866;1.6818800709203576;2;0;0;0;0;0;0;0;0;0;0;0;0;0;0;0;0;0
55;2022-05-01 11:12:34.760;5.173779255842132;52.36974805692098;2;-0.01;-0.03;9.56752205;0.02154847;-0.13886794;0.07;0.0;0.0;29.41176414;25.88235283;866.0;55;5.5;-0.008801487909705323;-0.023231604703110732;-0.04193217538766358;9.789114077972902;0.04514644945456125;-0.4327860625379969;1.7109397981750174;2;0;0;0;0;0;0;0;0;0;0;0;0;0;0;0;0;0
56;2022-05-01 11:12:34.863;5.173779255842132;52.36974805692098;2;0.0;-0.02;9.40471172;-0.01436565;-0.11253092;0.04;0.0;0.0;29.41176414;25.88235283;866.0;56;5.6000000000000005;-0.007997839606128963;-0.022936532589835367;-0.04175575186831799;9.754014978133767;0.03971250484660608;-0.4035441315539795;1.7373333742625252;2;0;0;0;0;0;0;0;0;0;0;0;0;0;0;0;0;0
57;2022-05-01 11:12:34.964;5.173779255842132;52.36974805692098;2;-0.02;-0.04;9.65132141;-0.09816527;-0.01675992;0.08;0.0;0.0;29.41176414;24.70588303;866.0;57;5.7;-0.009093298413676384;-0.024493946009448434;-0.04524637331304339;9.74464195111206;0.027128151874795767;-0.3682416395639992;1.761307430529913;2;0;0;0;0;0;0;0;0;0;0;0;0;0;0;0;0;0
58;2022-05-01 11:12:35.066;5.173779255842132;52.36974805692098;2;-0.01;-0.01;9.96257782;0.03351985;-0.12689656;0.08;0.0;0.0;29.41176414;24.70588303;866.0;58;5.800000000000001;-0.009176024695631148;-0.02317153709090178;-0.04841724933622663;9.76452613837899;0.027711322158438193;-0.3462216261422071;1.7830854323557987;2;0;0;0;0;0;0;0;0;0;0;0;0;0;0;0;0;0
59;2022-05-01 11:12:35.170;5.173779255842132;52.36974805692098;1;0.0;-0.02;9.93863487;0.33040991;-0.32562137;0.06;0.0;0.0;28.23529434;24.70588303;865.5;59;5.9;-0.008339091918945895;-0.022882265491064823;-0.04947369632675187;9.780406359829364;0.055320050123344594;-0.344342704697964;1.7116612713467998;2;0;0;0;0;0;0;0;0;0;0;0;0;0;0;0;0;0
60;2022-05-01 11:12:35.264;5.173779255842132;52.36974805692098;1;-0.01;-0.02;9.7518816;0.01436565;-0.40702671;0.07;0.0;0.0;28.23529434;24.70588303;865.5;60;6.0;-0.008490535728499022;-0.02261945668720053;-0.05134531201685566;9.77780543426074;0.05158577340846101;-0.3500583157358511;1.646771049381127;2;0;0;0;0;0;0;0;0;0;0;0;0;0;0;0;0;0
61;2022-05-01 11:12:35.365;5.173779255842132;52.36974805692098;1;-0.02;-0.02;9.61301327;0.02633702;-0.22027329;0.06;0.0;0.0;28.23529434;24.70588303;865.5;61;6.1000000000000005;-0.009539698376076692;-0.02238067614552377;-0.05213424320810478;9.762783554938002;0.04928418505046509;-0.3382275651461711;1.5878136547936554;2;0;0;0;0;0;0;0;0;0;0;0;0;0;0;0;0;0
62;2022-05-01 11:12:35.469;5.173779255842132;52.36974805692098;1;0.0;0.0;9.75427532;0.03351985;-0.25379312;0.05;0.0;0.0;28.23529434;24.70588303;865.5;62;6.2;-0.008670307829841324;-0.020341036369483395;-0.05193974116041463;9.76200816574553;0.04784751867797987;-0.3305327193037914;1.5342438652385442;2;0;0;0;0;0;0;0;0;0;0;0;0;0;0;0;0;0
63;2022-05-01 11:12:35.562;5.173779255842132;52.36974805692098;1;0.01;-0.01;9.86201763;-0.03351985;-0.18435916;0.05;0.0;0.0;28.23529434;23.13725471;865.5;63;6.300000000000001;-0.006969191171800752;-0.0193988285928438;-0.05176300459932836;9.771120375739898;0.04043385482516398;-0.31721433810927663;1.4855670492537167;2;0;0;0;0;0;0;0;0;0;0;0;0;0;0;0;0;0
64;2022-05-01 11:12:35.660;5.173779255842132;52.36974805692098;1;0.0;-0.01;10.05834866;0.20351335;-0.34716985;0.06;0.0;0.0;28.23529434;23.13725471;865.5;64;6.4;-0.006334333689994483;-0.018542643634605702;-0.05251335252763308;9.79728539557559;0.05528955831911515;-0.3199431312183123;1.441334387738469;2;0;0;0;0;0;0;0;0;0;0;0;0;0;0;0;0;0
65;2022-05-01 11:12:35.760;5.173789134395137;52.36974631784155;1;-0.03;-0.04;10.02482891;0.21548474;-0.40223816;0.03;0.0;0.0;28.23529434;23.13725471;865.5;65;6.5;-0.008489753800906302;-0.02049693542724452;-0.05046288278101996;9.818009589886172;0.06987980529306868;-0.32743839282390347;1.4011385613244765;2;0;0;0;0;0;0;0;0;0;0;0;0;0;0;0;0;0
66;2022-05-01 11:12:35.861;5.173789134395137;52.36974631784155;0;0.01;-0.01;9.74230385;0.16520496;-0.50998056;0.07;0.0;0.0;28.23529434;23.13725471;859.75;66;6.6000000000000005;-0.006806029426931047;-0.019541057581535744;-0.05224198275244282;9.811115631163482;0.07856035821774608;-0.34406115045832875;1.2735472925373816;2;0;0;0;0;0;0;0;0;0;0;0;0;0;0;0;0;0
67;2022-05-01 11:12:35.963;5.173789134395137;52.36974631784155;0;-0.03;-0.03;9.54118538;0.01675992;-0.51237482;0.05;0.0;0.0;27.45098114;23.13725471;859.75;67;6.7;-0.00891780773856236;-0.020493329539126276;-0.05203785338456488;9.786538862461269;0.07293351547142116;-0.35938587270756245;1.157592607558174;2;0;0;0;0;0;0;0;0;0;0;0;0;0;0;0;0;0
68;2022-05-01 11:12:36.064;5.173789134395137;52.36974631784155;0;-0.01;0.0;9.5387907;0.2370332;-0.35914123;0.03;0.0;0.0;27.45098114;23.13725471;859.75;68;6.800000000000001;-0.00901632607462155;-0.018627701038119174;-0.05003161778010815;9.763984887906894;0.08787247636005004;-0.35936360144085977;1.0522101338565515;2;0;0;0;0;0;0;0;0;0;0;0;0;0;0;0;0;0
69;2022-05-01 11:12:36.162;5.173789134395137;52.36974631784155;0;0.02;0.0;9.89314365;-0.16041641;-0.31365001;0.04;0.0;0.0;27.45098114;23.13725471;859.75;69;6.9;-0.006375133897196365;-0.016932126686674095;-0.049118496307058716;9.77574148008224;0.06527214223403757;-0.3552025515613848;0.9564333919147074;2;0;0;0;0;0;0;0;0;0;0;0;0;0;0;0;0;0
70;2022-05-01 11:12:36.263;5.173789134395137;52.36974631784155;0;-0.03;-0.03;9.98891449;0.22266756;-0.08379962;0.05;0.0;0.0;27.45098114;23.52941132;859.75;70;7.0;-0.008525324117317294;-0.01812148425906508;-0.04919872535941884;9.795143178238934;0.07959730651219861;-0.330501123556839;0.8693846985361644;2;0;0;0;0;0;0;0;0;0;0;0;0;0;0;0;0;0
71;2022-05-01 11:12:36.362;5.173789134395137;52.36974631784155;0;0.0;0.0;10.18524456;0.12210801;-0.51955765;0.04;0.0;0.0;27.45098114;23.52941132;859.75;71;7.1000000000000005;-0.007749482757612011;-0.016472350830944452;-0.048361601574774656;9.83064409084748;0.08346596435348927;-0.3477060849774701;0.7902669315941241;2;0;0;0;0;0;0;0;0;0;0;0;0;0;0;0;0;0
72;2022-05-01 11:12:36.460;5.173789134395137;52.36974631784155;0;0.01;-0.04;9.98173141;0.36153549;-0.93616146;0.03;0.0;0.0;27.05882263;23.52941132;856.75;72;7.2;-0.006134356888442971;-0.018613264756865953;-0.04669077555084023;9.844392380924383;0.10876908391096685;-0.40125296924613185;0.7183560718695429;2;0;0;0;0;0;0;0;0;0;0;0;0;0;0;0;0;0
73;2022-05-01 11:12:36.561;5.173789134395137;52.36974631784155;0;-0.03;-0.01;9.57231045;0.14844504;-1.24981141;-0.03;0.0;0.0;27.05882263;23.52941132;856.75;73;7.300000000000001;-0.008305838816019553;-0.017829562902717744;-0.03971285200015085;9.819636249565981;0.11237911114567968;-0.4784614194846796;0.6529944463588425;2;0;0;0;0;0;0;0;0;0;0;0;0;0;0;0;0;0
74;2022-05-01 11:12:36.663;5.173789134395137;52.36974631784155;0;0.01;0.0;9.45020294;0.00478855;-1.15404046;0.0;0.0;0.0;27.05882263;23.52941132;856.75;74;7.4;-0.006640362206260886;-0.016207418172004218;-0.036099752006329276;9.786024977111783;0.10259045492403038;-0.5399260210978455;0.5935846051795766;2;0;0;0;0;0;0;0;0;0;0;0;0;0;0;0;0;0
75;2022-05-01 11:12:36.760;5.173789134395137;52.36974631784155;0;-0.01;-0.05;9.41907692;-0.22027329;-0.97925842;0.0;0.0;0.0;27.05882263;23.52941132;856.75;75;7.5;-0.0069460022810042465;-0.0192816683947298;-0.03281560901865575;9.752642202393751;0.0732182114892178;-0.5798938972444553;0.5395837710921381;2;0;0;0;0;0;0;0;0;0;0;0;0;0;0;0;0;0
76;2022-05-01 11:12:36.861;5.173789134395137;52.36974631784155;0;-0.05;-0.04;9.66568756;0.05985687;-0.95292139;-0.03;0.0;0.0;27.05882263;23.52941132;849.75;76;7.6000000000000005;-0.010862546947886235;-0.02116637772381289;-0.027101386146608394;9.744732095110551;0.07200275430697113;-0.6138275367379951;0.4904988067921892;2;0;0;0;0;0;0;0;0;0;0;0;0;0;0;0;0;0
77;2022-05-01 11:12:36.962;5.173789134395137;52.36974631784155;0;0.01;-0.01;10.06313705;0.13168511;-0.93137288;0.0;0.0;0.0;27.84313774;23.52941132;849.75;77;7.7;-0.008964830780607533;-0.020150652482338122;-0.024636167552994026;9.773695108693923;0.07743162986961734;-0.642712357620971;0.445881650602889;2;0;0;0;0;0;0;0;0;0;0;0;0;0;0;0;0;0
78;2022-05-01 11:12:37.064;5.173789134395137;52.36974631784155;0;-0.04;-0.03;10.18285084;0.07901107;-0.81405342;-0.01;0.0;0.0;27.84313774;23.52941132;849.75;78;7.800000000000001;-0.01178772570764782;-0.021046528800772735;-0.021485733250983855;9.810911069403158;0.07757529248347655;-0.6582971869597208;0.40532517608685015;2;0;0;0;0;0;0;0;0;0;0;0;0;0;0;0;0;0
79;2022-05-01 11:12:37.162;5.173789134395137;52.36974631784155;0;-0.01;-0.02;10.10862827;0.30167863;-1.03672099;-0.02;0.0;0.0;27.84313774;23.52941132;849.75;79;7.9;-0.011625125809801398;-0.020951343350694446;-0.017712460897268398;9.837989488758588;0.09795827384988177;-0.6927161537250216;0.3684594354733083;2;0;0;0;0;0;0;0;0;0;0;0;0;0;0;0;0;0
80;2022-05-01 11:12:37.262;5.173789134395137;52.36974631784155;0;0.02;0.0;9.84765244;0.25858167;-1.1444633;0.0;1.1764698100000004;0.7843132000000015;27.84313774;23.52941132;849.75;80;8.0;-0.008748837860658141;-0.019045830096442395;-0.016101522236189783;9.838868328905376;0.11256688415156359;-0.73380231036848;0.33494825071553735;2;0;0;0;0;0;0;0;0;0;0;0;0;0;0;0;0;0
81;2022-05-01 11:12:37.361;5.173789134395137;52.36974631784155;0;-0.04;-0.06;9.44301987;-0.30167863;-0.89067024;0.0;1.1764698100000004;0.7843132000000015;27.84313774;23.52941132;849.75;81;8.1;-0.01159099929728998;-0.022770439179783546;-0.014637156675423714;9.802867580528897;0.0748930011653964;-0.7480687871879681;0.30448611950882115;2;0;0;0;0;0;0;0;0;0;0;0;0;0;0;0;0;0
82;2022-05-01 11:12:37.464;5.173789134395137;52.36974631784155;1;0.01;0.0;9.55076218;-0.05985687;-0.86193895;-0.02;1.1764698100000004;0.7843132000000015;27.84313774;23.52941132;864.5;82;8.200000000000001;-0.009627460990310577;-0.020699639723925956;-0.011487168893914297;9.77994049852964;0.06263851816298135;-0.7584244184222978;0.3677378536493404;2;0;0;0;0;0;0;0;0;0;0;0;0;0;0;0;0;0
83;2022-05-01 11:12:37.562;5.173789134395137;52.36974631784155;1;0.03;-0.04;9.79497814;-0.26815879;-0.70870537;0.0;1.1764698100000004;0.7843132000000015;33.72549057;23.52941132;864.5;83;8.3;-0.006023762928558007;-0.02245480316816027;-0.0104425324916945;9.781308012825681;0.032556004964586285;-0.7539029973179926;0.4252354024294782;2;0;0;0;0;0;0;0;0;0;0;0;0;0;0;0;0;0
84;2022-05-01 11:12:37.663;5.173789134395137;52.36974631784155;1;-0.05;-0.04;9.59864807;0.14605077;-1.52036452;-0.02;1.1764698100000004;0.7843132000000015;33.72549057;23.52941132;864.5;84;8.4;-0.01002281487496236;-0.02405030469837147;-0.007674190384191924;9.764697528424742;0.04287683937986913;-0.8236024452072255;0.47750257296761767;2;0;0;0;0;0;0;0;0;0;0;0;0;0;0;0;0;0
85;2022-05-01 11:12:37.760;5.173789134395137;52.36974631784155;1;0.02;-0.02;9.42865467;-0.56983739;-1.45093048;0.0;6.666666030000002;3.1372547200000014;33.72549057;23.52941132;864.5;85;8.5;-0.007292715739682997;-0.02368199368554024;-0.006976344408752626;9.734139756909212;-0.012839807935514837;-0.8806479864883178;0.525015432093842;2;0;0;0;0;0;0;0;0;0;0;0;0;0;0;0;0;0
86;2022-05-01 11:12:37.862;5.173789134395137;52.36974631784155;1;0.0;-0.07;9.46696281;-0.4166038;-1.47966182;-0.08;6.666666030000002;3.1372547200000014;33.72549057;38.82352829;864.5;86;8.6;-0.0066295754539252745;-0.02789377665357267;0.0009325773076845849;9.709844857279824;-0.049554823114203304;-0.9351174350321922;0.5682066674765459;2;0;0;0;0;0;0;0;0;0;0;0;0;0;0;0;0;0
87;2022-05-01 11:12:37.963;5.173789134395137;52.36974631784155;1;0.05;-0.06;9.61780167;-0.42857519;-1.40783358;-0.04;6.666666030000002;3.1372547200000014;33.72549057;38.82352829;864.5;87;8.700000000000001;-0.0014802595137754157;-0.030813189104232502;0.004484970218943254;9.701475388717805;-0.08401906907053068;-0.9781014193007905;0.6074695486157923;2;0;0;0;0;0;0;0;0;0;0;0;0;0;0;0;0;0
88;2022-05-01 11:12:38.060;5.173789134395137;52.36974631784155;3;-0.05;-0.07;9.78300667;-0.08619389;-1.64726102;-0.1;6.666666030000002;3.1372547200000014;33.72549057;38.82352829;1381.25;88;8.8;-0.005892058424559231;-0.034376364172658984;0.01316995286989517;9.708888858253113;-0.08421682100637434;-1.038946707588008;0.8250173576860153;2;0;0;0;0;0;0;0;0;0;0;0;0;0;0;0;0;0
89;2022-05-01 11:12:38.161;5.173789134395137;52.36974631784155;3;0.0;-0.03;10.07032013;-0.38787252;-1.15882897;-0.08;6.666666030000002;3.1372547200000014;32.15686417;38.82352829;1381.25;89;8.9;-0.005356315913869844;-0.033978437987850864;0.019246555418460504;9.741752432069733;-0.11182708126548842;-1.0498471467255457;1.0227802747409833;2;0;0;0;0;0;0;0;0;0;0;0;0;0;0;0;0;0
90;2022-05-01 11:12:38.261;5.173789134395137;52.36974631784155;3;0.0;-0.09;9.74469852;-0.55786604;-1.60895264;-0.01;6.666666030000002;3.1372547200000014;32.15686417;38.82352829;1381.25;90;9.0;-0.00486929477119938;-0.03907217883212999;0.018405815615566604;9.742020304079764;-0.15238301688458084;-1.1006836172747834;1.20255828361696;2;0;0;0;0;0;0;0;0;0;0;0;0;0;0;0;0;0
91;2022-05-01 11:12:38.361;5.173789134395137;52.36974631784155;3;0.04;-0.08;9.83328629;-0.70870537;-1.78134048;-0.05;6.666666030000002;3.1372547200000014;32.15686417;38.82352829;1381.25;91;9.1;-0.0007896333781773781;-0.04279346869796143;0.02127846103900048;9.750318502684257;-0.2029656444398715;-1.162571140555803;1.3659874976023323;2;0;0;0;0;0;0;0;0;0;0;0;0;0;0;0;0;0
92;2022-05-01 11:12:38.461;5.173789134395137;52.36974631784155;3;-0.04;-0.09;9.56752205;-0.69912827;-1.80288899;-0.06;8.23529435;3.9215688699999998;32.15686417;38.82352829;1381.25;92;9.200000000000001;-0.004354716300538914;-0.04708557849106798;0.024799098798112547;9.733698293084629;-0.24807771697310846;-1.220790086885835;1.5145550976813644;2;0;0;0;0;0;0;0;0;0;0;0;0;0;0;0;0;0
93;2022-05-01 11:12:38.563;5.173789134395137;52.36974631784155;3;0.05;-0.04;9.39274025;-0.45970076;-1.67120385;-0.06;8.23529435;3.9215688699999998;32.15686417;41.17647171;1643.75;93;9.3;0.0005872568583088637;-0.04644135217362844;0.0279995921636764;9.702698122135327;-0.26731864894026175;-1.2617420571873292;1.6496129056481252;2;0;0;0;0;0;0;0;0;0;0;0;0;0;0;0;0;0
94;2022-05-01 11:12:38.663;5.173789134395137;52.36974631784155;5;-0.1;-0.04;9.01923275;0.58180881;-2.40624619;-0.19;8.23529435;3.9215688699999998;32.54901886;41.17647171;1643.75;94;9.4;-0.008558108018494232;-0.045855706260142584;0.04272862331660926;9.64055764426503;-0.19011622110330195;-1.3658000484726973;1.954229150422962;2;0;0;0;0;0;0;0;0;0;0;0;0;0;0;0;0;0
95;2022-05-01 11:12:38.761;5.173812913462242;52.36973870509475;5;-0.03;-0.09;10.9801445;-0.85954463;-2.2003386;-0.12;8.23529435;3.9215688699999998;32.54901886;41.17647171;1643.75;95;9.5;-0.010507578044353628;-0.0498692502856797;0.04975404032883424;9.762351207283771;-0.2509798155439645;-1.4416752507650066;2.2311468301691395;2;0;0;0;0;0;0;0;0;0;0;0;0;0;0;0;0;0
96;2022-05-01 11:12:38.861;5.173812913462242;52.36973870509475;5;0.09;-0.17;10.14693642;-2.19794416;-1.73106074;-0.05;8.23529435;3.9215688699999998;32.54901886;41.17647171;1643.75;96;9.600000000000001;-0.0013696429076954064;-0.06079128243656041;0.04977640245878582;9.797316876506923;-0.42799367100841856;-1.467985563694371;2.4828850688289092;2;0;0;0;0;0;0;0;0;0;0;0;0;0;0;0;0;0
97;2022-05-01 11:12:38.961;5.173812913462242;52.36973870509475;5;-0.01;-0.25;8.83487415;-1.88429427;-1.71908927;-0.1;8.23529435;3.9215688699999998;32.54901886;41.17647171;1643.75;97;9.700000000000001;-0.002154289720711479;-0.07799358538221603;0.054342584984889426;9.709814400075498;-0.5603962600983918;-1.4908151779017504;2.7117337928868803;2;0;0;0;0;0;0;0;0;0;0;0;0;0;0;0;0;0
98;2022-05-01 11:12:39.062;5.173812913462242;52.36973870509475;5;-0.04;-0.12;9.32091141;-0.50279772;-2.18597293;-0.01;8.23529435;3.9215688699999998;32.54901886;41.17647171;1643.75;98;9.8;-0.005595083489039811;-0.08181265519435761;0.05031111909452471;9.674456760468235;-0.5551596111790607;-1.5540163820480968;2.919774599826629;2;0;0;0;0;0;0;0;0;0;0;0;0;0;0;0;0;0
99;2022-05-01 11:12:39.163;5.173812913462242;52.36973870509475;5;0.02;-0.07;10.55875206;-0.00478855;-0.81644773;-0.13;8.23529435;4.313725470000001;32.54901886;40.39215851;1643.75;99;9.9;-0.0032680888572775655;-0.08073869951705344;0.057556088549599475;9.754853076260062;-0.5051222473474722;-1.4869598203999586;3.108899723842409;2;0;0;0;0;0;0;0;0;0;0;0;0;0;0;0;0;0
100;2022-05-01 11:12:39.260;5.173812913462242;52.36973870509475;9;0.0;-0.03;10.55635738;0.16281068;-3.11734581;-0.14;8.23529435;4.313725470000001;32.54901886;40.39215851;1718.25;100;10.0;-0.002970970269685954;-0.07612578616153946;0.0650514840530365;9.827721910944742;-0.44439706616475133;-1.6351865068868905;3.64448962664285;2;0;0;0;0;0;0;0;0;0;0;0;0;0;0;0;0;0
101;2022-05-01 11:12:39.362;5.173812913462242;52.36973870509475;9;-0.09;-0.15000001;9.29457474;-0.84039044;-1.97288239;-0.12;8.23529435;4.313725470000001;31.76470566;40.39215851;1718.25;101;10.100000000000001;-0.010883174753253934;-0.08284202747648975;0.07004710328018655;9.779251079436882;-0.4803986228594724;-1.665887973842569;4.131383405870077;2;0;0;0;0;0;0;0;0;0;0;0;0;0;0;0;0;0
102;2022-05-01 11:12:39.470;5.173812913462242;52.36973870509475;9;0.03;-0.06;9.96736622;-0.21548474;-1.36713088;-0.19;8.23529435;4.313725470000001;31.76470566;40.39215851;1718.25;102;10.200000000000001;-0.007166319861157861;-0.08076536630514503;0.08095250663217668;9.796353388264397;-0.45631422952570794;-1.6387267572174151;4.574009046242872;2;0;0;0;0;0;0;0;0;0;0;0;0;0;0;0;0;0
103;2022-05-01 11:12:39.562;5.173812913462242;52.36973870509475;9;-0.01;-0.02;9.45499134;0.5913859;-2.34638929;-0.03;8.23529435;4.313725470000001;31.76470566;40.39215851;1718.25;103;10.3;-0.007423939915022711;-0.07524096828785669;0.07632023098355882;9.765318936614102;-0.36106404228583455;-1.703062903458705;4.976391803662401;2;0;0;0;0;0;0;0;0;0;0;0;0;0;0;0;0;0
104;2022-05-01 11:12:39.661;5.173812913462242;52.36973870509475;9;-0.01;0.06;8.90909672;0.6751855;-1.22347438;-0.09;8.23529435;4.313725470000001;31.76470566;40.39215851;1718.25;104;10.4;-0.007658137747867541;-0.06294578081549937;0.0775639023855388;9.687477045916749;-0.2668552936215232;-1.6594619822277583;5.3421908489930034;2;0;0;0;0;0;0;0;0;0;0;0;0;0;0;0;0;0
105;2022-05-01 11:12:39.762;5.173812913462242;52.36973870509475;9;-0.01;0.12;9.74948692;1.52275872;-1.66402102;-0.08;8.23529435;4.313725470000001;31.76470566;38.82352829;1718.25;105;10.5;-0.007871043037153611;-0.04631366492024434;0.07778537487687072;9.693114538116927;-0.1041564461835289;-1.6598764571845503;5.6747325750228965;2;0;0;0;0;0;0;0;0;0;0;0;0;0;0;0;0;0
106;2022-05-01 11:12:39.861;5.173825493390236;52.36973200895494;9;0.12;-0.1;9.34964275;-1.11094356;-1.32642829;-0.23999999;8.23529435;4.313725470000001;31.76470566;38.82352829;1718.25;106;10.600000000000001;0.0037540301297781407;-0.051194422584708195;0.09253270722641709;9.66188866732712;-0.19568595578673023;-1.62956185859499;5.9770408709186436;2;0;0;0;0;0;0;0;0;0;0;0;0;0;0;0;0;0
107;2022-05-01 11:12:39.959;5.173825493390236;52.36973200895494;11;0.03;-0.14;9.55794525;-0.86912173;-1.76697481;0.0;8.23529435;4.313725470000001;29.80392075;38.82352829;1858.0;107;10.700000000000001;0.00614010816527575;-0.05926793020313781;0.08412035815454724;9.65243894585578;-0.2569094623713252;-1.6420543679883044;6.433688977670505;2;0;0;0;0;0;0;0;0;0;0;0;0;0;0;0;0;0
108;2022-05-01 11:12:40.061;5.173825493390236;52.36973200895494;11;-0.09;-0.14;8.08067703;-0.84278476;-0.52674043;-0.13;8.23529435;4.313725470000001;29.80392075;38.82352829;1858.0;108;10.8;-0.00260017064955096;-0.06660743514845766;0.08829136304840779;9.50954710147082;-0.3101724922317776;-1.5406590713726407;6.848820937182812;2;0;0;0;0;0;0;0;0;0;0;0;0;0;0;0;0;0
109;2022-05-01 11:12:40.164;5.173825493390236;52.36973200895494;11;-0.08;0.09;9.40710545;1.24981141;-1.08221221;-0.02;8.23529435;4.313725470000001;29.80392075;38.82352829;1858.0;109;10.9;-0.00963671563532;-0.052369997265506604;0.08208288362070969;9.500233963508629;-0.16835180609785208;-1.4989809179360596;7.226211410322483;2;0;0;0;0;0;0;0;0;0;0;0;0;0;0;0;0;0
110;2022-05-01 11:12:40.264;5.173825493390236;52.36973200895494;11;0.06;0.11;9.68963051;0.72067672;-1.32403398;-0.13;8.23529435;4.313725470000001;29.80392075;38.82352829;1858.0;110;11.0;-0.0033059441071834044;-0.03760871298703443;0.08643909590494553;9.517452269299127;-0.08752897536304266;-1.4830762463340788;7.569291826145822;2;0;0;0;0;0;0;0;0;0;0;0;0;0;0;0;0;0
111;2022-05-01 11:12:40.361;5.173825493390236;52.36973200895494;11;0.09;0.03;9.92905807;0.62251145;-1.18995464;-0.05;8.23529435;4.313725470000001;29.80392075;43.52941132;1858.0;111;11.100000000000001;0.0051766105788741;-0.03146232423705624;0.08312637422700907;9.55487184365693;-0.022978353266182618;-1.4564282114292757;7.881181598818753;2;0;0;0;0;0;0;0;0;0;0;0;0;0;0;0;0;0
112;2022-05-01 11:12:40.464;5.173825493390236;52.36973200895494;11;-0.1;0.04;10.29538155;1.37191951;-1.20671451;-0.06;8.23529435;4.313725470000001;29.80392075;43.52941132;2090.0;112;11.200000000000001;-0.004385100458077821;-0.024965612747468217;0.0810239323773048;9.622192322926422;0.10383320893576493;-1.433726488661324;8.164716504200209;2;0;0;0;0;0;0;0;0;0;0;0;0;0;0;0;0;0
113;2022-05-01 11:12:40.562;5.173825493390236;52.36973200895494;13;-0.03;0.17;9.5866766;2.07583618;-1.79091752;-0.09;8.23529435;4.313725470000001;27.05882263;43.52941132;2090.0;113;11.3;-0.0067137721873328695;-0.007241127440045166;0.0818399541180359;9.618963559144333;0.28310963206631784;-1.4661990211130131;8.604296130939497;2;0;0;0;0;0;0;0;0;0;0;0;0;0;0;0;0;0
114;2022-05-01 11:12:40.664;5.173825493390236;52.36973200895494;13;0.11;0.08;9.02162743;1.83880305;-1.36952519;0.03;8.23529435;4.313725470000001;27.05882263;43.52941132;2090.0;114;11.4;0.0038967550612117405;0.000690021922607488;0.07167250893649639;9.564659331322332;0.4245387632820625;-1.4574103383378614;9.003912515579504;2;0;0;0;0;0;0;0;0;0;0;0;0;0;0;0;0;0
115;2022-05-01 11:12:40.764;5.173861713223083;52.36970429884675;13;-0.20999999;0.25;11.04718399;1.43656492;-1.20671451;-0.09;8.23529435;4.313725470000001;27.05882263;43.52941132;2090.0;115;11.5;-0.015548710671562651;0.023354923317695626;0.073338670800442;9.699436428748756;0.5165425941281013;-1.4346194485657973;9.367198933150888;2;0;0;0;0;0;0;0;0;0;0;0;0;0;0;0;0;0
116;2022-05-01 11:12:40.860;5.173861713223083;52.36970429884675;13;-0.09;-0.1;9.34724903;1.41741073;-0.53631759;0.0;8.62745095;4.313725470000001;27.05882263;43.52941132;2090.0;116;11.600000000000001;-0.022317106873525325;0.01214067837972402;0.06667142318955202;9.667418932832003;0.5984408731814849;-1.352954470798778;9.697458317039835;2;0;0;0;0;0;0;0;0;0;0;0;0;0;0;0;0;0
117;2022-05-01 11:12:40.960;5.173861713223083;52.36970429884675;13;0.0;0.02;8.63854313;2.281744;-2.85397553;-0.04;8.62745095;4.313725470000001;27.05882263;38.82352829;1917.25;117;11.700000000000001;-0.020288252496173144;0.012855171488650764;0.0642467167078831;9.573883548153455;0.7514704274427394;-1.4894127117220624;9.997693297668548;2;0;0;0;0;0;0;0;0;0;0;0;0;0;0;0;0;0
118;2022-05-01 11:12:41.066;5.173861713223083;52.36970429884675;15;-0.09;0.1;9.75667;1.12291491;-1.31685114;-0.01;8.62745095;4.313725470000001;27.05882263;38.82352829;1917.25;118;11.8;-0.026625759282419722;0.02077752262533189;0.05931513849362398;9.590500695485012;0.7852385083360102;-1.4737251099764037;10.452453848193723;2;0;0;0;0;0;0;0;0;0;0;0;0;0;0;0;0;0
119;2022-05-01 11:12:41.166;5.173861713223083;52.36970429884675;15;-0.03;0.08;9.96975994;1.39586222;-0.967287;-0.07;8.62745095;4.313725470000001;27.05882263;38.82352829;1917.25;119;11.9;-0.026932511747327765;0.02616144227812654;0.0602865000171825;9.62497918052255;0.8407503536256229;-1.4276847851859311;10.865871594023673;2;0;0;0;0;0;0;0;0;0;0;0;0;0;0;0;0;0
120;2022-05-01 11:12:41.265;5.173861713223083;52.36970429884675;15;0.02;0.16;10.89395046;2.38709188;-0.84757328;0.03;8.62745095;4.313725470000001;27.05882263;38.82352829;1917.25;120;12.0;-0.022665877932341198;0.03832870319950033;0.052078555893415666;9.740341337153204;0.9813282345084317;-1.3749468584835536;11.241705134478483;2;0;0;0;0;0;0;0;0;0;0;0;0;0;0;0;0;0
121;2022-05-01 11:12:41.362;5.173861713223083;52.36970429884675;15;-0.04;0.11;8.61699486;2.40624619;-1.74782062;-0.06;8.23529435;4.313725470000001;27.05882263;42.74509811;1917.25;121;12.100000000000001;-0.024241721258926506;0.044844333718885306;0.05279869359543228;9.638218019770562;1.1108673852267954;-1.4088447753466609;11.583371349822714;2;0;0;0;0;0;0;0;0;0;0;0;0;0;0;0;0;0
122;2022-05-01 11:12:41.462;5.173861713223083;52.36970429884675;16;0.31;0.04;6.42623377;1.25220573;-2.90186095;0.02;8.23529435;4.313725470000001;27.05882263;42.74509811;1700.5;122;12.200000000000001;0.006144136011765832;0.044403936175457084;0.04618057690804823;9.34621708523243;1.1237164297894504;-1.5445746184523557;11.984886299172725;2;0;0;0;0;0;0;0;0;0;0;0;0;0;0;0;0;0
123;2022-05-01 11:12:41.564;5.173861713223083;52.36970429884675;16;-0.15000001;0.2;8.86121082;1.29290843;-1.17319465;-0.13;8.23529435;4.313725470000001;33.33333206;42.74509811;1700.5;123;12.3;-0.008050890931645618;0.05854913709840251;0.05380058060054531;9.302125281738377;1.1390976340352852;-1.5108125544040034;12.349899324763893;2;0;0;0;0;0;0;0;0;0;0;0;0;0;0;0;0;0
124;2022-05-01 11:12:41.666;5.173861713223083;52.36970429884675;16;-0.18000001;0.04;9.38555717;1.33121681;-0.81884199;0.03;8.23529435;4.313725470000001;33.33333206;42.74509811;1700.5;124;12.4;-0.023682733723429498;0.056862840613625475;0.046182294976835916;9.309710049652244;1.1565631306440445;-1.4479057181380648;12.681728881313077;2;0;0;0;0;0;0;0;0;0;0;0;0;0;0;0;0;0
125;2022-05-01 11:12:41.761;5.173861713223083;52.36970429884675;16;0.0;0.07;9.87398911;1.09178936;-0.70631105;0.01;8.23529435;4.313725470000001;33.33333206;42.74509811;1700.5;125;12.5;-0.021529744821574645;0.05805713510222081;0.04107478251740236;9.361008458386026;1.1506745701866024;-1.3804876105487194;12.983391728825087;2;1;0;0;0;0;0;0;0;0;0;0;0;0;0;0;0;0
126;2022-05-01 11:12:41.864;5.173912480519146;52.36967704237662;16;-0.15000001;0.13;10.64255142;2.65285659;0.27773589;-0.15000001;8.23529435;4.313725470000001;33.33333206;43.92156982;1700.5;126;12.600000000000001;-0.03320892448374547;0.0645974317489623;0.05097713073584228;9.477513008856851;1.2872373278824556;-1.2297391851753852;13.257630362336982;2;1;0;0;0;0;0;0;0;0;0;0;0;0;0;0;0;0
127;2022-05-01 11:12:41.965;5.173912480519146;52.36967704237662;16;0.19;0.30000001;11.38717079;0.65363705;-2.07104778;0.01;8.23529435;4.313725470000001;33.33333206;43.92156982;1700.5;127;12.700000000000001;-0.012917101968700011;0.08599777382086726;0.04543372732027436;9.65111913526536;1.22963701277852;-1.3062221695634335;13.506937947536874;2;1;0;0;0;0;0;0;0;0;0;0;0;0;0;0;0;0
128;2022-05-01 11:12:42.064;5.173912480519146;52.36967704237662;16;-0.1;0.04;11.45660496;2.23385835;-0.35914123;0.03;8.23529435;4.313725470000001;33.33333206;43.92156982;1700.5;128;12.8;-0.020833765277229417;0.08181613889008202;0.03857608437541756;9.81525496108054;1.3209302792378672;-1.2201235084720847;13.733580989084803;2;1;0;0;0;0;0;0;0;0;0;0;0;0;0;0;0;0
129;2022-05-01 11:12:42.173;5.173912480519146;52.36967704237662;16;-0.13;0.16;10.8197279;1.46050763;-2.49004579;-0.16;8.23529435;4.313725470000001;33.33333206;43.92156982;1700.5;129;12.9;-0.03075800970516704;0.08892379218549157;0.04961466806492422;9.906571062550936;1.3336191820756826;-1.3355714687170526;13.939619937827215;2;1;0;0;0;0;0;0;0;0;0;0;0;0;0;0;0;0
130;2022-05-01 11:12:42.261;5.173912480519146;52.36967704237662;19;-0.09;0.1;10.70480251;1.30009127;0.0095771;-0.09;8.23529435;4.313725470000001;33.33333206;43.92156982;1808.75;130;13.0;-0.03614366554740943;0.08993072397541323;0.053286075757248315;9.979137832117937;1.330571178545586;-1.2132847728828844;14.399656228137077;2;1;0;0;0;0;0;0;0;0;0;0;0;0;0;0;0;0
131;2022-05-01 11:12:42.367;5.173912480519146;52.36967704237662;19;-0.08;0.07;10.34566116;0.67997402;-1.30009127;0.02;8.23529435;4.313725470000001;30.98039246;43.92156982;1808.75;131;13.100000000000001;-0.04013061874581675;0.08811883375038204;0.04662368233595264;10.012458249171258;1.2714257790379713;-1.2211762997431093;14.81787073566345;2;1;0;0;0;0;0;0;0;0;0;0;0;0;0;0;0;0
132;2022-05-01 11:12:42.463;5.173912480519146;52.36967704237662;19;-0.03;0.12;9.05275345;1.04390383;-1.24741721;-0.01;8.23529435;4.313725470000001;30.98039246;43.92156982;1808.75;132;13.200000000000001;-0.039209650527773476;0.09101713064682543;0.043294246266408216;9.925212085741675;1.2507419008634264;-1.2235618444926935;15.19806549304617;2;1;0;0;0;0;0;0;0;0;0;0;0;0;0;0;0;0
133;2022-05-01 11:12:42.564;5.173912480519146;52.36967704237662;19;0.07;0.01;10.68804264;0.34956414;-1.21868587;-0.07;8.23529435;4.313725470000001;30.98039246;43.92156982;1808.75;133;13.3;-0.029281472279752103;0.0836519160314709;0.04572204895631274;9.994560514924567;1.1688164171743314;-1.2231185728251959;15.5436968845022;2;1;0;0;0;0;0;0;0;0;0;0;0;0;0;0;0;0
134;2022-05-01 11:12:42.662;5.173912480519146;52.36967704237662;19;-0.04;0.02;9.02641582;1.27135992;-1.620924;0.0;8.62745095;4.313725470000001;30.98039246;43.92156982;1808.75;134;13.4;-0.030255886406802136;0.0778653632684732;0.04156548831818117;9.906547133573604;1.1781385778663986;-1.2592827959511066;15.857907069987473;2;1;0;0;0;0;0;0;0;0;0;0;0;0;0;0;0;0
135;2022-05-01 11:12:42.760;5.173912480519146;52.36967704237662;19;0.03;0.18000001;9.15570641;1.18037748;-1.30248547;-0.07;8.62745095;4.313725470000001;30.98039246;48.62745285;1808.75;135;13.5;-0.024778065692773434;0.08715035294912958;0.044150449993666116;9.83828872574337;1.17834211490179;-1.2632103209933694;16.143552552342918;2;1;0;0;0;0;0;0;0;0;0;0;0;0;0;0;0;0
136;2022-05-01 11:12:42.860;5.173983903199189;52.36965346452309;21;-0.1;0.05;10.15411949;1.36952519;-1.1420691;-0.04;8.62745095;4.313725470000001;30.98039246;48.62745285;1857.75;136;13.600000000000001;-0.0316164379504125;0.0837730409282604;0.04377313555267496;9.867000674675452;1.1957224315464277;-1.2521974592193803;16.58504871702676;2;1;0;0;0;0;0;0;0;0;0;0;0;0;0;0;0;0
137;2022-05-01 11:12:42.965;5.173983903199189;52.36965346452309;21;0.01;0.13;10.70001411;-0.45251793;-1.16840613;-0.04;8.62745095;4.313725470000001;33.72549057;48.62745285;1857.75;137;13.700000000000001;-0.0278331180696949;0.08797549990587931;0.043430122564247484;9.94272931571204;1.0458821079831766;-1.2445800508759473;16.98640870322199;2;1;0;0;0;0;0;0;0;0;0;0;0;0;0;0;0;0
138;2022-05-01 11:12:43.065;5.173983903199189;52.36965346452309;21;-0.16;0.01;9.77582359;1.10615492;-0.84039044;-0.1;8.62745095;4.313725470000001;33.72549057;48.62745285;1857.75;138;13.8;-0.0398483103450747;0.08088680559415268;0.04857284776482881;9.927556041159422;1.0513614641939242;-1.2078354759910956;17.351281282806703;2;1;0;0;0;0;0;0;0;0;0;0;0;0;0;0;0;0
139;2022-05-01 11:12:43.166;5.173983903199189;52.36965346452309;21;0.06;0.1;9.66329288;0.72307098;-0.92179579;0.0;8.62745095;4.313725470000001;33.72549057;48.62745285;1857.75;139;13.9;-0.030771176669115604;0.08262437150785597;0.044157127251786485;9.903532078899214;1.021516826870819;-1.1818318264811807;17.682983516199293;2;1;0;0;0;0;0;0;0;0;0;0;0;0;0;0;0;0
140;2022-05-01 11:12:43.264;5.173983903199189;52.36965346452309;21;-0.01;0.07;10.20918751;0.96249849;-1.14685762;-0.06;7.84313775;3.9215688699999998;33.72549057;43.52941132;1857.75;140;14.0;-0.02888288512868459;0.08147669969795857;0.04559739051000904;9.931318976773547;1.0161515156985743;-1.178652348530377;17.98453090880051;2;1;0;0;0;0;0;0;0;0;0;0;0;0;0;0;0;0
141;2022-05-01 11:12:43.361;5.173983903199189;52.36965346452309;21;0.06;-0.06;9.89553738;-0.30407289;-1.33121681;-0.04;7.84313775;3.9215688699999998;33.72549057;43.52941132;1857.75;141;14.100000000000001;-0.020802612137334194;0.06861516450116871;0.045088536153013475;9.9280661000293;0.896130956144921;-1.1925218634056887;18.258664825792454;2;1;0;0;0;0;0;0;0;0;0;0;0;0;0;0;0;0
142;2022-05-01 11:12:43.461;5.173983903199189;52.36965346452309;23;-0.05;-0.04;10.00088596;0.29928434;-0.59378016;0.0;7.84313775;3.9215688699999998;26.66666603;43.52941132;1772.25;142;14.200000000000001;-0.02345692332225581;0.058741046742977206;0.04098957338327482;9.934686095273868;0.8418721074983339;-1.1380907338915007;18.68969581539867;2;1;0;0;0;0;0;0;0;0;0;0;0;0;0;0;0;0
143;2022-05-01 11:12:43.561;5.173983903199189;52.36965346452309;23;0.0;-0.01;10.00806904;0.2083019;-1.19713736;0.01;7.84313775;3.9215688699999998;26.66666603;43.52941132;1772.25;143;14.3;-0.02132447341226176;0.052491853831949625;0.03635415254491473;9.941357279372758;0.7842747528327773;-1.1434586148706338;19.081542079472836;2;1;0;0;0;0;0;0;0;0;0;0;0;0;0;0;0;0
144;2022-05-01 11:12:43.661;5.173983903199189;52.36965346452309;23;0.01;-0.06;10.14214802;0.17478207;-2.01837373;-0.06;7.84313775;3.9215688699999998;26.66666603;43.52941132;1772.25;144;14.4;-0.01847679117615283;0.04226531148443135;0.03850377718087843;9.959611001238535;0.7288662719591014;-1.2229964317930988;19.437765881430114;2;1;0;0;0;0;0;0;0;0;0;0;0;0;0;0;0;0
145;2022-05-01 11:12:43.760;5.174074156009584;52.36963737880653;23;0.0;-0.04;9.69202423;-0.12929083;-1.44614196;0.0;0.0;3.9215688699999998;26.66666603;43.52941132;1772.25;145;14.5;-0.016797081367206423;0.034786640035528685;0.03500343063284353;9.935284909109846;0.6508519193566784;-1.2432824072624444;19.761605639842713;2;1;0;0;0;0;0;0;0;0;0;0;0;0;0;0;0;0
146;2022-05-01 11:12:43.860;5.174074156009584;52.36963737880653;23;0.0;-0.07;9.79976654;-0.21787901;-0.46209505;0.02;0.0;0.0;26.66666603;25.49019623;1772.25;146;14.600000000000001;-0.015270072713819909;0.02526057401277642;0.030003114643050485;9.922965047236248;0.5718763153459692;-1.1722653163537344;20.05600536935124;2;1;0;0;0;0;0;0;0;0;0;0;0;0;0;0;0;0
147;2022-05-01 11:12:43.961;5.174074156009584;52.36963737880653;23;-0.01;-0.03;9.65132141;-0.00718282;-0.49800915;0.06;0.0;0.0;26.66666603;25.49019623;1772.25;147;14.700000000000001;-0.014790974836032202;0.02023688170860294;0.021821007191915466;9.898270152652888;0.519234536394735;-1.11096925538322;20.32364144504779;2;1;0;0;0;0;0;0;0;0;0;0;0;0;0;0;0;0
148;2022-05-01 11:12:44.060;5.174074156009584;52.36963737880653;23;0.01;-0.03;10.30256462;0.44772938;-0.54828894;0.03;0.0;0.0;26.66666603;25.49019623;1772.25;148;14.8;-0.012537248318471384;0.015669889356947377;0.0171100033347625;9.93502422013066;0.5127340632114489;-1.0598164646569153;20.566946933665758;2;1;0;0;0;0;0;0;0;0;0;0;0;0;0;0;0;0
149;2022-05-01 11:12:44.161;5.174074156009584;52.36963737880653;24;0.0;-0.03;9.95060635;-0.02394275;-0.44533512;0.04;0.0;0.0;26.66666603;25.49019623;1591.5;149;14.9;-0.01139749776679538;0.011518078667126933;0.011918181640434735;9.936440778267162;0.4639452318513591;-1.0039544897022128;20.879042859892458;2;1;0;0;0;0;0;0;0;0;0;0;0;0;0;0;0;0
150;2022-05-01 11:12:44.262;5.174074156009584;52.36963737880653;24;-0.03;0.0;10.15651417;0.09337672;-0.32801566;0.03;0.0;0.0;14.11764717;25.49019623;1591.5;150;15.0;-0.013088635283800098;0.010470980018052642;0.00810743571345814;9.956447461485807;0.43025716638810974;-0.9425054706520077;21.162766395706832;2;1;0;0;0;0;0;0;0;0;0;0;0;0;0;0;0;0
151;2022-05-01 11:12:44.363;5.174074156009584;52.36963737880653;24;0.0;-0.05;9.75906372;0.07422252;-0.66800267;0.07;0.0;0.0;14.11764717;25.49019623;1591.5;151;15.100000000000001;-0.011898758741034913;0.004973615389781591;0.001006756111971049;9.938503475820022;0.39789036381754317;-0.9175506578440263;21.420696855139223;2;1;0;0;0;0;0;0;0;0;0;0;0;0;0;0;0;0
152;2022-05-01 11:12:44.461;5.174074156009584;52.36963737880653;24;0.0;-0.04;9.95300007;-0.24182175;-0.29449579;0.07;0.0;0.0;14.11764717;25.49019623;1591.5;152;15.200000000000001;-0.010817052898565452;0.0008851030009784224;-0.0054484065325354075;9.939821348630261;0.3397346900976859;-0.8609092799159531;21.655179068117775;2;1;0;0;0;0;0;0;0;0;0;0;0;0;0;0;0;0
153;2022-05-01 11:12:44.564;5.174074156009584;52.36963737880653;24;-0.03;-0.01;9.42865467;-0.29210153;-0.04070267;0.08;0.0;0.0;14.11764717;25.49019623;1591.5;153;15.3;-0.012560957916804743;-0.00010445223509050729;-0.01222582698196805;9.893351630953076;0.2822950094736748;-0.7863450111692337;21.868344697380035;2;1;0;0;0;0;0;0;0;0;0;0;0;0;0;0;0;0
154;2022-05-01 11:12:44.662;5.174074156009584;52.36963737880653;24;-0.03;-0.08;9.97933769;-0.36871833;-0.31125572;0.13;0.0;0.0;14.11764717;25.49019623;1591.5;154;15.4;-0.014146325987418062;-0.007367686637896705;-0.022932574093129657;9.901168548412217;0.22311195589646773;-0.7431550590309902;22.062131617453115;2;1;0;0;0;0;0;0;0;0;0;0;0;0;0;0;0;0
155;2022-05-01 11:12:44.761;5.174171332012678;52.36962150159405;24;0.01;-0.05;9.70160198;-0.56504887;-0.10774237;0.06;0.0;0.0;14.11764717;25.49019623;1591.5;155;15.5;-0.0119512046771587;-0.011243352841341947;-0.02630234126048378;9.88302612677154;0.15146094672271346;-0.6853902489630768;22.238301531883288;2;1;0;0;0;0;0;0;0;0;0;0;0;0;0;0;0;0
156;2022-05-01 11:12:44.863;5.174171332012678;52.36962150159405;24;-0.03;-0.03;9.95778847;-0.19633053;-0.39266106;0.04;0.0;0.0;14.11764717;25.49019623;1591.5;156;15.600000000000001;-0.013592004772442523;-0.012948503123930798;-0.027547583359080825;9.889822705584622;0.11984352971852442;-0.6587784960703434;22.398455988878492;2;1;0;0;0;0;0;0;0;0;0;0;0;0;0;0;0;0
157;2022-05-01 11:12:44.963;5.174171332012678;52.36962150159405;24;-0.02;0.0;10.00806904;0.25379312;-0.33998701;0.05;0.0;0.0;14.11764717;25.49019623;1591.5;157;15.700000000000001;-0.014174549961120315;-0.011771366136845303;-0.02958871273322709;9.90057237544958;0.13202076871025478;-0.6297974435247552;22.544050940966212;2;1;0;0;0;0;0;0;0;0;0;0;0;0;0;0;0;0
158;2022-05-01 11:12:45.062;5.174171332012678;52.36962150159405;24;-0.01;-0.04;9.89553738;-0.09337672;-0.50519198;0.04;0.0;0.0;14.11764717;25.49019623;1591.5;158;15.8;-0.013795045319710122;-0.014337606251710567;-0.030535193641970316;9.90011464847053;0.11153008254661681;-0.6184696711437481;22.676409981031895;2;1;0;0;0;0;0;0;0;0;0;0;0;0;0;0;0;0
159;2022-05-01 11:12:45.162;5.174171332012678;52.36962150159405;24;-0.02;-0.02;10.16369629;-0.31125572;0.0670397;0.0;0.0;0.0;14.11764717;25.49019623;1591.5;159;15.9;-0.014359132243263637;-0.014852369442418033;-0.027759266285671675;9.924076621593047;0.0730950004277762;-0.5561506225511936;22.79673637506947;2;1;0;0;0;0;0;0;0;0;0;0;0;0;0;0;0;0
160;2022-05-01 11:12:45.260;5.174171332012678;52.36962150159405;24;0.04;0.02;10.67846584;0.39505535;0.14844504;0.07;0.0;0.0;14.11764717;20.3921566;1591.5;160;16.0;-0.009417391877746605;-0.011683971533916598;-0.031599333818961274;9.992657474488734;0.10236412945759436;-0.4920964575322341;22.90612400103575;2;1;0;0;0;0;0;0;0;0;0;0;0;0;0;0;0;0
161;2022-05-01 11:12:45.361;5.174171332012678;52.36962150159405;24;0.03;-0.05;10.20918751;-0.24900457;-0.4166038;0.04;0.0;0.0;14.11764717;20.3921566;1591.5;161;16.1;-0.005833991910335493;-0.01516724753509214;-0.032363030894930436;10.012342027048708;0.07042151412447639;-0.4852334873139151;23.005567293255528;2;1;0;0;0;0;0;0;0;0;0;0;0;0;0;0;0;0
162;2022-05-01 11:12:45.462;5.174171332012678;52.36962150159405;24;0.0;-0.02;9.65611076;0.07661679;-0.06464542;0.05;0.0;0.0;14.11764717;20.3921566;1591.5;162;16.2;-0.0053036289144304735;-0.015606588746932886;-0.033966392009757734;9.979957360609202;0.07098472112309766;-0.44699820162088394;23.09597028278326;2;1;0;0;0;0;0;0;0;0;0;0;0;0;0;0;0;0
163;2022-05-01 11:12:45.561;5.174171332012678;52.36962150159405;24;-0.08;-0.03;8.91627979;-0.65842557;0.29928434;0.0;0.0;0.0;14.11764717;20.3921566;1591.5;163;16.3;-0.012094209209394777;-0.016915080892025557;-0.030878537688049552;9.883259383904283;0.004674683863448662;-0.37915432315721287;23.17815481590819;2;1;0;0;0;0;0;0;0;0;0;0;0;0;0;0;0;0
164;2022-05-01 11:12:45.662;5.174171332012678;52.36962150159405;24;0.0;-0.03;9.17007256;-0.04549122;-0.77813929;0.0;0.0;0.0;14.11764717;20.3921566;1591.5;164;16.400000000000002;-0.01099473548220275;-0.01810461916877997;-0.028071397482822506;9.818424208500407;0.00011414647371526813;-0.4154256891467697;23.252868025518154;2;1;0;0;0;0;0;0;0;0;0;0;0;0;0;0;0;0
165;2022-05-01 11:12:45.760;5.174266641514228;52.36960572609774;23;-0.04;-0.30000001;9.46935654;-2.66722202;0.30167863;0.11;0.0;0.0;14.11764717;20.3921566;1431.0;165;16.5;-0.013631578065823859;-0.04373147632825144;-0.03551945325908706;9.786690779822228;-0.24237099219050912;-0.3502343786360657;23.22988002010578;2;1;0;0;0;0;0;0;0;0;0;0;0;0;0;0;0;0
166;2022-05-01 11:12:45.861;5.174266641514228;52.36960572609774;23;0.16;0.0;8.63614941;-0.24421602;-0.70391679;0.03;0.0;0.0;14.11764717;20.3921566;1431.0;166;16.6;0.002153112779697048;-0.03975588708492857;-0.03501768471962263;9.682096097046603;-0.24253872201188506;-0.3823873290559578;23.208981833903984;2;1;0;0;0;0;0;0;0;0;0;0;0;0;0;0;0;0
167;2022-05-01 11:12:45.962;5.174266641514228;52.36960572609774;23;-0.06;0.05;10.25467873;-0.82363051;0.37590113;-0.01;0.0;0.0;13.33333302;20.3921566;1431.0;167;16.7;-0.0034971708284771605;-0.03159626007910672;-0.030925167471921266;9.734149069466008;-0.2953652540659067;-0.3134520069320569;23.189983483255013;2;1;0;0;0;0;0;0;0;0;0;0;0;0;0;0;0;0
168;2022-05-01 11:12:46.061;5.174266641514228;52.36960572609774;23;-0.17;-0.14;10.66649437;-1.18037748;0.13647367;0.04;0.0;0.0;13.33333302;20.3921566;1431.0;168;16.8;-0.01863379319215951;-0.04145114652252601;-0.03175015233058505;9.81890774171775;-0.37582091910092125;-0.2725496685313742;23.1727122557589;2;1;0;0;0;0;0;0;0;0;0;0;0;0;0;0;0;0
169;2022-05-01 11:12:46.162;5.174266641514228;52.36960572609774;23;-0.01;-0.05;9.0479641;-0.47406641;0.64166564;0.04;0.0;0.0;13.33333302;20.3921566;1431.0;169;16.900000000000002;-0.01784890282984372;-0.042228315091888145;-0.03250013855126235;9.748821949667228;-0.38475232818513433;-0.18943917830102477;23.157011140156303;2;1;0;0;0;0;0;0;0;0;0;0;0;0;0;0;0;0
170;2022-05-01 11:12:46.262;5.174266641514228;52.36960572609774;23;0.04;0.0;9.14852428;-0.42857519;-0.24182175;-0.04;0.0;0.0;13.33333302;20.3921566;1431.0;170;17.0;-0.012589911224202268;-0.038389377035589284;-0.025909216314233628;9.694249429684405;-0.38873622504653976;-0.19420123067144077;23.142737398949784;2;1;0;0;0;0;0;0;0;0;0;0;0;0;0;0;0;0
