;device_time;lon;lat;raw_speed_kph;raw_g_x;raw_g_y;raw_roll;raw_yaw;raw_pitch;raw_g_z;apps_d;apps_e;engine_load;engine_load_abs;engine_rpm;num_samples;cumulative_time;g_x;g_y;g_z;roll;yaw;pitch;speed_kph;sample_nr;cu mulative_time;roundabout_1;roundabout_2;roundabout_3;roundabout_4;turning_right_1;turning_right_2;turning_right_3;turning_left_1;turning_left_2;road_50km_1;road_50km_2;road_100km;entering_highway;exiting_highway;speed_bumps;road_50km_3;road_50km_4
0;2022-05-01 11:40:07.631;5.173696986187935;52.36977873097894;0;0.0;0.02;10.39115238;-0.13886794;-0.80208206;-0.03;0.0;0.0;0.0;0.0;0.0;0;0.0;0.0;0.02;0.04440995;10.39115238;-0.13886794;-0.80208206;0.0;3;0.0;0;0;0;0;0;0;0;0;0;0;0;0;0;0;0;0;0
1;2022-05-01 11:40:07.729;5.173696986187935;52.36977873097894;0;0.05;0.02;10.20679379;0.16520496;-0.88588166;0.01;0.0;0.0;0.0;0.0;0.0;1;0.1;0.02619047619047619;0.02;0.023457569047619045;10.294583594761903;0.020408340952380956;-0.8459770885714286;0.0;3;0.1;0;0;0;0;0;0;0;0;0;0;0;0;0;0;0;0;0
2;2022-05-01 11:40:07.830;5.173696986187935;52.36977873097894;0;0.01;0.0;10.21637058;0.43575802;-0.58899158;0.0;0.0;0.0;0.0;0.0;0.0;2;0.2;0.02027190332326284;0.01268882175226586;0.020150131268882175;10.265992130151057;0.1722431178851964;-0.7520337455589123;0.0;3;0.2;0;0;0;0;0;0;0;0;0;0;0;0;0;0;0;0;0
3;2022-05-01 11:40:07.930;5.173696986187935;52.36977873097894;0;0.07;0.02;10.18524456;0.10774237;-0.69194543;-0.02;0.0;0.0;0.0;0.0;0.0;3;0.30000000000000004;0.0345335057099763;0.01478560655031243;0.024239728065072182;10.242834402102995;0.15374484263520793;-0.734800919010989;0.0;3;0.30000000000000004;0;0;0;0;0;0;0;0;0;0;0;0;0;0;0;0;0
4;2022-05-01 11:40:08.029;5.173696986187935;52.36977873097894;0;0.02;0.02;9.80694962;0.1053481;-0.45491222;-0.02;0.0;0.0;0.0;0.0;0.0;4;0.4;0.031048140079605574;0.01603610096476716;0.02667870890648802;10.138302304434323;0.1421385346480811;-0.6676791611000639;0.0;3;0.4;0;0;0;0;0;0;0;0;0;0;0;0;0;0;0;0;0
5;2022-05-01 11:40:08.128;5.173696986187935;52.36977873097894;0;0.04;0.04;10.13017654;0.25379312;-0.60335726;0.0;0.0;0.0;0.0;0.0;0.0;5;0.5;0.0329166974484195;0.021038181038181034;0.02411780200392451;10.13660618126595;0.1654446408736574;-0.6542529945441254;0.0;3;0.5;0;0;0;0;0;0;0;0;0;0;0;0;0;0;0;0;0
6;2022-05-01 11:40:08.229;5.173696986187935;52.36977873097894;0;0.06;0.03;10.08468533;0.08140534;-0.78053361;-0.06;0.0;0.0;0.0;0.0;0.0;6;0.6000000000000001;0.037974024079464784;0.022711641858252578;0.033508969085879234;10.126910882721257;0.1497517912459826;-0.6778336608352279;0.0;3;0.6000000000000001;0;0;0;0;0;0;0;0;0;0;0;0;0;0;0;0;0
7;2022-05-01 11:40:08.329;5.173696986187935;52.36977873097894;0;0.03;0.03;9.77821827;0.17957062;-1.04150951;-0.05;0.0;0.0;0.0;0.0;0.0;7;0.7000000000000001;0.03661522125247098;0.023953604705173704;0.0387746090945569;10.067492387969319;0.15483302857419023;-0.739805353801025;0.0;3;0.7000000000000001;0;0;0;0;0;0;0;0;0;0;0;0;0;0;0;0;0
8;2022-05-01 11:40:08.429;5.173696986187935;52.36977873097894;0;0.05;0.0;9.77342987;-0.02394275;-1.28093708;-0.05;0.0;0.0;0.0;0.0;0.0;8;0.8;0.03872807597711803;0.02017240758355544;0.04282127674380754;10.021073138749545;0.1266123716968649;-0.8252257216623159;0.0;3;0.8;0;0;0;0;0;0;0;0;0;0;0;0;0;0;0;0;0
9;2022-05-01 11:40:08.528;5.173696986187935;52.36977873097894;0;0.02;0.0;9.61301327;-0.05267405;-1.11573207;-0.05;0.0;0.0;0.0;0.0;862.0;9;0.9;0.03595725041322189;0.017187892639994803;0.04601532870205168;9.960700534681044;0.10008688124583874;-0.8682062401860366;0.0;3;0.9;0;0;0;0;0;0;0;0;0;0;0;0;0;0;0;0;0
10;2022-05-01 11:40:08.630;5.173696986187935;52.36977873097894;0;0.0;0.03;9.56512833;0.22266756;-0.85954463;-0.04;0.0;0.0;0.0;0.0;862.0;10;1.0;0.03092444018396233;0.018981158371906705;0.04719029440308702;9.905333680562592;0.1172440689299302;-0.8669939049867326;0.0;3;1.0;0;0;0;0;0;0;0;0;0;0;0;0;0;0;0;0;0
11;2022-05-01 11:40:08.730;5.173696986187935;52.36977873097894;0;0.03;0.02;9.80934429;0.07661679;-1.32882249;-0.08;0.0;0.0;0.0;0.0;862.0;11;1.1;0.030801100269407574;0.019117093439998654;0.053490397306084105;9.892526661314026;0.11182352880332964;-0.9286116269363889;0.0;3;1.1;0;0;0;0;0;0;0;0;0;0;0;0;0;0;0;0;0
12;2022-05-01 11:40:08.829;5.173696986187935;52.36977873097894;0;0.0;0.0;10.29059315;0.30646718;-1.5586729;-0.08;0.0;0.0;41.17647171;0.0;862.0;12;1.2000000000000002;0.026859160790920437;0.016670478718903575;0.058727301143782114;9.943471400076247;0.1367341159634614;-1.0092471686680637;0.0;3;1.2000000000000002;0;0;0;0;0;0;0;0;0;0;0;0;0;0;0;0;0
13;2022-05-01 11:40:08.929;5.173696986187935;52.36977873097894;0;0.0;0.0;9.95300007;0.26815879;-2.39906335;-0.16;0.0;0.0;41.17647171;0.0;862.0;13;1.3;0.02354458839409148;0.014613247332050971;0.07300319448518895;9.94464729185312;0.1529526642723502;-1.1807583483050055;0.0;3;1.3;0;0;0;0;0;0;0;0;0;0;0;0;0;0;0;0;0
14;2022-05-01 11:40:09.033;5.173696986187935;52.36977873097894;0;0.09;0.06;9.90990353;0.37829542;-3.21072245;-0.20999999;0.0;0.0;41.17647171;0.0;862.0;14;1.4000000000000001;0.03148744653812211;0.020037945326513037;0.09109957328433205;9.940494661313021;0.1798859944448253;-1.4233829368464805;0.0;3;1.4000000000000001;0;0;0;0;0;0;0;0;0;0;0;0;0;0;0;0;0
15;2022-05-01 11:40:09.128;5.173696986187935;52.36977873097894;0;-0.01;0.04;9.29936314;0.2849187;-2.78933024;-0.23;0.0;0.0;41.17647171;0.0;862.0;15;1.5;0.026666732703476345;0.022357474754384873;0.1089137680757338;9.86599714814886;0.19209047216062894;-1.5821018171626877;0.0;3;1.5;0;0;0;0;0;0;0;0;0;0;0;0;0;0;0;0;0
16;2022-05-01 11:40:09.228;5.173696986187935;52.36977873097894;0;0.05;0.05;9.42865467;0.11253092;-2.87552404;-0.23;0.0;0.0;41.17647171;0.0;862.0;16;1.6;0.029311115948997286;0.025490230647267687;0.12426969010582041;9.816432674083808;0.1830739060672014;-1.7286866915392403;0.0;3;1.6;0;0;0;0;0;0;0;0;0;0;0;0;0;0;0;0;0
17;2022-05-01 11:40:09.329;5.173696986187935;52.36977873097894;0;0.04;-0.01;9.56273365;0.03591412;-2.77017593;-0.23;0.0;0.0;41.17647171;0.0;862.0;17;1.7000000000000002;0.03049593231958519;0.021556292729503605;0.13758671609376313;9.788311239189163;0.16676188296051628;-1.8441312499825213;0.0;3;1.7000000000000002;0;0;0;0;0;0;0;0;0;0;0;0;0;0;0;0;0
18;2022-05-01 11:40:09.429;5.173696986187935;52.36977873097894;0;0.04;0.04;9.52442551;0.4764607;-2.83482146;-0.25999999;0.0;0.0;41.17647171;0.0;862.0;18;1.8;0.03152882461657046;0.023560735859344147;0.1524565232935447;9.759632409646997;0.20041963175419625;-1.9517984427082695;0.0;3;1.8;0;0;0;0;0;0;0;0;0;0;0;0;0;0;0;0;0
19;2022-05-01 11:40:09.530;5.173696986187935;52.36977873097894;0;0.02;-0.02;9.66808128;-0.40702671;-2.96890068;-0.25;0.0;0.0;41.17647171;0.0;862.0;19;1.9000000000000001;0.03029775969517877;0.018909256142203654;0.16441107555985465;9.749856444796235;0.13555561414337486;-2.060406121933364;0.0;3;1.9000000000000001;0;0;0;0;0;0;0;0;0;0;0;0;0;0;0;0;0
20;2022-05-01 11:40:09.630;5.173696986187935;52.36977873097894;0;0.02;-0.03;9.46217442;-0.21787901;-2.81566715;-0.23;0.0;0.0;41.17647171;0.0;862.0;20;2.0;0.029215330439589564;0.013768253508182837;0.17282000378030657;9.719617300636328;0.0984050116399899;-2.1397939360390335;0.0;3;2.0;0;0;0;0;0;0;0;0;0;0;0;0;0;0;0;0;0
21;2022-05-01 11:40:09.731;5.173696986187935;52.36977873097894;0;-0.02;0.05;9.34485435;0.65124273;-2.81327295;-0.25;10.19607735;0.0;41.17647171;0.0;862.0;21;2.1;0.024114606035140422;0.017523346726005955;0.18231247431158581;9.680776506291963;0.15570164698820116;-2.2095939518412577;0.0;3;2.1;0;0;0;0;0;0;0;0;0;0;0;0;0;0;0;0;0
22;2022-05-01 11:40:09.828;5.173760907686497;52.36975072236904;0;0.05;0.13;9.5387907;0.63687712;-2.84918714;-0.2;10.19607735;5.09803868;41.17647171;52.54901886;862.0;22;2.2;0.026763665780565438;0.029033983762967935;0.18559726614791502;9.666245961213901;0.20494418808190834;-2.2750486468905;0.0;3;2.2;0;0;0;0;0;0;0;0;0;0;0;0;0;0;0;0;0
23;2022-05-01 11:40:09.928;5.173760907686497;52.36975072236904;0;-0.02;-0.03;9.18443775;-0.52434617;-2.2003386;-0.17;10.19607735;5.09803868;41.17647171;52.54901886;862.0;23;2.3000000000000003;0.022032042559915217;0.02306082995396024;0.18547713158271456;9.617495828348417;0.13115341194624522;-2.267489363699534;0.0;3;2.3000000000000003;0;0;0;0;0;0;0;0;0;0;0;0;0;0;0;0;0
24;2022-05-01 11:40:10.031;5.173760907686497;52.36975072236904;0;0.03;-0.05;9.21077538;-0.55547178;-2.73905039;-0.23999999;10.19607735;5.09803868;41.17647171;52.54901886;862.0;24;2.4000000000000004;0.022830055751248194;0.015743583782477758;0.19238094486814764;9.576761639516775;0.06238598129731716;-2.314717517506325;0.0;3;2.4000000000000004;0;0;0;0;0;0;0;0;0;0;0;0;0;0;0;0;0
25;2022-05-01 11:40:10.129;5.173760907686497;52.36975072236904;0;0.03;0.0;9.78300667;0.0191542;-2.52595997;-0.20999999;10.19607735;5.09803868;41.17647171;52.54901886;862.0;25;2.5;0.023541568679229168;0.014181261537652133;0.19555935788168255;9.597228466095823;0.05809585431368795;-2.3356802657053533;0.0;3;2.5;0;0;0;0;0;0;0;0;0;0;0;0;0;0;0;0;0
26;2022-05-01 11:40:10.230;5.173760907686497;52.36975072236904;0;-0.03;-0.02;10.08468533;-0.51476908;-2.05668211;-0.2;10.19607735;5.09803868;41.17647171;52.54901886;862.0;26;2.6;0.01827221959833698;0.010817277188477926;0.1974145584800816;9.645202039548192;0.0017167569214175487;-2.30822237249075;0.0;3;2.6;0;0;0;0;0;0;0;0;0;0;0;0;0;0;0;0;0
27;2022-05-01 11:40:10.330;5.173760907686497;52.36975072236904;0;0.01;-0.03;9.63695621;-0.11971374;-2.3679378;-0.16;10.19607735;5.09803868;41.17647171;52.54901886;862.0;27;2.7;0.017464166528414104;0.006830133744574037;0.19516740530870777;9.644396564330656;-0.010144906644590532;-2.3140555390244706;0.0;3;2.7;0;0;0;0;0;0;0;0;0;0;0;0;0;0;0;0;0
28;2022-05-01 11:40:10.430;5.173760907686497;52.36975072236904;0;0.02;-0.06;9.96975994;-0.89785308;-2.41342902;-0.23999999;10.19607735;5.09803868;41.17647171;52.54901886;862.0;28;2.8000000000000003;0.017710207095885524;0.0003459051014278791;0.2009154431894347;9.675965115846793;-0.09627525596314837;-2.3236973029355443;0.0;3;2.8000000000000003;0;0;0;0;0;0;0;0;0;0;0;0;0;0;0;0;0
29;2022-05-01 11:40:10.529;5.173760907686497;52.36975072236904;0;0.09;-0.06;10.35044956;-0.77574503;-1.65204966;-0.11;10.19607735;5.09803868;41.17647171;52.54901886;862.0;29;2.9000000000000004;0.024681522448255572;-0.005473593306103261;0.19353758391240541;9.741009482023037;-0.1618003858178904;-2.2589265056144026;0.0;3;2.9000000000000004;0;0;0;0;0;0;0;0;0;0;0;0;0;0;0;0;0
30;2022-05-01 11:40:10.635;5.173760907686497;52.36975072236904;0;-0.03;-0.14;8.76065159;-1.53951871;-2.24104118;-0.17;10.19607735;5.09803868;41.17647171;52.54901886;862.0;30;3.0;0.01943725554442917;-0.018375435660311523;0.19266219225734738;9.646987622044529;-0.29393135596672737;-2.257211201852103;0.0;3;3.0;0;0;0;0;0;0;0;0;0;0;0;0;0;0;0;0;0
31;2022-05-01 11:40:10.728;5.173760907686497;52.36975072236904;0;0.0;-0.12;9.54118538;-1.76458049;-1.75979197;-0.16;10.19607735;5.09803868;41.17647171;52.54901886;862.0;31;3.1;0.017582380923809347;-0.02807334927750733;0.19092040207224784;9.636891037517744;-0.4342736871317184;-2.209743064858086;0.0;3;3.1;0;0;0;0;0;0;0;0;0;0;0;0;0;0;0;0;0
32;2022-05-01 11:40:10.829;5.173803882735809;52.3697440137128;0;0.0;-0.2;10.14933109;-1.57064426;-1.50599885;-0.16;10.19607735;5.09803868;41.17647171;52.54901886;2154.25;32;3.2;0.01591206422560514;-0.04440628830394061;0.1893519180364008;9.685572565929558;-0.5422282782325994;-2.1428877442711975;0.0;3;3.2;0;0;0;0;0;0;0;0;0;0;0;0;0;0;0;0;0
33;2022-05-01 11:40:10.929;5.173803882735809;52.3697440137128;13;0.15000001;-0.09;10.97296143;-1.09897208;-1.34797668;-0.08;10.19607735;5.09803868;33.33333206;52.54901886;2154.25;33;3.3000000000000003;0.02859845468131331;-0.048720021544916635;0.1803692248480833;9.807375593812525;-0.5949031791137;-2.0676792527049654;1.229961984813251;3;3.3000000000000003;0;0;0;0;0;0;0;0;0;0;0;0;0;0;0;0;0
34;2022-05-01 11:40:11.030;5.173803882735809;52.3697440137128;13;0.23;-0.1;11.25788021;-2.02795076;-1.22347438;0.0;10.19607735;5.09803868;33.33333206;52.54901886;2154.25;34;3.4000000000000004;0.04758324272202812;-0.05355384503997326;0.16472534460180166;9.944105044655732;-0.729987071009048;-1.9881016578762758;2.339445413035703;3;3.4000000000000004;0;0;0;0;0;0;0;0;0;0;0;0;0;0;0;0;0
35;2022-05-01 11:40:11.131;5.173803882735809;52.3697440137128;13;0.05;-0.20999999;9.06951332;-1.79570615;-1.58022141;-0.04;10.19607735;5.09803868;33.33333206;52.54901886;2154.25;35;3.5;0.04781029281440173;-0.06825168498792102;0.15436140745227164;9.86193869155017;-0.8301095026387026;-1.949782026524883;3.3409857521447064;3;3.5;0;0;0;0;0;0;0;0;0;0;0;0;0;0;0;0;0
36;2022-05-01 11:40:11.229;5.173803882735809;52.3697440137128;13;0.05;0.04;7.95378113;-2.116539;-1.71669507;-0.20999999;9.80392075;4.705882070000001;33.33333206;52.54901886;2154.25;36;3.6;0.04801538863350418;-0.0581124443863281;0.1609224039427113;9.683213818819876;-0.9506010976858176;-1.927950267198804;4.245683627694142;3;3.6;0;0;0;0;0;0;0;0;0;0;0;0;0;0;0;0;0
37;2022-05-01 11:40:11.329;5.173803882735809;52.3697440137128;13;0.01;-0.2;9.5866766;-2.205127;-0.95531565;-0.04;9.80392075;4.705882070000001;33.33333206;45.09803772;2154.25;37;3.7;0.04446451201204414;-0.07136563532334408;0.15097347020312088;9.67419663483912;-1.0677817147377617;-1.8371000708025451;5.063391889024109;3;3.7;0;0;0;0;0;0;0;0;0;0;0;0;0;0;0;0;0
38;2022-05-01 11:40:11.432;5.173803882735809;52.3697440137128;13;0.05;-0.30000001;10.441432;-2.50680566;-2.38230348;0.01;9.80392075;4.705882070000001;33.33333206;45.09803772;2154.25;38;3.8000000000000003;0.044980273476518756;-0.09266832808847011;0.13731761619657454;9.74568273261281;-1.2018607876284182;-1.8878986470755053;5.802874411826877;3;3.8000000000000003;0;0;0;0;0;0;0;0;0;0;0;0;0;0;0;0;0
39;2022-05-01 11:40:11.530;5.173803882735809;52.3697440137128;13;-0.11;-0.25999999;9.64413929;-2.47568011;-1.07742369;-0.20999999;9.80392075;4.705882070000001;33.33333206;45.09803772;1901.75;39;3.9000000000000004;0.030572826193348168;-0.10822399877943038;0.14541398895305177;9.73624293899535;-1.3202789857878974;-1.8125543793409122;6.471941546475294;3;3.9000000000000004;0;0;0;0;0;0;0;0;0;0;0;0;0;0;0;0;0
40;2022-05-01 11:40:11.630;5.173803882735809;52.3697440137128;13;0.11;-0.16;10.61382008;-1.59698129;-2.3655436;-0.16;9.80392075;4.705882070000001;33.33333206;45.09803772;1901.75;40;4.0;0.03794148748654463;-0.11302739033707575;0.14810401814061663;9.817658006418704;-1.345949363582647;-1.86385659834904;7.077566162596066;3;4.0;0;0;0;0;0;0;0;0;0;0;0;0;0;0;0;0;0
41;2022-05-01 11:40:11.727;5.173856709654988;52.36972363249421;16;0.09;0.0;10.40312386;-0.1699935;-2.30808091;-0.18000001;9.80392075;4.705882070000001;32.94117737;45.09803772;1901.75;41;4.1000000000000005;0.042762105322254725;-0.10256105491034131;0.152391947980506;9.871872139702742;-1.2370558601709007;-1.9049917659980806;7.903783463434535;3;4.1000000000000005;0;0;0;0;0;0;0;0;0;0;0;0;0;0;0;0;0
42;2022-05-01 11:40:11.829;5.173856709654988;52.36972363249421;16;0.02;0.06;9.65611076;-1.61613548;-1.7454263;-0.04;9.80392075;4.705882070000001;32.94117737;45.09803772;1901.75;42;4.2;0.04065789256975571;-0.08753331296998597;0.14333413163412725;9.851926364026912;-1.2720993747739628;-1.8902409473168522;8.652227504178782;3;4.2;0;0;0;0;0;0;0;0;0;0;0;0;0;0;0;0;0
43;2022-05-01 11:40:11.930;5.173856709654988;52.36972363249421;16;0.0;-0.11;8.34883595;-2.56905699;-1.76936913;-0.05;9.80392075;4.705882070000001;32.94117737;45.09803772;1901.75;43;4.3;0.036905086420398706;-0.08960703386187091;0.13604926920154148;9.713188062745754;-1.3918111996189197;-1.8790842328232913;9.330441844951237;3;4.3;0;0;0;0;0;0;0;0;0;0;0;0;0;0;0;0;0
44;2022-05-01 11:40:12.033;5.173856709654988;52.36972363249421;16;-0.03;-0.20999999;9.60822487;-1.67838669;-2.69834781;-0.14;9.80392075;4.705882070000001;32.94117737;45.09803772;1901.75;44;4.4;0.030738201028524852;-0.10070409093504394;0.13774163999513706;9.70351322313848;-1.4182259058819902;-1.954598739365278;9.945199301479729;3;4.4;0;0;0;0;0;0;0;0;0;0;0;0;0;0;0;0;0
45;2022-05-01 11:40:12.131;5.173856709654988;52.36972363249421;16;0.0;-0.03;9.46456814;-0.50519198;-1.78852332;-0.13;9.80392075;4.705882070000001;32.94117737;45.09803772;1901.75;45;4.5;0.027908527396377055;-0.09419526819625677;0.1383555061408571;9.6815166007382;-1.3341745320580276;-1.9393102963399456;10.50258748007266;3;4.5;0;0;0;0;0;0;0;0;0;0;0;0;0;0;0;0;0
46;2022-05-01 11:40:12.233;5.173856709654988;52.36972363249421;16;0.0;0.13;9.11979294;1.23544586;-1.74782062;-0.15000001;9.80392075;4.705882070000001;32.94117737;45.09803772;1901.75;46;4.6000000000000005;0.025342292073992398;-0.07358014192372465;0.14075125633036562;9.629865179682115;-1.097893680633554;-1.92170250341285;11.008083667312857;3;4.6000000000000005;0;0;0;0;0;0;0;0;0;0;0;0;0;0;0;0;0
47;2022-05-01 11:40:12.331;5.173856709654988;52.36972363249421;16;-0.05;0.11;9.69441891;0.77574503;-1.94654536;-0.13;9.80392075;4.705882070000001;32.94117737;45.09803772;1901.75;47;4.7;0.01842165873283458;-0.05671722448388774;0.14108732889596118;9.635794820074462;-0.9257889281346511;-1.9239844661306529;11.466620588041744;3;4.7;0;0;0;0;0;0;0;0;0;0;0;0;0;0;0;0;0
48;2022-05-01 11:40:12.432;5.173856709654988;52.36972363249421;16;0.04;0.01;9.64413929;-0.38308397;-2.01597929;-0.1;9.80392075;4.705882070000001;32.94117737;45.09803772;1901.75;48;4.800000000000001;0.020401881613931926;-0.050594651258700385;0.13863917241148338;9.636560583766517;-0.8759854347855821;-1.9324267394691417;11.882644300388684;3;4.800000000000001;0;0;0;0;0;0;0;0;0;0;0;0;0;0;0;0;0
49;2022-05-01 11:40:12.531;5.173856709654988;52.36972363249421;16;-0.11;-0.17;8.28419113;-1.83640873;-2.02555656;-0.15000001;9.80392075;4.705882070000001;32.94117737;45.09803772;1901.75;49;4.9;0.008445312456076388;-0.06154294657755165;0.14100210000302502;9.512561614573704;-0.9640467986855631;-1.9409658274489652;12.260165295949484;3;4.9;0;0;0;0;0;0;0;0;0;0;0;0;0;0;0;0;0
50;2022-05-01 11:40:12.633;5.173856709654988;52.36972363249421;16;-0.30000001;-0.05;13.06076908;1.15404046;-3.6536634;-0.11;9.80392075;4.705882070000001;32.94117737;45.09803772;1901.75;50;5.0;-0.019814015525874626;-0.06048539799611832;0.13948195048307896;9.837643407726095;-0.7699906137482456;-2.097880777726752;12.602803708030107;3;5.0;0;0;0;0;0;0;0;0;0;0;0;0;0;0;0;0;0
51;2022-05-01 11:40:12.730;5.173856709654988;52.36972363249421;16;-0.25999999;0.13;8.6457262;2.06386495;-1.80767751;-0.18000001;9.80392075;4.705882070000001;32.94117737;45.09803772;1901.75;51;5.1000000000000005;-0.04180391576136298;-0.0430457664463453;0.14451080969126376;9.728519048802788;-0.5105408217067012;-2.071311612231989;12.913829394289888;3;5.1000000000000005;0;0;0;0;0;0;0;0;0;0;0;0;0;0;0;0;0
52;2022-05-01 11:40:12.831;5.173904496297656;52.369688296751086;16;0.23;0.27000001;10.55156898;1.94175684;-0.56744313;0.13;9.80392075;4.705882070000001;32.94117737;45.09803772;1901.75;52;5.2;-0.01693530695105087;-0.014403747318851854;0.12071296810105296;9.803823728328702;-0.28616866332701646;-1.9337156659704176;13.196197546714417;3;5.2;0;0;0;0;0;0;0;0;0;0;0;0;0;0;0;0;0
53;2022-05-01 11:40:12.928;5.173904496297656;52.369688296751086;16;0.15000001;0.30000001;10.94901848;2.8443985;0.41181526;0.09;9.80392075;4.705882070000001;32.94117737;45.09803772;1901.75;53;5.300000000000001;-0.001670554363199374;0.014345684831388933;0.10276279998629896;9.90854162067436;9.390879156828098e-05;-1.7192376877569089;13.452580387303897;3;5.300000000000001;0;0;0;0;0;0;0;0;0;0;0;0;0;0;0;0;0
54;2022-05-01 11:40:13.033;5.173904496297656;52.369688296751086;16;-0.08;-0.02;9.85004616;2.05428767;-2.29850388;-0.02;9.41176415;4.705882070000001;32.94117737;45.09803772;1901.75;54;5.4;-0.008829278053543398;0.01120674690498494;0.09651586229228881;9.903195574411646;0.18783180765409796;-1.7721782719741646;13.685395428727945;3;5.4;0;0;0;0;0;0;0;0;0;0;0;0;0;0;0;0;0
55;2022-05-01 11:40:13.131;5.173904496297656;52.369688296751086;16;-0.04;0.16;14.09509563;2.23625278;1.55627859;-0.30000001;9.41176415;4.313725470000001;32.94117737;45.09803772;1901.75;55;5.5;-0.0116766717415638;0.024798763490629983;0.11642012628513375;10.28611868346243;0.37495166189056284;-1.4681292648349251;13.8968307127045;3;5.5;0;0;0;0;0;0;0;0;0;0;0;0;0;0;0;0;0
56;2022-05-01 11:40:13.229;5.173904496297656;52.369688296751086;16;0.44;0.57999998;11.29858303;2.89228392;-1.88908279;-0.02;9.41176415;4.313725470000001;32.94117737;53.33333206;1901.75;56;5.6000000000000005;0.029565126774100784;0.07549320519965981;0.10893192204924876;10.378565013318687;0.6048048207566792;-1.5065657871427458;14.088867382777654;3;5.6000000000000005;0;0;0;0;0;0;0;0;0;0;0;0;0;0;0;0;0
57;2022-05-01 11:40:13.332;5.173904496297656;52.369688296751086;16;-0.04;0.2;9.05993557;1.86035156;-0.29210153;0.02;9.41176415;4.313725470000001;32.94117737;53.33333206;1901.75;57;5.7;0.023215792294138622;0.08685716472757793;0.09847929528689413;10.258211327801165;0.7194008341955511;-1.3957194458775575;14.26329990069305;3;5.7;0;0;0;0;0;0;0;0;0;0;0;0;0;0;0;0;0
58;2022-05-01 11:40:13.431;5.173904496297656;52.369688296751086;16;-0.08;0.1;9.14612961;0.62251145;-0.48124924;-0.12;9.41176415;4.313725470000001;32.94117737;53.33333206;2017.25;58;5.800000000000001;0.013798516682952445;0.08805630004710448;0.10175756182734191;10.15674642784816;0.7105607718902849;-1.312284365105948;14.421754175234106;3;5.800000000000001;0;0;0;0;0;0;0;0;0;0;0;0;0;0;0;0;0
59;2022-05-01 11:40:13.531;5.173904496297656;52.369688296751086;22;0.01;0.02;10.84127617;2.67201066;-0.28013015;-0.34;9.41176415;4.313725470000001;32.94117737;53.33333206;2017.25;59;5.9;0.013452059124238348;0.08184897715307753;0.12480164374553676;10.219181457921211;0.8894619579307101;-1.2181429779726614;15.112955706496821;3;5.9;0;0;0;0;0;0;0;0;0;0;0;0;0;0;0;0;0
60;2022-05-01 11:40:13.641;5.173904496297656;52.369688296751086;22;0.1;0.40000001;8.98092461;2.58821106;-1.41980493;0.01;9.41176415;4.313725470000001;32.94117737;53.33333206;2017.25;60;6.0;0.02134361557141124;0.11085841179742026;0.11382416886456324;10.106275550367664;1.0443561621476294;-1.2365307831771235;15.740925572058131;3;6.0;0;0;0;0;0;0;0;0;0;0;0;0;0;0;0;0;0
61;2022-05-01 11:40:13.729;5.173904496297656;52.369688296751086;22;0.04;0.25999999;9.94102859;2.43258309;-1.22347438;-0.07;9.01960755;4.313725470000001;32.94117737;53.33333206;2017.25;61;6.1000000000000005;0.023044266550431337;0.12445363824409172;0.11114287119402018;10.091212213416979;1.1709020903252458;-1.2353406069706538;16.31148098135424;3;6.1000000000000005;0;0;0;0;0;0;0;0;0;0;0;0;0;0;0;0;0
62;2022-05-01 11:40:13.834;5.173950473962128;52.36965388032343;22;0.03;0.20999999;9.19162083;1.70472372;-0.43096948;-0.02;9.01960755;4.705882070000001;32.94117737;53.33333206;2017.25;62;6.2;0.02367817012523965;0.13224981654549614;0.10414989577265889;10.009228882981834;1.2195513725058063;-1.1620350761368188;16.829898279462213;3;6.2;0;0;0;0;0;0;0;0;0;0;0;0;0;0;0;0;0
63;2022-05-01 11:40:13.929;5.173950473962128;52.36965388032343;22;-0.18000001;0.08;7.91068411;1.32403398;-0.33519846;0.0;9.01960755;4.705882070000001;32.94117737;48.23529434;2017.25;63;6.300000000000001;0.005120342999505642;0.1274891541014071;0.09597337731153692;9.8180231726369;1.2290711461326664;-1.086699117350959;17.30096422228046;3;6.300000000000001;0;0;0;0;0;0;0;0;0;0;0;0;0;0;0;0;0
64;2022-05-01 11:40:14.029;5.173950473962128;52.36965388032343;22;-0.16;0.15000001;8.19560242;1.93457401;-0.58899158;-0.06;9.01960755;4.705882070000001;32.94117737;48.23529434;2017.25;64;6.4;-0.009921271237712569;0.129539777328233;0.09400905995753647;9.670228984178276;1.2933388295008925;-1.041360519793592;17.72902222029198;3;6.4;0;0;0;0;0;0;0;0;0;0;0;0;0;0;0;0;0
65;2022-05-01 11:40:14.134;5.173950473962128;52.36965388032343;22;0.0;0.27000001;9.43104839;2.52595997;-0.92179579;-0.04;9.01960755;4.705882070000001;32.94117737;48.23529434;2017.25;65;6.5;-0.009017662301819832;0.1423326058215546;0.09040245463915604;9.648444908628553;1.4056034224586482;-1.0304708106353129;18.118014073682062;3;6.5;0;0;0;0;0;0;0;0;0;0;0;0;0;0;0;0;0
66;2022-05-01 11:40:14.229;5.173950473962128;52.36965388032343;22;-0.01;0.23;9.72315025;1.50599885;-0.58659732;-0.05;9.01960755;4.705882070000001;32.94117737;48.23529434;2017.25;66;6.6000000000000005;-0.00910711649054027;0.15031582344416622;0.08803551054282813;9.655247768498276;1.4147456874237314;-0.9900505528432636;18.47151766242374;3;6.6000000000000005;0;0;0;0;0;0;0;0;0;0;0;0;0;0;0;0;0
67;2022-05-01 11:40:14.329;5.173950473962128;52.36965388032343;22;0.0;0.17;8.84205723;1.36952519;-2.15245295;0.02;9.01960755;4.705882070000001;32.94117737;48.23529434;1701.0;67;6.7;-0.008277926377289295;0.15210803996017738;0.07951103528983966;9.581207916761185;1.410628424905019;-1.0958856518389524;18.792781003255932;3;6.7;0;0;0;0;0;0;0;0;0;0;0;0;0;0;0;0;0
68;2022-05-01 11:40:14.428;5.173950473962128;52.36965388032343;25;-0.1;0.14;8.59544659;1.59219277;-1.26178277;-0.07;9.01960755;4.705882070000001;32.94117737;48.23529434;1701.0;68;6.800000000000001;-0.016627927015072246;0.1510057737619048;0.07995701235227008;9.49146825669838;1.4271572967181216;-1.1109882436986735;19.35786071127551;3;6.800000000000001;0;0;0;0;0;0;0;0;0;0;0;0;0;0;0;0;0
69;2022-05-01 11:40:14.529;5.173950473962128;52.36965388032343;25;-0.02;0.14;9.16767788;1.26178277;-0.52674043;0.0;9.01960755;4.705882070000001;32.94117737;48.23529434;1701.0;69;6.9;-0.016934867761691706;0.15000398037525417;0.07399063370416707;9.46199544860193;1.4121041881615797;-1.0578074670817348;19.871432764298312;3;6.9;0;0;0;0;0;0;0;0;0;0;0;0;0;0;0;0;0
70;2022-05-01 11:40:14.629;5.173950473962128;52.36965388032343;25;0.08;0.17;10.01764584;1.26178277;-1.38867939;-0.05;9.01960755;4.705882070000001;34.11764526;48.23529434;1701.0;70;7.0;-0.008112451425322709;0.15182389527557066;0.07311865871336164;9.512567334689729;1.398422855882309;-1.087921397449663;20.338203456900448;3;7.0;0;0;0;0;0;0;0;0;0;0;0;0;0;0;0;0;0
71;2022-05-01 11:40:14.728;5.173950473962128;52.36965388032343;25;0.06;0.15000001;9.92905807;1.3934679;-0.6751855;0.0;9.01960755;4.705882070000001;34.11764526;48.23529434;1701.0;71;7.1000000000000005;-0.0019139238151711288;0.15165791382868693;0.06777591235346736;9.550469792583547;1.3979719334709018;-1.0503606460377517;20.762447100766256;3;7.1000000000000005;0;0;0;0;0;0;0;0;0;0;0;0;0;0;0;0;0
72;2022-05-01 11:40:14.828;5.174045033058011;52.3696270230892;25;-0.01;0.20999999;9.88356686;0.88109314;-0.2753416;-0.03;9.01960755;4.705882070000001;34.11764526;48.23529434;1701.0;72;7.2;-0.0026497216412000543;0.15696678946028286;0.06564971122577927;9.580780179532594;1.3509382073640543;-0.9798372776980485;21.148046016689;3;7.2;0;0;0;0;0;0;0;0;0;0;0;0;0;0;0;0;0
73;2022-05-01 11:40:14.928;5.174045033058011;52.3696270230892;25;0.14;0.16;10.88437366;1.45332479;-1.16840613;-0.06;1.1764698100000004;0.0;34.11764526;48.23529434;1701.0;73;7.300000000000001;0.010329660103082085;0.1572427745589765;0.06644678591974651;9.699391258668811;1.360254135402575;-0.9969947392826163;21.49852676516571;3;7.300000000000001;0;0;0;0;0;0;0;0;0;0;0;0;0;0;0;0;0
74;2022-05-01 11:40:15.029;5.174045033058011;52.3696270230892;25;-0.03;0.07;9.88835526;-0.02633702;-0.56504887;0.0;1.1764698100000004;0.0;34.11764526;30.19607925;1712.75;74;7.4;0.0066604425241301;0.14930537262625163;0.0617124421979857;9.716583321128581;1.2341012090149397;-0.9576960352351118;21.817092979526194;3;7.4;0;0;0;0;0;0;0;0;0;0;0;0;0;0;0;0;0
75;2022-05-01 11:40:15.129;5.174045033058011;52.3696270230892;26;0.02;0.02;10.25946712;0.34716985;-0.49800915;0.02;1.1764698100000004;0.0;14.11764717;30.19607925;1712.75;75;7.5;0.007873996958946305;0.13754193079694038;0.05558965753824028;9.765971694236312;1.1534134136321357;-0.9158764277096726;22.197629243514125;3;7.5;1;0;0;0;0;0;0;0;0;0;0;0;0;0;0;0;0
76;2022-05-01 11:40:15.231;5.174045033058011;52.3696270230892;26;0.09;0.05;9.88356686;0.33040991;-0.45970076;0.06;1.1764698100000004;0.0;14.11764717;30.19607925;1712.75;76;7.6000000000000005;0.015344851612725837;0.1295783989449369;0.04638552168674571;9.77666911477154;1.0785462664739642;-0.8743789484235303;22.543524066220733;3;7.6000000000000005;1;0;0;0;0;0;0;0;0;0;0;0;0;0;0;0;0
77;2022-05-01 11:40:15.330;5.174045033058011;52.3696270230892;26;0.03;0.06;9.83089256;0.50279772;-0.3328042;0.01;0.0;0.0;14.11764717;30.19607925;1712.75;77;7.7;0.016677925282871195;0.12324935135065204;0.04256730518519942;9.781601432427319;1.0261745532953126;-0.8251157803913376;22.85793487510844;3;7.7;1;0;0;0;0;0;0;0;0;0;0;0;0;0;0;0;0
78;2022-05-01 11:40:15.431;5.174045033058011;52.3696270230892;26;0.03;0.0;10.55635738;-0.04549122;-0.19633053;0.0;0.0;0.0;14.11764717;13.33333302;1712.75;78;7.800000000000001;0.01788967369870183;0.11203884477247743;0.040006170282106825;9.852071634108404;0.9286980467703302;-0.7679227720020567;23.14373063277888;3;7.800000000000001;1;0;0;0;0;0;0;0;0;0;0;0;0;0;0;0;0
79;2022-05-01 11:40:15.530;5.174045033058011;52.3696270230892;26;0.04;-0.01;10.14933109;0.12689656;0.08140534;0.03;0.0;0.0;14.11764717;13.33333302;1712.75;79;7.9;0.019900685109771384;0.10093898554440314;0.03494949984332235;9.879108419983934;0.855771400761809;-0.6906734134126264;23.403518309011993;3;7.9;1;0;0;0;0;0;0;0;0;0;0;0;0;0;0;0;0
80;2022-05-01 11:40:15.630;5.174045033058011;52.3696270230892;26;0.13;0.08;10.34566116;0.61532861;0.02154847;0.02;0.0;0.0;14.11764717;13.33333302;1410.75;80;8.0;0.029914157768575703;0.09903459622589533;0.031262449888823755;9.921541137305555;0.8339032600408566;-0.6258972214475355;23.639666903103763;3;8.0;1;0;0;0;0;0;0;0;0;0;0;0;0;0;0;0;0
81;2022-05-01 11:40:15.730;5.174045033058011;52.3696270230892;26;-0.01;-0.02;9.33048916;-0.42378664;-0.32322711;0.01;0.0;0.0;11.37254906;13.33333302;1410.75;81;8.1;0.02628413340405221;0.08820890156821158;0.028820328238406856;9.867787451940105;0.7195216662556612;-0.5983706509174015;23.85432924672135;3;8.1;1;0;0;0;0;0;0;0;0;0;0;0;0;0;0;0;0
82;2022-05-01 11:40:15.831;5.174150829398913;52.369609451410646;26;0.03;0.02;9.90272045;0.06943397;-0.81405342;0.0;0.0;0.0;11.37254906;13.33333302;1410.75;82;8.200000000000001;0.026622063404618902;0.08200581715965521;0.027509813180739945;9.87096434426101;0.6604011004625717;-0.6179853696906188;24.049461795253126;3;8.200000000000001;1;0;0;0;0;0;0;0;0;0;0;0;0;0;0;0;0
83;2022-05-01 11:40:15.929;5.174150829398913;52.369609451410646;26;0.08;0.03;10.13017654;-0.11971374;-0.09098244;0.0;0.0;0.0;11.37254906;13.33333302;1410.75;83;8.3;0.031476221653520105;0.07727643864751857;0.026318519305888882;9.894536949318791;0.5894579143925184;-0.5700600323411383;24.22684259564151;3;8.3;1;0;0;0;0;0;0;0;0;0;0;0;0;0;0;0;0
84;2022-05-01 11:40:16.032;5.174150829398913;52.369609451410646;26;0.07;0.02;10.48213482;0.09337672;-0.10055954;0.0;0.0;0.0;11.37254906;13.33333302;1410.75;84;8.4;0.03497944523604407;0.07206791084455168;0.025235593834474865;9.94797113480022;0.5443459494286425;-0.5273652275381618;24.38808760070325;3;8.4;1;0;0;0;0;0;0;0;0;0;0;0;0;0;0;0;0
85;2022-05-01 11:40:16.129;5.174150829398913;52.369609451410646;26;0.0;0.0;9.51724243;-0.21548474;-0.11253092;0.03;0.0;0.0;11.37254906;13.33333302;1410.75;85;8.5;0.031798619134654225;0.06551447666799207;0.02152314863591775;9.90880318637791;0.475251391946032;-0.4896426226121783;24.534665483749656;3;8.5;1;0;0;0;0;0;0;0;0;0;0;0;0;0;0;0;0
86;2022-05-01 11:40:16.231;5.174150829398913;52.369609451410646;26;0.0;0.02;10.13017654;-0.16520496;-0.42857519;0.06;0.0;0.0;11.76470566;13.33333302;1345.75;86;8.6;0.028907111206419495;0.0613757601539932;0.015420419925491986;9.928933079578227;0.41701349766835083;-0.4840896467169886;24.66791109272758;3;8.6;1;0;0;0;0;0;0;0;0;0;0;0;0;0;0;0;0
87;2022-05-01 11:40:16.329;5.174150829398913;52.369609451410646;26;0.0;-0.03;9.84286404;-0.16759923;0.07901107;0.0;0.0;0.0;11.76470566;13.33333302;1345.75;87;8.700000000000001;0.026278593381135622;0.053066980606685944;0.015328538097795585;9.921106839068722;0.3638547795733088;-0.4328870114639706;24.78903766994332;3;8.700000000000001;1;0;0;0;0;0;0;0;0;0;0;0;0;0;0;0;0
88;2022-05-01 11:40:16.431;5.174150829398913;52.369609451410646;26;0.11;0.02;10.48213482;0.24421602;0.40463245;0.09;0.0;0.0;11.76470566;13.33333302;1345.75;88;8.8;0.03389120645014537;0.05006026895568474;0.007061500312345377;9.97211994446434;0.35297627643451096;-0.3567331118177834;24.899147951556657;3;8.8;1;0;0;0;0;0;0;0;0;0;0;0;0;0;0;0;0
89;2022-05-01 11:40:16.529;5.174150829398913;52.369609451410646;26;0.07;0.02;10.18524456;0.04309694;0.58420306;0.1;0.0;0.0;11.76470566;13.33333302;1345.75;89;8.9;0.03717444200560595;0.04732700278588746;-0.0013629535214289019;9.99149855689304;0.3248001244431794;-0.2711773568057596;24.99924425030894;3;8.9;1;0;0;0;0;0;0;0;0;0;0;0;0;0;0;0;0
90;2022-05-01 11:40:16.629;5.174150829398913;52.369609451410646;26;-0.01;-0.02;9.31133461;-0.10295381;0.16281068;-0.01;0.0;0.0;11.76470566;10.98039246;1345.75;90;9.0;0.03288512243972307;0.04120531871112002;0.0009804386766375794;9.929654888979178;0.2859067482338228;-0.2317171470292702;25.09023761526087;3;9.0;1;0;0;0;0;0;0;0;0;0;0;0;0;0;0;0;0
91;2022-05-01 11:40:16.729;5.174150829398913;52.369609451410646;26;0.0;-0.02;8.40629864;0.0191542;-1.13249195;0.04;0.0;0.0;11.76470566;10.98039246;1287.0;91;9.1;0.029895100753261128;0.035640333188913;-0.0014354360858377432;9.791146412113873;0.2616527438401924;-0.3136185053239741;25.172956153556825;3;9.1;1;0;0;0;0;0;0;0;0;0;0;0;0;0;0;0;0
92;2022-05-01 11:40:16.828;5.174257899624196;52.36959359247332;25;0.06;-0.08;11.1597147;0.29449579;-0.49561489;-0.23999999;0.0;0.0;10.1960783;10.98039246;1287.0;92;9.200000000000001;0.03263229684273178;0.025126088806445446;0.02182652394238468;9.91557930707469;0.26463889758142;-0.3301659711816112;25.1572306431246;3;9.200000000000001;1;0;0;0;0;0;0;0;0;0;0;0;0;0;0;0;0
93;2022-05-01 11:40:16.930;5.174257899624196;52.36959359247332;25;0.06;0.02;10.11820507;0.10774237;-0.66081983;-0.01;0.0;0.0;10.1960783;10.98039246;1287.0;93;9.3;0.03512058973850745;0.024660020817952013;0.02206141105253001;9.934002199324393;0.250373743041075;-0.36022927766848023;25.142935110538726;3;9.3;1;0;0;0;0;0;0;0;0;0;0;0;0;0;0;0;0
94;2022-05-01 11:40:17.029;5.174257899624196;52.36959359247332;25;0.02;-0.13;10.4222784;-0.6440599;-0.45012367;0.1;0.0;0.0;10.1960783;10.98039246;1287.0;94;9.4;0.03374583000620969;0.01059837557171029;0.012273770733108973;9.97839613306222;0.16905208979009273;-0.3684024503339631;25.12993949081103;3;9.4;1;0;0;0;0;0;0;0;0;0;0;0;0;0;0;0;0
95;2022-05-01 11:40:17.130;5.174257899624196;52.36959359247332;25;0.0;-0.09;10.90831566;-1.33600533;1.0175668;0.01;0.0;0.0;10.1960783;10.98039246;1287.0;95;9.5;0.030677701309749738;0.0014520969692274116;0.01155880197843236;10.062943254453849;0.03221414985415878;-0.24239185795623128;25.118125554674698;3;9.5;1;0;0;0;0;0;0;0;0;0;0;0;0;0;0;0;0
96;2022-05-01 11:40:17.231;5.174257899624196;52.36959359247332;25;0.05;-0.13;9.51963711;-0.4836435;0.33759275;0.06;0.0;0.0;10.1960783;10.98039246;1287.0;96;9.600000000000001;0.03243444359285127;-0.01049924798460703;0.006362949957374388;10.013547015842109;-0.014686530033242705;-0.18966089148696283;25.107385830590182;3;9.600000000000001;1;0;0;0;0;0;0;0;0;0;0;0;0;0;0;0;0
97;2022-05-01 11:40:17.330;5.174257899624196;52.36959359247332;25;-0.01;-0.16;9.31612301;-1.75260913;-0.5602603;0.0;0.0;0.0;10.1960783;10.98039246;1252.75;97;9.700000000000001;0.028576428151412574;-0.02409141889454326;0.007094559654430425;9.950139266006026;-0.17269336738050034;-0.22335470527534987;25.097622625101174;3;9.700000000000001;1;0;0;0;0;0;0;0;0;0;0;0;0;0;0;0;0
98;2022-05-01 11:40:17.429;5.174257899624196;52.36959359247332;24;0.13;-0.06;9.05754185;-2.26498389;0.72546524;-0.07;0.0;0.0;10.1960783;10.98039246;1252.75;98;9.8;0.03779748891108346;-0.02735609595266639;0.014123792593480167;9.868987568654997;-0.3629167807775376;-0.13709146088446064;24.997830784478985;3;9.8;1;0;0;0;0;0;0;0;0;0;0;0;0;0;0;0;0
99;2022-05-01 11:40:17.529;5.174257899624196;52.36959359247332;24;0.06;-0.23;9.96257782;-1.38149655;-0.56504887;0.16;0.0;0.0;10.1960783;10.98039246;1252.75;99;9.9;0.039816045488078974;-0.045779605963071866;-0.0003967013323277306;9.877496390771492;-0.45552166155541296;-0.17599950328491537;24.907112311929993;3;9.9;1;0;0;0;0;0;0;0;0;0;0;0;0;0;0;0;0
100;2022-05-01 11:40:17.627;5.174257899624196;52.36959359247332;24;-0.11;-0.18000001;8.93782806;-1.07263517;-0.42378664;0.0;0.0;0.0;10.1960783;10.98039246;1252.75;100;10.0;0.026195506458102997;-0.05798226587074906;0.0009494466835152249;9.79206636134568;-0.5116265907725157;-0.1985270927414289;24.82464211583743;3;10.0;1;0;0;0;0;0;0;0;0;0;0;0;0;0;0;0;0
101;2022-05-01 11:40:17.728;5.174257899624196;52.36959359247332;24;0.16;-0.14;11.06154919;-1.58261561;0.60814577;0.11;0.0;0.0;10.1960783;10.98039246;1252.75;101;10.100000000000001;0.038360280867336435;-0.06543887070387759;-0.007827397558776076;9.907480812820284;-0.6089950682339177;-0.12518879790884652;24.749670154567877;3;10.100000000000001;1;0;0;0;0;0;0;0;0;0;0;0;0;0;0;0;0
102;2022-05-01 11:40:17.829;5.17435787389915;52.369576211417446;24;0.0;-0.15000001;10.4366436;-1.71190643;-0.08858817;0.07;0.0;0.0;10.1960783;10.98039246;1252.75;102;10.200000000000001;0.03487279246986088;-0.0731266661397982;-0.012169693612277108;9.955589143597301;-0.7092652041827492;-0.12186128668404965;24.681514606514646;3;10.200000000000001;1;0;0;0;0;0;0;0;0;0;0;0;0;0;0;0;0
103;2022-05-01 11:40:17.930;5.17435787389915;52.369576211417446;23;0.12;-0.27000001;11.14295483;-2.60497093;0.65842557;0.0;0.0;0.0;10.1960783;10.98039246;1214.0;103;10.3;0.04261201309983633;-0.0910251299623743;-0.009753242607365422;10.063536828974849;-0.881610630366418;-0.050922601934994975;24.528642065409194;3;10.3;1;0;0;0;0;0;0;0;0;0;0;0;0;0;0;0;0
104;2022-05-01 11:40:18.031;5.17435787389915;52.369576211417446;23;-0.01;-0.30000001;9.0383873;-2.64327931;0.23942748;0.1;0.0;0.0;10.5882349;10.98039246;1214.0;104;10.4;0.03782888730186251;-0.11002370235951302;-0.016647808477471056;9.970337217899036;-1.041769544891285;-0.024525950571137413;24.389668343095014;3;10.4;1;0;0;0;0;0;0;0;0;0;0;0;0;0;0;0;0
105;2022-05-01 11:40:18.131;5.17435787389915;52.369576211417446;23;0.0;-0.25;9.46217442;-2.69116497;0.48124924;0.09;0.0;0.0;10.5882349;10.98039246;1214.0;105;10.5;0.034389756675353884;-0.1227493415875266;-0.022006413566688615;9.92413870755002;-1.1917207257560554;0.021455495674990895;24.263329682343755;3;10.5;1;0;0;0;0;0;0;0;0;0;0;0;0;0;0;0;0
106;2022-05-01 11:40:18.231;5.17435787389915;52.369576211417446;23;0.09;-0.08;9.48372269;-1.36952519;-0.66321415;0.04;0.0;0.0;10.5882349;10.98039246;1214.0;106;10.600000000000001;0.039445421602495;-0.1188628930844925;-0.02233221082892587;9.884099396801457;-1.2078853698939964;-0.04078951724663187;24.14847725256467;3;10.600000000000001;1;0;0;0;0;0;0;0;0;0;0;0;0;0;0;0;0
107;2022-05-01 11:40:18.331;5.17435787389915;52.369576211417446;23;0.03;-0.22;10.70480251;-4.42461967;0.14126222;-0.07;1.96078301;1.1764707600000008;10.5882349;10.98039246;1214.0;107;10.700000000000001;0.03858671784213984;-0.12805748679080714;-0.012628049516738087;9.958711296523605;-1.5003256606307103;-0.024238799032891188;24.044066695051903;3;10.700000000000001;1;0;0;0;0;0;0;0;0;0;0;0;0;0;0;0;0
108;2022-05-01 11:40:18.430;5.17435787389915;52.369576211417446;23;0.19;-0.2;9.81892109;-2.74623322;-0.3423813;0.03;1.96078301;1.1764707600000008;10.5882349;14.90196037;1214.0;108;10.8;0.052351985300053035;-0.1345979165457511;-0.012897330575054091;9.946002704824311;-1.6135934700206;-0.05316173467717553;23.949148619857514;3;10.8;1;0;0;0;0;0;0;0;0;0;0;0;0;0;0;0;0
109;2022-05-01 11:40:18.530;5.17435787389915;52.369576211417446;23;-0.03;-0.11;9.16049576;-1.32882249;-0.22027329;0.02;1.96078301;1.1764707600000008;10.5882349;14.90196037;1364.5;109;10.9;0.044865231723278484;-0.13236167975061963;-0.012233013755217252;9.874590984665808;-1.5877044748073972;-0.06835411929273752;23.862859967571623;3;10.9;1;0;0;0;0;0;0;0;0;0;0;0;0;0;0;0;0
110;2022-05-01 11:40:18.629;5.17435787389915;52.369576211417446;23;0.04;-0.08;9.26823807;-3.59859514;-0.50758624;0.15000001;1.96078301;1.1764707600000008;16.07843208;14.90196037;1364.5;110;11.0;0.044422926680737156;-0.12760140597397276;-0.02344757591594905;9.819466590398397;-1.7705173667316112;-0.10828532768830153;23.784416157210458;3;11.0;1;0;0;0;0;0;0;0;0;0;0;0;0;0;0;0;0
111;2022-05-01 11:40:18.729;5.17435787389915;52.369576211417446;23;-0.06;-0.23999999;8.73670864;-2.15724158;-0.0383084;-0.02;1.96078301;1.1764707600000008;16.07843208;14.90196037;1364.5;111;11.100000000000001;0.03492971384715807;-0.13781969533119717;-0.018187679215067337;9.721031773475401;-1.8056749262939835;-0.10192364171472153;23.71310394860646;3;11.100000000000001;1;0;0;0;0;0;0;0;0;0;0;0;0;0;0;0;0
112;2022-05-01 11:40:18.830;5.174445034370475;52.36954619286207;23;-0.16;-0.28;9.15331268;-1.6017698;-0.82123625;-0.13;3.1372547200000014;1.1764707600000008;16.07843208;14.90196037;1364.5;112;11.200000000000001;0.01720845827461323;-0.15074544926932557;-0.0034057658477220833;9.669419861928763;-1.7871377069840482;-0.16731707156386247;23.648274954228746;3;11.200000000000001;1;0;0;0;0;0;0;0;0;0;0;0;0;0;0;0;0
113;2022-05-01 11:40:18.930;5.174445034370475;52.36954619286207;23;0.03;-0.17;9.80934429;-1.86514008;-0.56744313;0.0;3.1372547200000014;1.5686273600000007;16.07843208;12.94117641;1364.5;113;11.3;0.018371347925644016;-0.15249589642109543;-0.0017861243666718579;9.682140507557232;-1.7942289673093044;-0.20369286288381416;23.589339741298247;3;11.3;1;0;0;0;0;0;0;0;0;0;0;0;0;0;0;0;0
114;2022-05-01 11:40:19.029;5.174445034370475;52.36954619286207;23;0.04;-0.20999999;9.81892109;-2.23864698;0.33998701;0.0;3.1372547200000014;1.5686273600000007;16.07843208;12.94117641;1364.5;114;11.4;0.020337623180768982;-0.157723632106328;-0.00031372839174613476;9.694575321974432;-1.8346313066821587;-0.15426656127769514;23.535762470454337;3;11.4;1;0;0;0;0;0;0;0;0;0;0;0;0;0;0;0;0
115;2022-05-01 11:40:19.130;5.174445034370475;52.36954619286207;22;0.05;-0.20999999;9.40950012;-2.10217333;-0.74222517;0.08;3.1372547200000014;1.5686273600000007;16.07843208;12.94117641;1510.25;115;11.5;0.02303424547778399;-0.1624761033314733;-0.006248033164039947;9.668658985240691;-1.8589536929111563;-0.20771818801903438;23.396145495523957;3;11.5;1;0;0;0;0;0;0;0;0;0;0;0;0;0;0;0;0
116;2022-05-01 11:40:19.229;5.174445034370475;52.36954619286207;22;-0.06;-0.20999999;9.77342987;-1.60416412;-0.47167215;0.0;3.1372547200000014;1.5686273600000007;11.76470566;12.94117641;1510.25;116;11.600000000000001;0.015485569332695322;-0.16679651869205592;-0.004370007732258862;9.678183747872442;-1.8357906719192167;-0.23171434725119666;23.269221355532167;3;11.600000000000001;1;0;0;0;0;0;0;0;0;0;0;0;0;0;0;0;0
117;2022-05-01 11:40:19.328;5.174445034370475;52.36954619286207;22;0.05;-0.12;9.95539474;-1.3934679;-0.26815879;0.02;3.1372547200000014;1.5686273600000007;11.76470566;12.94117641;1510.25;117;11.700000000000001;0.01862328580006814;-0.1625422341949085;-0.004480922113297996;9.703385076073964;-1.7955789860095417;-0.23502752165234564;23.153836089978096;3;11.700000000000001;1;0;0;0;0;0;0;0;0;0;0;0;0;0;0;0;0
118;2022-05-01 11:40:19.428;5.174445034370475;52.36954619286207;22;0.0;-0.22;10.11341667;-1.94893968;-0.56504887;0.0;3.1372547200000014;1.5686273600000007;11.76470566;12.94117641;1510.25;118;11.8;0.016930239730126164;-0.16776572942707643;-0.002763549726247016;9.740661117804795;-1.8095210327048228;-0.26502981839070655;23.048940655387952;3;11.8;1;0;0;0;0;0;0;0;0;0;0;0;0;0;0;0;0
119;2022-05-01 11:40:19.529;5.174445034370475;52.36954619286207;22;0.04;-0.18000001;9.81173801;-2.14287591;-0.32322711;-0.02;0.0;0.0;11.76470566;15.29411793;1510.25;119;11.9;0.019027513285848147;-0.16887794874876497;0.0006158957919322906;9.747122723156567;-1.8398263484360446;-0.27032053833226577;22.953581385402835;3;11.9;1;0;0;0;0;0;0;0;0;0;0;0;0;0;0;0;0
120;2022-05-01 11:40:19.630;5.174445034370475;52.36954619286207;22;0.01;-0.20999999;9.68244743;-1.88429427;-0.33759275;0.05;0.0;0.0;11.76470566;15.29411793;1510.25;120;12.0;0.01820682221229116;-0.17261635279345755;-0.0026755861012826964;9.741243093396676;-1.8438689264009402;-0.2764362539081923;22.86689131847853;3;12.0;1;0;0;0;0;0;0;0;0;0;0;0;0;0;0;0;0
121;2022-05-01 11:40:19.729;5.174445034370475;52.36954619286207;22;0.04;-0.23;9.88356686;-2.43737173;-0.38308397;0.01;0.0;0.0;11.76470566;15.29411793;1386.0;121;12.100000000000001;0.02018803785435261;-0.17783309449820597;-0.002031440713538021;9.754181732973628;-1.897824207707412;-0.2861315872537673;22.7880823142632;3;12.100000000000001;1;0;0;0;0;0;0;0;0;0;0;0;0;0;0;0;0
122;2022-05-01 11:40:19.829;5.174510945127726;52.36950399424502;22;0.02;-0.18000001;9.38795185;-2.11414456;-0.43096948;0.02;0.0;0.0;18.03921509;15.29411793;1386.0;122;12.200000000000001;0.020170943365423084;-0.17803008841299064;-0.00235495327041846;9.72088783743484;-1.9174898536499676;-0.2992987751194782;22.71643788690517;3;12.200000000000001;1;0;0;0;0;0;0;0;0;0;0;0;0;0;0;0;0
123;2022-05-01 11:40:19.930;5.174510945127726;52.36950399424502;22;0.04;-0.14;9.90990353;-1.87471712;-0.21069619;0.0;0.0;0.0;18.03921509;15.29411793;1386.0;123;12.3;0.02197359815831581;-0.17457278217723818;-0.0008308599265069647;9.73807120880816;-1.9136013946707953;-0.29124393531182946;22.651306690074176;3;12.3;1;0;0;0;0;0;0;0;0;0;0;0;0;0;0;0;0
124;2022-05-01 11:40:20.034;5.174510945127726;52.36950399424502;22;0.05;-0.15000001;10.04637718;-1.72148359;0.01675992;0.06;0.0;0.0;18.03921509;15.29411793;1386.0;124;12.4;0.024521469935631583;-0.17233887883586538;-0.004899904458443646;9.766099212089312;-1.8961360227259547;-0.26324339729462737;22.592096594415416;3;12.4;1;0;0;0;0;0;0;0;0;0;0;0;0;0;0;0;0
125;2022-05-01 11:40:20.134;5.174510945127726;52.36950399424502;22;0.02;-0.19;9.69681263;-2.06625915;-0.34956414;0.01;0.0;0.0;18.03921509;20.3921566;1386.0;125;12.5;0.024110424711496225;-0.17394444508107793;-0.004053548899959984;9.759800393548014;-1.9116018557352372;-0.27109078532064207;22.53826930355071;3;12.5;1;0;0;0;0;0;0;0;0;0;0;0;0;0;0;0;0
126;2022-05-01 11:40:20.233;5.174510945127726;52.36950399424502;21;0.05;-0.17;9.96257782;-2.01597929;0.21548474;0.04;0.0;0.0;18.03921509;20.3921566;1318.5;126;12.600000000000001;0.026464035492572997;-0.17358585717978034;-0.00601142347344648;9.778234807080796;-1.921090765918162;-0.2268564018114122;22.398425865537877;3;12.600000000000001;1;0;0;0;0;0;0;0;0;0;0;0;0;0;0;0;0
127;2022-05-01 11:40:20.333;5.174510945127726;52.36950399424502;21;0.04;-0.2;10.2714386;-2.09499049;-0.0095771;0.08;0.0;0.0;18.03921509;20.3921566;1318.5;127;12.700000000000001;0.02769458391257878;-0.17598715497391934;-0.01142768950296647;9.823071741145197;-1.9368999112946097;-0.2071036386154619;22.271295601684965;3;12.700000000000001;1;0;0;0;0;0;0;0;0;0;0;0;0;0;0;0;0
128;2022-05-01 11:40:20.432;5.174510945127726;52.36950399424502;21;0.02;-0.18000001;9.82610416;-1.58261561;-0.12210801;0.05;0.0;0.0;18.03921509;20.3921566;1318.5;128;12.8;0.026995073084250372;-0.17635196164509837;-0.013624277778262183;9.823347416847621;-1.9046921002059285;-0.19937672794003206;22.155722745571047;3;12.8;1;0;0;0;0;0;0;0;0;0;0;0;0;0;0;0;0
129;2022-05-01 11:40:20.532;5.174510945127726;52.36950399424502;21;0.03;-0.16;9.78300667;-1.80049467;0.45251793;0.09;0.0;0.0;18.03921509;20.3921566;1318.5;129;12.9;0.027268249394450324;-0.1748654134953492;-0.019257553225163357;9.819680060973912;-1.8952195671580252;-0.14011333076330226;22.050656604496368;3;12.9;1;0;0;0;0;0;0;0;0;0;0;0;0;0;0;0;0
130;2022-05-01 11:40:20.637;5.174510945127726;52.36950399424502;21;0.01;-0.11;9.90990353;-0.94573855;0.35195839;0.07;0.0;0.0;18.03921509;16.47058868;1318.5;130;13.0;0.025698402605480584;-0.16896853542943513;-0.02256051996454582;9.827882225530663;-1.8089027847253902;-0.09537936884638996;21.95514200662355;3;13.0;1;0;0;0;0;0;0;0;0;0;0;0;0;0;0;0;0
131;2022-05-01 11:40:20.740;5.174510945127726;52.36950399424502;21;0.04;-0.13;9.74230385;-1.56585574;0.52434617;0.09;0.0;0.0;18.03921509;16.47058868;1318.5;131;13.100000000000001;0.026998552291634868;-0.16542592912394036;-0.02738140290024685;9.82010234647111;-1.7868075229022922;-0.039040489866221065;21.868310616682432;3;13.100000000000001;1;0;0;0;0;0;0;0;0;0;0;0;0;0;0;0;0
132;2022-05-01 11:40:20.829;5.174555195246931;52.369454147985806;20;0.1;-0.14;9.921875;-1.8268317;0.13886794;0.08;0.0;0.0;18.03921509;16.47058868;1276.25;132;13.200000000000001;0.03363506827327857;-0.1631144737997491;-0.03085492712578683;9.829354434790467;-1.7904460958251498;-0.022866945708671156;21.698463666306587;3;13.200000000000001;1;0;0;0;0;0;0;0;0;0;0;0;0;0;0;0;0
133;2022-05-01 11:40:20.929;5.174555195246931;52.369454147985806;20;0.06;-0.12;10.10862827;-1.350371;0.64645422;0.11;0.0;0.0;16.47058868;16.47058868;1276.25;133;13.3;0.03603188705636987;-0.15919496504859987;-0.03673995501202942;9.854743037377961;-1.7504391552960612;0.03798060582377505;21.544057439884398;3;13.3;1;0;0;0;0;0;0;0;0;0;0;0;0;0;0;0;0
134;2022-05-01 11:40:21.034;5.174555195246931;52.369454147985806;20;0.0;-0.14;10.05356026;-1.20671451;0.71588814;0.1;0.0;0.0;16.47058868;16.47058868;1276.25;134;13.4;0.03275625250203892;-0.1574499637200821;-0.04118088420551326;9.872817377014906;-1.7010095144508075;0.09960872261141274;21.403688219253667;3;13.4;1;0;0;0;0;0;0;0;0;0;0;0;0;0;0;0;0
135;2022-05-01 11:40:21.129;5.174555195246931;52.369454147985806;20;0.03;-0.11;9.5866766;-0.99841261;0.1340794;0.08;0.0;0.0;16.47058868;16.47058868;1276.25;135;13.5;0.03250568350456653;-0.1531363205285941;-0.0433999044867601;9.84680451804079;-1.637136918654447;0.10274242791202032;21.276079899768423;3;13.5;1;0;0;0;0;0;0;0;0;0;0;0;0;0;0;0;0
136;2022-05-01 11:40:21.233;5.174555195246931;52.369454147985806;20;0.03;-0.1;10.16369629;-1.50599885;0.69912827;0.07;0.0;0.0;16.47058868;16.47058868;1276.25;136;13.600000000000001;0.032277893608948206;-0.14830573562643418;-0.04450810189835357;9.8756129224244;-1.6252152506082058;0.15695943834844772;21.160072388588684;3;13.600000000000001;1;0;0;0;0;0;0;0;0;0;0;0;0;0;0;0;0
137;2022-05-01 11:40:21.333;5.174555195246931;52.369454147985806;20;0.03;-0.18000001;9.7662468;-1.94175684;0.78292787;0.12;0.0;0.0;16.47058868;18.8235302;1276.25;137;13.700000000000001;0.032070811970025585;-0.151187038886586;-0.05006101704407736;9.865670528369959;-1.6539918145622587;0.21386576980792482;21.05461105775473;3;13.700000000000001;1;0;0;0;0;0;0;0;0;0;0;0;0;0;0;0;0
138;2022-05-01 11:40:21.431;5.174555195246931;52.369454147985806;18;0.01;-0.19;10.05595398;-2.05428767;0.70631105;0.16;0.0;0.0;16.47058868;18.8235302;1162.75;138;13.8;0.030064370979509893;-0.1547154961199224;-0.058745489902049204;9.882969054481542;-1.6903824110557006;0.25863360150823805;20.776918653656267;3;13.8;1;0;0;0;0;0;0;0;0;0;0;0;0;0;0;0;0
139;2022-05-01 11:40:21.529;5.174555195246931;52.369454147985806;18;0.13;-0.11;9.96975994;-1.37670803;1.1420691;0.13;0.0;0.0;21.1764698;18.8235302;1162.75;139;13.9;0.03914944272959778;-0.15065044450047468;-0.06391318546922453;9.890859147633677;-1.6618665125119374;0.33894604832064273;20.52447109856606;3;13.9;1;0;0;0;0;0;0;0;0;0;0;0;0;0;0;0;0
140;2022-05-01 11:40:21.628;5.174555195246931;52.369454147985806;18;0.01;-0.15000001;10.0487709;-2.0351336;1.17798316;0.16;0.0;0.0;21.1764698;18.8235302;1162.75;140;14.0;0.036499489528033606;-0.1505913140051534;-0.07133836579479153;9.905214782409598;-1.6957999335623226;0.4152222605608259;20.294973391458655;3;14.0;1;0;0;0;0;0;0;0;0;0;0;0;0;0;0;0;0
141;2022-05-01 11:40:21.730;5.174555195246931;52.369454147985806;18;0.07;-0.25999999;10.17087936;-2.72707891;0.08379962;0.05;0.0;0.0;21.1764698;21.96078491;1162.75;141;14.100000000000001;0.03954499451553679;-0.1605375704568948;-0.06808851459807674;9.92936613964732;-1.7895526920128646;0.38509288967723576;20.08633917032572;3;14.100000000000001;1;0;0;0;0;0;0;0;0;0;0;0;0;0;0;0;0
142;2022-05-01 11:40:21.829;5.174573854154557;52.36940833907588;17;0.05;-0.23999999;9.83568096;-2.78214741;-0.23942748;0.07;0.0;0.0;21.1764698;21.96078491;1080.75;142;14.200000000000001;0.04049545070450676;-0.16776143548092648;-0.06695228917499901;9.920849294874461;-1.8797886841653084;0.3283182422244304;19.805762544129223;3;14.200000000000001;1;0;0;0;0;0;0;0;0;0;0;0;0;0;0;0;0
143;2022-05-01 11:40:21.929;5.174573854154557;52.36940833907588;17;0.0;-0.27000001;9.71117878;-2.85876417;0.17717634;0.04;0.0;0.0;23.52941132;21.96078491;1080.75;143;14.3;0.03681404206349964;-0.17705586152461242;-0.06319208149583623;9.901788318103128;-1.9687865530662931;0.31457805424807217;19.55069294260922;3;14.3;1;0;0;0;0;0;0;0;0;0;0;0;0;0;0;0;0
144;2022-05-01 11:40:22.029;5.174573854154557;52.36940833907588;17;0.06;-0.28;10.19721603;-2.22188711;-0.18196489;0.03;0.0;0.0;23.52941132;21.96078491;1080.75;144;14.4;0.038921858519788265;-0.18641442888469917;-0.058864619778943396;9.928645409558452;-1.9917957175123668;0.2694377416499692;19.318811535160137;3;14.4;1;0;0;0;0;0;0;0;0;0;0;0;0;0;0;0;0
145;2022-05-01 11:40:22.129;5.174573854154557;52.36940833907588;17;0.02;-0.18000001;9.65850449;-1.9537282;-0.58420306;0.0;0.0;0.0;23.52941132;21.96078491;1080.75;145;14.5;0.03720168800662006;-0.1858312993674253;-0.052203289224811635;9.904087121917804;-1.9883350309700905;0.19183396217450713;19.108010295725578;3;14.5;1;0;0;0;0;0;0;0;0;0;0;0;0;0;0;0;0
146;2022-05-01 11:40:22.230;5.174573854154557;52.36940833907588;17;0.07;-0.09;9.11739826;-1.92978549;-0.2083019;0.08;0.0;0.0;23.52941132;20.3921566;1080.75;146;14.600000000000001;0.04018335518649939;-0.17711935589342226;-0.053420268478388204;9.83256989381075;-1.9830123410480374;0.15545794477521976;18.91637283844176;3;14.600000000000001;1;0;0;0;0;0;0;0;0;0;0;0;0;0;0;0;0
147;2022-05-01 11:40:22.327;5.174573854154557;52.36940833907588;17;0.01;-0.12;9.57709885;-1.18995464;-0.41181526;0.01;0.0;0.0;23.52941132;20.3921566;1051.75;147;14.700000000000001;0.03743941175352865;-0.17192668329188923;-0.04816297195715808;9.809345236093034;-1.910916132481702;0.10388761485909886;18.742156995548395;3;14.700000000000001;1;0;0;0;0;0;0;0;0;0;0;0;0;0;0;0;0
148;2022-05-01 11:40:22.428;5.174573854154557;52.36940833907588;17;0.05;-0.15000001;10.10862827;-1.45571911;-0.11971374;0.0;0.0;0.0;23.52941132;20.3921566;1051.75;148;14.8;0.03858128418873805;-0.16993334800085425;-0.04247452063852968;9.836552803130367;-1.8695345568451252;0.0835602051407833;18.58377897916984;3;14.8;1;0;0;0;0;0;0;0;0;0;0;0;0;0;0;0;0
149;2022-05-01 11:40:22.528;5.174573854154557;52.36940833907588;16;0.06;-0.05;10.13017654;-0.66321415;-0.14605077;0.03;0.0;0.0;23.52941132;20.3921566;1051.75;149;14.9;0.04052844137522456;-0.15903030962464773;-0.040030476342411164;9.863245886618973;-1.7598689975234612;0.06268646722478412;18.348889835865645;3;14.9;1;0;0;0;0;0;0;0;0;0;0;0;0;0;0;0;0
150;2022-05-01 11:40:22.630;5.174573854154557;52.36940833907588;16;-0.02;-0.02;11.1645031;-1.29769695;0.51955765;-0.04;0.0;0.0;24.70588303;20.3921566;1051.75;150;15.0;0.035025852703430095;-0.14639118346519234;-0.03144497821385865;9.981542063403927;-1.7178533332284343;0.10422023445370959;18.13535427624329;3;15.0;1;0;0;0;0;0;0;0;0;0;0;0;0;0;0;0;0
151;2022-05-01 11:40:22.728;5.174573854154557;52.36940833907588;16;0.13;-0.06;10.24270725;-0.95052707;-0.4668836;-0.02;0.0;0.0;24.70588303;20.3921566;1051.75;151;15.100000000000001;0.043659870504902824;-0.13853743550155356;-0.025458163499559032;10.005284365223748;-1.6480963645708055;0.05230167752510479;17.941231061049113;3;15.100000000000001;1;0;0;0;0;0;0;0;0;0;0;0;0;0;0;0;0
152;2022-05-01 11:40:22.829;5.174565330195188;52.36936534448236;16;0.14;0.02;9.2035923;0.78292787;-0.27055305;0.03;0.0;0.0;24.70588303;20.3921566;1051.75;152;15.200000000000001;0.0524180681629257;-0.12412493467146779;-0.024561061855686524;9.932403234537126;-1.4270940587881626;0.022951234118903183;17.764755428084275;3;15.200000000000001;1;0;0;0;0;0;0;0;0;0;0;0;0;0;0;0;0
153;2022-05-01 11:40:22.930;5.174565330195188;52.36936534448236;16;0.03;0.07;9.79018974;0.55786604;-0.67757976;-0.01;0.0;0.0;24.70588303;20.3921566;1051.75;153;15.3;0.05038006110583316;-0.10647720588668524;-0.020109149807354745;9.919474729575233;-1.246643064528653;-0.040733428598263816;17.604323048704412;3;15.3;1;0;0;0;0;0;0;0;0;0;0;0;0;0;0;0;0
154;2022-05-01 11:40:23.030;5.174565330195188;52.36936534448236;16;0.08;0.07;9.71117878;0.03112557;-2.01597929;-0.03;0.0;0.0;24.70588303;20.3921566;1051.75;154;15.4;0.053072783857020286;-0.09043381737548895;-0.014243774846314871;9.900538726891183;-1.1304822349860166;-0.22030130310296533;17.458475442842165;3;15.4;1;0;0;0;0;0;0;0;0;0;0;0;0;0;0;0;0
155;2022-05-01 11:40:23.133;5.174565330195188;52.36936534448236;16;0.0;0.02;9.45499134;0.71588814;-1.59458697;-0.08;0.0;0.0;24.70588303;20.3921566;1051.75;155;15.5;0.04824798364103548;-0.08039437592917774;-0.004366160050031485;9.860034404858721;-0.9626303241456149;-0.345236407323856;17.32588671995567;3;15.5;1;0;0;0;0;0;0;0;0;0;0;0;0;0;0;0;0
156;2022-05-01 11:40:23.230;5.174565330195188;52.36936534448236;16;0.0;0.02;8.99289608;0.36153549;-1.58500993;-0.1;9.41176415;4.705882070000001;24.70588303;20.3921566;1051.75;156;15.600000000000001;0.04386180191868655;-0.07126761158595935;0.006431671561527488;9.78120362304738;-0.8422515755832608;-0.4579431269553325;17.205351525360957;3;15.600000000000001;1;0;0;0;0;0;0;0;0;0;0;0;0;0;0;0;0
157;2022-05-01 11:40:23.328;5.174565330195188;52.36936534448236;16;0.02;0.03;9.69441891;0.17957062;-2.15724158;-0.17;9.41176415;4.705882070000001;24.70588303;49.01960754;1051.75;157;15.700000000000001;0.041692546573249625;-0.06206146242333297;0.02261151972177779;9.773314101404306;-0.7493586219241646;-0.6124248490533234;17.095774082365246;3;15.700000000000001;1;0;0;0;0;0;0;0;0;0;0;0;0;0;0;0;0
158;2022-05-01 11:40:23.430;5.174565330195188;52.36936534448236;16;0.07;0.02;8.72234344;-0.65603131;-1.19474316;-0.12;9.41176415;4.705882070000001;24.70588303;49.01960754;1911.0;158;15.8;0.0442659521048657;-0.05460132752002344;0.03277501604787589;9.677771288956606;-0.7408743186159218;-0.6653628911993326;16.99615823058059;3;15.8;1;0;0;0;0;0;0;0;0;0;0;0;0;0;0;0;0
159;2022-05-01 11:40:23.530;5.174565330195188;52.36936534448236;17;0.0;0.0;8.66248608;-0.00239427;-1.40543926;-0.04;9.41176415;4.705882070000001;24.70588303;49.01960754;1911.0;159;15.9;0.040241773681722964;-0.04963756928975879;0.034741828694083175;9.585472611599792;-0.6737397527418731;-0.7326425771247621;16.996507482429227;3;15.9;1;0;0;0;0;0;0;0;0;0;0;0;0;0;0;0;0
160;2022-05-01 11:40:23.630;5.174565330195188;52.36936534448236;17;-0.08;-0.03;9.46217442;0.2083019;-1.81964886;-0.18000001;9.41176415;4.705882070000001;31.76470566;49.01960754;1911.0;160;16.0;0.02931070097870038;-0.04785233533117469;0.049257116503132095;9.574263682662199;-0.5935541305741824;-0.8314613515234441;16.99682498409536;3;16.0;1;0;0;0;0;0;0;0;0;0;0;0;0;0;0;0;0
161;2022-05-01 11:40:23.730;5.174565330195188;52.36936534448236;17;0.02;0.03;9.72315025;0.19633053;-0.76137936;-0.02;9.41176415;4.705882070000001;31.76470566;49.01960754;1911.0;161;16.1;0.028464273450285304;-0.040774848907063795;0.047907373827906864;9.587798827813378;-0.5217464200148739;-0.8250902601300789;16.997113621961724;3;16.1;1;0;0;0;0;0;0;0;0;0;0;0;0;0;0;0;0
162;2022-05-01 11:40:23.828;5.174545772180471;52.36932161155319;17;0.01;-0.02;9.77582359;-0.39505535;-1.69035804;-0.16;9.41176415;4.705882070000001;31.76470566;49.01960754;1911.0;162;16.2;0.026785702836062485;-0.03888622594097695;0.0594076100845725;9.60489199107282;-0.5102290479512508;-0.9037509814757665;16.997376020012187;3;16.2;1;0;0;0;0;0;0;0;0;0;0;0;0;0;0;0;0
163;2022-05-01 11:40:23.930;5.174545772180471;52.36932161155319;17;0.12;0.08;10.17806244;0.02154847;-1.61613548;-0.09;9.41176415;4.705882070000001;31.76470566;47.45098114;1911.0;163;16.3;0.03525973123036376;-0.02807838545977539;0.06349873256101667;9.656998404002602;-0.4618856293590937;-0.9685132191562961;16.997614563686273;3;16.3;1;0;0;0;0;0;0;0;0;0;0;0;0;0;0;0;0
164;2022-05-01 11:40:24.030;5.174545772180471;52.36932161155319;17;0.01;0.02;9.83807564;0.58180881;-1.54430723;-0.12;9.41176415;4.705882070000001;31.76470566;47.45098114;1911.0;164;16.400000000000002;0.032963391687788016;-0.023707622498459;0.06994520782760955;9.67345997334746;-0.3670043026494195;-1.0208581369790675;16.997831421565067;3;16.400000000000002;1;0;0;0;0;0;0;0;0;0;0;0;0;0;0;0;0
165;2022-05-01 11:40:24.129;5.174545772180471;52.36932161155319;20;0.0;0.02;9.49329948;0.04070267;-1.38628507;-0.09;9.41176415;4.705882070000001;35.68627548;47.45098114;1842.0;165;16.5;0.029966719313033116;-0.01973420173678807;0.0730783666284169;9.657081744476171;-0.3299400274223623;-1.0540787717228195;17.270755874502537;3;16.5;1;0;0;0;0;0;0;0;0;0;0;0;0;0;0;0;0
