;device_time;lon;lat;raw_speed_kph;raw_g_x;raw_g_y;raw_roll;raw_yaw;raw_pitch;raw_g_z;apps_d;apps_e;engine_load;engine_load_abs;engine_rpm;num_samples;cumulative_time;g_x;g_y;g_z;roll;yaw;pitch;speed_kph;sample_nr;roundabout_1;roundabout_2;roundabout_3;roundabout_4;turning_right_1;turning_right_2;turning_right_3;turning_left_1;turning_left_2;road_50km_1;road_50km_2;road_100km;entering_highway;exiting_highway;speed_bumps;road_50km_3;road_50km_4
0;2022-05-01 11:26:31.680;5.173765208333538;52.36977603464498;0;-0.06;0.03;9.63456154;0.2083019;-0.85954463;-0.05;0.0;0.0;44.70588303;0.0;239.5;0;0.0;-0.06;0.03;0.07958451;9.63456154;0.2083019;-0.85954463;0.0;5;0;0;0;0;0;0;0;0;0;0;0;0;0;0;0;0;0
1;2022-05-01 11:26:31.779;5.173765208333538;52.36977603464498;0;-0.01;0.03;9.62977314;-0.22745611;-0.72067672;-0.03;0.0;0.0;44.70588303;0.0;239.5;1;0.1;-0.03380952380952381;0.03;0.06910831952380952;9.63205333047619;-0.01995229571428571;-0.7868042961904762;0.0;5;0;0;0;0;0;0;0;0;0;0;0;0;0;0;0;0;0
2;2022-05-01 11:26:31.879;5.173765208333538;52.36977603464498;0;-0.04;-0.01;9.61061954;-0.33519846;-0.68955112;-0.03;0.0;0.0;44.70588303;0.0;239.5;2;0.2;-0.03607250755287009;0.01537764350453172;0.06562680607250755;9.624218017341388;-0.13519334066465258;-0.751252530876133;0.0;5;0;0;0;0;0;0;0;0;0;0;0;0;0;0;0;0;0
3;2022-05-01 11:26:31.981;5.173765208333538;52.36977603464498;0;-0.09;0.0;10.05356026;-0.16041641;-0.67039692;-0.03;0.0;0.0;44.70588303;0.0;239.5;3;0.30000000000000004;-0.05153846153846154;0.010967463908640377;0.06389392607412195;9.747349783120015;-0.14242710607843137;-0.7280638176513683;0.0;5;0;0;0;0;0;0;0;0;0;0;0;0;0;0;0;0;0
4;2022-05-01 11:26:32.078;5.173765208333538;52.36977603464498;0;-0.02;0.0;10.03201103;-0.17957062;-0.61772293;-0.02;0.0;0.0;44.70588303;0.0;239.5;4;0.4;-0.043975037263926875;0.008337291772452538;0.06046230069957903;9.815616073853498;-0.15133471098786258;-0.7016023192958346;0.0;5;0;0;0;0;0;0;0;0;0;0;0;0;0;0;0;0;0
5;2022-05-01 11:26:32.181;5.173765208333538;52.36977603464498;0;-0.07;0.0;9.83807564;-0.17238778;-1.08939505;-0.04;0.3921566100000007;0.39215659999999986;44.70588303;0.0;239.5;5;0.5;-0.049407331371077584;0.006597015660459767;0.06236641577284232;9.820304148532571;-0.15572920191920012;-0.7825478402237153;0.0;5;0;0;0;0;0;0;0;0;0;0;0;0;0;0;0;0;0
6;2022-05-01 11:26:32.280;5.173765208333538;52.36977603464498;0;-0.05;0.0;9.67047596;-0.22266756;-1.10376072;-0.08;0.3921566100000007;0.39215659999999986;44.70588303;26.66666603;239.5;6;0.6000000000000001;-0.049518001730969104;0.005365139934760318;0.07118355780887789;9.792326390410055;-0.1682287536380402;-0.8425286512061836;0.0;5;0;0;0;0;0;0;0;0;0;0;0;0;0;0;0;0;0
7;2022-05-01 11:26:32.385;5.173765208333538;52.36977603464498;0;-0.06;-0.01;9.97933769;0.04309694;-1.16601181;-0.08;0.3921566100000007;0.39215659999999986;44.70588303;26.66666603;239.5;7;0.7000000000000001;-0.051304172519841276;0.002746863971150608;0.07772722031560722;9.824193798889171;-0.13221808360867798;-0.8976513629353694;0.0;5;0;0;0;0;0;0;0;0;0;0;0;0;0;0;0;0;0
8;2022-05-01 11:26:32.482;5.173765208333538;52.36977603464498;0;0.0;0.02;10.14933109;0.06943397;-1.00798965;-0.06;0.3921566100000007;0.39215659999999986;32.15686417;26.66666603;891.5;8;0.8;-0.04320555054428822;0.0054703583718527776;0.07959895319993324;9.87551835752704;-0.10038629152316958;-0.9150688171594076;0.0;5;0;0;0;0;0;0;0;0;0;0;0;0;0;0;0;0;0
9;2022-05-01 11:26:32.581;5.173765208333538;52.36977603464498;0;-0.06;0.01;10.09905148;0.13886794;-1.30487978;-0.1;0.3921566100000007;0.39215659999999986;32.15686417;26.66666603;891.5;9;0.9;-0.045690295370201126;0.006140520476806489;0.0869943342725233;9.908590163241753;-0.06498854208085131;-0.9727414890476115;0.0;5;0;0;0;0;0;0;0;0;0;0;0;0;0;0;0;0;0
10;2022-05-01 11:26:32.682;5.173765208333538;52.36977603464498;0;-0.04;0.0;9.61540794;-0.17478207;-1.23305154;-0.09;0.3921566100000007;0.39215659999999986;32.15686417;26.66666603;891.5;10;1.0;-0.0448938446845245;0.005281053362010479;0.09155586686719298;9.867554475718059;-0.08035595711030528;-1.0091761739068998;0.0;5;0;0;0;0;0;0;0;0;0;0;0;0;0;0;0;0;0
11;2022-05-01 11:26:32.779;5.173765208333538;52.36977603464498;0;-0.02;0.01;9.34485435;-0.23463893;-1.44374776;-0.11;0.3921566100000007;0.39215659999999986;32.15686417;26.66666603;891.5;11;1.1;-0.04157247816498588;0.005910660864167477;0.09796390585441064;9.79781520003286;-0.10094057580559561;-1.0671572344736393;0.0;5;0;0;0;0;0;0;0;0;0;0;0;0;0;0;0;0;0
12;2022-05-01 11:26:32.879;5.173765208333538;52.36977603464498;0;-0.04;-0.02;9.7662468;-0.38787252;-1.5371244;-0.12;6.666666030000002;3.5294113200000012;32.15686417;26.66666603;891.5;12;1.2000000000000002;-0.04137123166069222;0.0025946021493559244;0.10457033535222188;9.793775061165295;-0.13766226264684123;-1.1273038560935524;0.0;5;0;0;0;0;0;0;0;0;0;0;0;0;0;0;0;0;0
13;2022-05-01 11:26:32.980;5.173765208333538;52.36977603464498;0;-0.11;-0.02;9.61301327;-0.2657645;-1.69514656;-0.16;6.666666030000002;3.5294113200000012;32.15686417;36.86274338;891.5;13;1.3;-0.049840409939811606;-0.00019369958443852403;0.11506156546995425;9.771468033478847;-0.15347080347237385;-1.1973788583157097;0.0;5;0;0;0;0;0;0;0;0;0;0;0;0;0;0;0;0;0
14;2022-05-01 11:26:33.082;5.173765208333538;52.36977603464498;1;0.02;0.01;9.83089256;-0.29449579;-1.75500345;-0.13;6.666666030000002;3.5294113200000012;32.15686417;36.86274338;1360.5;14;1.4000000000000001;-0.0414929713269485;0.0010246678563081753;0.12038301972041979;9.778570548880191;-0.17032633766717184;-1.2640270502739026;0.11952161535215655;5;0;0;0;0;0;0;0;0;0;0;0;0;0;0;0;0;0
15;2022-05-01 11:26:33.181;5.173765208333538;52.36977603464498;1;-0.07;-0.01;9.90990353;-0.32322711;-2.54032564;-0.19;6.666666030000002;3.5294113200000012;40.7843132;36.86274338;1360.5;15;1.5;-0.04480540048265819;-0.0002563646798457095;0.13190992813520544;9.793831037819846;-0.1880929376876283;-1.412329025498574;0.22183049874121216;5;0;0;0;0;0;0;0;0;0;0;0;0;0;0;0;0;0
16;2022-05-01 11:26:33.280;5.173765208333538;52.36977603464498;1;-0.02;-0.02;9.98651981;-0.41420954;-2.0327394;-0.17;6.666666030000002;3.5294113200000012;40.7843132;36.86274338;1360.5;16;1.6;-0.041994178864991676;-0.002493931231619197;0.13957955828843993;9.815668655084407;-0.21371896541406002;-1.4826407730489641;0.3100212508186423;5;0;0;0;0;0;0;0;0;0;0;0;0;0;0;0;0;0
17;2022-05-01 11:26:33.382;5.173765208333538;52.36977603464498;1;-0.07;-0.02;9.79976654;-0.44772938;-2.01119089;-0.19;6.666666030000002;3.5294113200000012;40.7843132;36.86274338;1360.5;17;1.7000000000000002;-0.04509850249636289;-0.004434402918134449;0.14844775968941396;9.813905974697091;-0.23965800346204735;-1.541228257790273;0.3865023982880219;5;0;0;0;0;0;0;0;0;0;0;0;0;0;0;0;0;0
18;2022-05-01 11:26:33.482;5.173765208333538;52.36977603464498;1;-0.05;-0.01;9.82610416;-0.12929083;-2.09499049;-0.18000001;7.450979240000002;3.9215688699999998;40.7843132;36.86274338;1360.5;18;1.8;-0.045631192202017244;-0.005039266282673509;0.1550920398977261;9.815231660925372;-0.22766341260450304;-1.6014105674332777;0.4531766864281485;5;0;0;0;0;0;0;0;0;0;0;0;0;0;0;0;0;0
19;2022-05-01 11:26:33.583;5.173765208333538;52.36977603464498;1;-0.04;-0.02;9.74230385;-0.60335726;-2.16921306;-0.20999999;7.450979240000002;3.9215688699999998;40.7843132;42.35293961;1360.5;19;1.9000000000000001;-0.045029885181043575;-0.0066367955270000036;0.16411426958838282;9.807444321555574;-0.2677805565539841;-1.6620413562712808;0.5115672875454483;5;0;0;0;0;0;0;0;0;0;0;0;0;0;0;0;0;0
20;2022-05-01 11:26:33.681;5.173765208333538;52.36977603464498;4;-0.08;-0.02;9.45738506;-0.43575802;-1.96809387;-0.16;7.450979240000002;3.9215688699999998;40.7843132;42.35293961;1585.75;20;2.0;-0.048705701715107214;-0.008041443129795387;0.16679152504826042;9.770648513815457;-0.2854371853835305;-1.694211479134187;0.8782472000591454;5;0;0;0;0;0;0;0;0;0;0;0;0;0;0;0;0;0
21;2022-05-01 11:26:33.780;5.173810138012305;52.36978376193979;4;-0.06;-0.03;9.67287064;-0.41181526;-1.90344846;-0.15000001;7.450979240000002;3.9215688699999998;36.07843018;42.35293961;1585.75;21;2.1;-0.04987625370324421;-0.010317249182785714;0.1681174034071679;9.760514720488644;-0.2985351311582678;-1.7158970020207098;1.201788676852866;5;0;0;0;0;0;0;0;0;0;0;0;0;0;0;0;0;0
22;2022-05-01 11:26:33.879;5.173810138012305;52.36978376193979;4;-0.03;-0.01;10.0487709;-0.7685622;-1.8675344;-0.15000001;7.450979240000002;3.9215688699999998;36.07843018;42.35293961;1585.75;22;2.2;-0.0478421574230563;-0.010284782532267375;0.16929092531699108;9.790014284704284;-0.3466367667377401;-1.7314152717999236;1.4881520594386006;5;0;0;0;0;0;0;0;0;0;0;0;0;0;0;0;0;0
23;2022-05-01 11:26:33.979;5.173810138012305;52.36978376193979;4;-0.01;-0.06;10.01525116;-1.03193247;-1.73824346;-0.18000001;7.450979240000002;3.9215688699999998;36.07843018;42.35293961;1585.75;23;2.3000000000000003;-0.04401322682504386;-0.01531504851898051;0.17336789629570395;9.812804115473686;-0.41597609265335544;-1.7321061589086044;1.742304890358073;5;0;0;0;0;0;0;0;0;0;0;0;0;0;0;0;0;0
24;2022-05-01 11:26:34.080;5.173810138012305;52.36978376193979;4;-0.04;-0.12;9.81173801;-1.36952519;-1.49163318;-0.11;7.450979240000002;3.9215688699999998;36.07843018;43.13725662;1585.75;24;2.4000000000000004;-0.04361129094997444;-0.025799538784407588;0.16998439580456898;9.812697342032969;-0.5114766979199139;-1.7080221184539204;1.9684193611054264;5;0;0;0;0;0;0;0;0;0;0;0;0;0;0;0;0;0
25;2022-05-01 11:26:34.179;5.173810138012305;52.36978376193979;4;-0.06;-0.07;10.24510193;-0.57223165;-1.9944309;-0.1;7.450979240000002;3.9215688699999998;36.07843018;43.13725662;1585.75;25;2.5;-0.04523763251658313;-0.03018579319399947;0.16597529335667896;9.855607223028263;-0.5175057453356412;-1.7364440341184375;2.1700242604825695;5;0;0;0;0;0;0;0;0;0;0;0;0;0;0;0;0;0
26;2022-05-01 11:26:34.279;5.173810138012305;52.36978376193979;7;0.0;-0.07;10.13496494;-0.96489275;-1.64486682;-0.14;7.450979240000002;3.9215688699999998;36.07843018;43.13725662;1600.0;26;2.6;-0.04078552393621817;-0.03410414970119382;0.16633049816056064;9.883100502838278;-0.5615358019810638;-1.7274313674941804;2.645371338492839;5;0;0;0;0;0;0;0;0;0;0;0;0;0;0;0;0;0
27;2022-05-01 11:26:34.379;5.173810138012305;52.36978376193979;7;-0.02;-0.08;9.81413269;-1.29290843;-0.76137936;-0.11;7.450979240000002;3.9215688699999998;36.86274338;43.13725662;1600.0;27;2.7;-0.038755137021684004;-0.038587382077922165;0.1637178767734777;9.876363537961156;-0.6329782836877962;-1.6330647611582265;3.070743394502136;5;0;0;0;0;0;0;0;0;0;0;0;0;0;0;0;0;0
28;2022-05-01 11:26:34.479;5.173810138012305;52.36978376193979;7;0.01;-0.08;9.99370289;-1.04390383;-1.00798965;-0.03;7.450979240000002;3.9215688699999998;36.86274338;43.13725662;1600.0;28;2.8000000000000003;-0.03402464437917621;-0.042605462968562414;0.15361428245597195;9.887748449898734;-0.6728485495140173;-1.572416521916613;3.451981569559792;5;0;0;0;0;0;0;0;0;0;0;0;0;0;0;0;0;0
29;2022-05-01 11:26:34.580;5.173810138012305;52.36978376193979;7;-0.04;-0.06;8.57868671;-0.39026681;-2.72947335;-0.19;7.450979240000002;3.9215688699999998;36.86274338;43.13725662;1600.0;29;2.9000000000000004;-0.034600881863084514;-0.04428291697946923;0.15997616622408622;9.761508190548968;-0.6455975872435005;-1.6839980841972155;3.79413714036669;5;0;0;0;0;0;0;0;0;0;0;0;0;0;0;0;0;0
30;2022-05-01 11:26:34.679;5.173810138012305;52.36978376193979;7;-0.23999999;-0.13;7.85322142;-1.54191303;-2.281744;-0.19;7.450979240000002;3.9215688699999998;36.86274338;43.13725662;1600.0;30;3.0;-0.05429981665220267;-0.05250366946496354;0.16569294312530988;9.578492709162731;-0.7315593015736832;-1.7413252942453321;4.101597498824899;5;0;0;0;0;0;0;0;0;0;0;0;0;0;0;0;0;0
31;2022-05-01 11:26:34.779;5.173837578902271;52.36977480619964;7;-0.03;-0.23999999;9.12697601;-2.69595337;-1.5586729;-0.14;7.450979240000002;3.9215688699999998;36.86274338;43.13725662;1600.0;31;3.1;-0.051980913497852575;-0.07039622459575795;0.166064310812163;9.535404997312227;-0.9190191358126995;-1.7238949893493198;4.378188668163697;5;0;0;0;0;0;0;0;0;0;0;0;0;0;0;0;0;0
32;2022-05-01 11:26:34.879;5.173837578902271;52.36977480619964;7;0.11;0.01;9.76864147;-1.57303858;-1.0582695;-0.1;7.450979240000002;3.9215688699999998;36.86274338;43.13725662;1600.0;32;3.2;-0.03659281413984961;-0.06275862665058865;0.16259874942387534;9.557562336335243;-0.9811506300233028;-1.6606609271123363;4.627259329644872;5;0;0;0;0;0;0;0;0;0;0;0;0;0;0;0;0;0
33;2022-05-01 11:26:34.981;5.173837578902271;52.36977480619964;7;-0.06;-0.05;9.69441891;-0.48124924;-1.86274576;-0.1;7.450979240000002;3.9215688699999998;36.86274338;43.13725662;1600.0;33;3.3000000000000003;-0.03880742558442217;-0.06155150159223102;0.15947519100472998;9.570510673487508;-0.9338537295706901;-1.679780670355349;4.851750162287727;5;0;0;0;0;0;0;0;0;0;0;0;0;0;0;0;0;0
34;2022-05-01 11:26:35.081;5.173837578902271;52.36977480619964;7;-0.14;-0.13;8.81332588;-1.45571911;-1.40304506;-0.1;7.450979240000002;3.9215688699999998;36.86274338;43.13725662;1600.0;34;3.4000000000000004;-0.048346178494853585;-0.06800368760659588;0.15665759473271784;9.49913588443479;-0.983046518124325;-1.6536946395972392;5.0542514279206845;5;0;0;0;0;0;0;0;0;0;0;0;0;0;0;0;0;0
35;2022-05-01 11:26:35.179;5.173837578902271;52.36977480619964;7;0.0;-0.11;9.40950012;-1.08460653;-1.47966182;-0.15000001;7.450979240000002;3.9215688699999998;36.86274338;36.07843018;1600.0;35;3.5;-0.04380414012251893;-0.07194916723551216;0.15881153900640496;9.490714762139886;-0.9925879024776547;-1.6373445625225764;5.237051081428777;5;0;0;0;0;0;0;0;0;0;0;0;0;0;0;0;0;0
36;2022-05-01 11:26:35.280;5.173837578902271;52.36977480619964;7;0.01;-0.07;9.67526436;-0.72067672;-1.30248547;-0.12;7.450979240000002;3.9215688699999998;36.86274338;36.07843018;1794.0;36;3.6;-0.03876465161825306;-0.07176660124981131;0.15794730241605298;9.508000338580011;-0.9671197270703877;-1.605980460364755;5.402175192482625;5;0;0;0;0;0;0;0;0;0;0;0;0;0;0;0;0;0
37;2022-05-01 11:26:35.381;5.173837578902271;52.36977480619964;11;0.0;0.01;9.90272045;0.30407289;-1.03672099;-0.11;7.450979240000002;3.9215688699999998;29.01960754;36.07843018;1794.0;37;3.7;-0.035143789117087314;-0.06412908593743828;0.1562321020027809;9.544869681918147;-0.8483823339361337;-1.5528080421014459;5.925047270200228;5;0;0;0;0;0;0;0;0;0;0;0;0;0;0;0;0;0
38;2022-05-01 11:26:35.492;5.173837578902271;52.36977480619964;11;-0.13;0.15000001;9.38795185;1.75260913;-0.85236186;0.0;7.450979240000002;3.9215688699999998;29.01960754;36.07843018;1794.0;38;3.8000000000000003;-0.04398188583880923;-0.04417790252820448;0.1444318871589115;9.53024907918748;-0.6060385388733515;-1.487544934412958;6.39789899668867;5;0;0;0;0;0;0;0;0;0;0;0;0;0;0;0;0;0
39;2022-05-01 11:26:35.581;5.173837578902271;52.36977480619964;11;0.02;0.02;8.99050236;-0.40223816;-1.03911531;-0.20999999;7.450979240000002;3.9215688699999998;29.01960754;36.07843018;1794.0;39;3.9000000000000004;-0.03803393113062407;-0.03821172550013477;0.15327756940357234;9.480072548790943;-0.5870926230542464;-1.4458575245961174;6.8257245909381234;5;0;0;0;0;0;0;0;0;0;0;0;0;0;0;0;0;0
40;2022-05-01 11:26:35.679;5.173837578902271;52.36977480619964;11;-0.14;-0.16;8.88754845;-3.08382607;-1.67120385;-0.15000001;7.84313775;3.9215688699999998;29.01960754;36.07843018;1794.0;40;4.0;-0.047493583147529286;-0.04951033404003962;0.1557181322400873;9.425102578404292;-0.8187209465638186;-1.4667634773826255;7.212982756622978;5;0;0;0;0;0;0;0;0;0;0;0;0;0;0;0;0;0
41;2022-05-01 11:26:35.779;5.17387254776497;52.369756262537685;11;-0.02;-0.07;9.69202423;-0.73504239;-1.16122329;-0.01;7.84313775;3.9215688699999998;29.01960754;41.17647171;1957.0;41;4.1000000000000005;-0.044947677571485364;-0.051407676941429614;0.14496415976437574;9.449819521173007;-0.8109723129059944;-1.4384704585138632;7.563660522585777;5;0;0;0;0;0;0;0;0;0;0;0;0;0;0;0;0;0
42;2022-05-01 11:26:35.880;5.17387254776497;52.369756262537685;12;-0.01;0.19;10.14454269;1.71430075;-1.25220573;-0.09;7.84313775;3.9215688699999998;27.45098114;41.17647171;1957.0;42;4.2;-0.041716985692371485;-0.02909106320207272;0.14261797157430772;9.51404228662489;-0.5775267810766617;-1.421251461785277;7.9737720641426515;5;0;0;0;0;0;0;0;0;0;0;0;0;0;0;0;0;0
43;2022-05-01 11:26:35.980;5.17387254776497;52.369756262537685;12;-0.08;0.08;9.43823147;0.12450229;-1.37910223;-0.06;7.84313775;3.9215688699999998;27.45098114;41.17647171;1957.0;43;4.3;-0.04525058574955845;-0.019021736265802256;0.1377228752439633;9.507044794112716;-0.5127280704586974;-1.4173610019941534;8.345401088703507;5;0;0;0;0;0;0;0;0;0;0;0;0;0;0;0;0;0
44;2022-05-01 11:26:36.080;5.17387254776497;52.369756262537685;12;-0.05;-0.02;9.64892769;-0.81644773;-0.92658436;-0.09;7.84313775;3.9215688699999998;27.45098114;41.17647171;1957.0;44;4.4;-0.04568835655187036;-0.019111906395677232;0.13605099608439367;9.520122657169438;-0.5407230172088012;-1.3721243321665528;8.68225877539145;5;0;0;0;0;0;0;0;0;0;0;0;0;0;0;0;0;0
45;2022-05-01 11:26:36.180;5.17387254776497;52.369756262537685;12;-0.1;-0.11;8.15250587;-1.40543926;-2.24343538;-0.13;7.84313775;3.9215688699999998;27.45098114;39.60784149;1957.0;45;4.5;-0.05068813598727607;-0.027478812504127367;0.13821742618018804;9.394223644473646;-0.6203263989826887;-1.4523348134229341;8.987680841336442;5;0;0;0;0;0;0;0;0;0;0;0;0;0;0;0;0;0
46;2022-05-01 11:26:36.280;5.17387254776497;52.369756262537685;12;-0.08;0.0;9.38076878;-0.08619389;-2.44455457;-0.20999999;7.84313775;3.9215688699999998;27.45098114;39.60784149;1957.0;46;4.6000000000000005;-0.05338341043605091;-0.024952090177874104;0.14753829652453102;9.392986447398366;-0.5712120300331018;-1.5435710635744384;9.264668577646095;5;0;0;0;0;0;0;0;0;0;0;0;0;0;0;0;0;0
47;2022-05-01 11:26:36.380;5.17387254776497;52.369756262537685;12;-0.01;0.13;8.49249268;0.65842557;-1.92978549;-0.07;7.84313775;3.9215688699999998;27.45098114;39.60784149;1806.25;47;4.7;-0.04939838863153763;-0.010718827928380352;0.1431334587538602;9.310270790380105;-0.4582625731202041;-1.5790471336909664;9.515924881636263;5;0;0;0;0;0;0;0;0;0;0;0;0;0;0;0;0;0
48;2022-05-01 11:26:36.479;5.17387254776497;52.369756262537685;14;0.03;0.01;9.63216782;-0.84039044;-1.1444633;-0.15000001;7.84313775;3.9215688699999998;29.80392075;39.60784149;1806.25;48;4.800000000000001;-0.042112077605876305;-0.00881748173011036;0.14647853633077854;9.339810960104852;-0.4933300667765269;-1.539165808218589;9.92742398807845;5;0;0;0;0;0;0;0;0;0;0;0;0;0;0;0;0;0
49;2022-05-01 11:26:36.582;5.17387254776497;52.369756262537685;14;-0.09;0.02;10.09426212;-0.09577099;-1.29290843;-0.09;7.84313775;3.9215688699999998;29.80392075;39.60784149;1806.25;49;4.9;-0.04650292878719994;-0.006175202270666647;0.1440126188012359;9.408986706327727;-0.456877812123601;-1.516586430245962;10.300839126989768;5;0;0;0;0;0;0;0;0;0;0;0;0;0;0;0;0;0
50;2022-05-01 11:26:36.681;5.17387254776497;52.369756262537685;14;-0.02;0.0;9.99609756;-0.1699935;-1.81486034;-0.14;7.84313775;3.9215688699999998;29.80392075;39.60784149;1806.25;50;5.0;-0.04407476761063865;-0.005609438896684836;0.14635547961932321;9.462776979571538;-0.4305938736782977;-1.5439138676571698;10.63975105969798;5;0;0;0;0;0;0;0;0;0;0;0;0;0;0;0;0;0
51;2022-05-01 11:26:36.779;5.173913371289144;52.36973225695285;14;-0.12;-0.06;9.80694962;-0.50040346;-1.21629155;-0.16;8.62745095;3.9215688699999998;29.80392075;39.60784149;1806.25;51;5.1000000000000005;-0.05102599900228756;-0.010589092746302022;0.15031325470352316;9.494287237584635;-0.436985195411617;-1.5139188519366462;10.947394081424909;5;0;0;0;0;0;0;0;0;0;0;0;0;0;0;0;0;0
52;2022-05-01 11:26:36.882;5.173913371289144;52.36973225695285;14;-0.12;0.07;10.8197279;1.21150303;-2.99284363;-0.03;8.62745095;4.313725470000001;29.80392075;48.23529434;1806.25;52;5.2;-0.05733675226752075;-0.0032156205272876;0.14201205840338021;9.615557989856756;-0.28615731388043175;-1.6492325822871172;11.22669124397108;5;0;0;0;0;0;0;0;0;0;0;0;0;0;0;0;0;0
53;2022-05-01 11:26:36.979;5.173913371289144;52.36973225695285;16;-0.09;0.01;8.50206947;-0.35674694;-0.84039044;-0.08;8.62745095;4.313725470000001;29.80392075;48.23529434;1694.75;53;5.300000000000001;-0.060323516269641386;-0.0020071693659127463;0.1390468470122321;9.513739350904457;-0.2926121084539497;-1.5752711497385992;11.66316794954185;5;0;0;0;0;0;0;0;0;0;0;0;0;0;0;0;0;0
54;2022-05-01 11:26:37.081;5.173913371289144;52.36973225695285;16;-0.12;-0.04;7.90110683;-0.55307746;-2.74144459;-0.25999999;8.62745095;4.313725470000001;36.47058868;48.23529434;1694.75;54;5.4;-0.06577749917943793;-0.005479429057173567;0.15280485913616854;9.366356836737982;-0.31641668752977137;-1.6818506533464617;12.059521863300075;5;0;0;0;0;0;0;0;0;0;0;0;0;0;0;0;0;0
55;2022-05-01 11:26:37.181;5.173913371289144;52.36973225695285;16;-0.15000001;-0.07;8.76304626;-0.87391031;-1.70711792;-0.13;8.62745095;4.313725470000001;36.47058868;48.23529434;1694.75;55;5.5;-0.07347108568383905;-0.01137327607058741;0.15342416898435926;9.311245417404463;-0.36734280417410564;-1.684158776196693;12.41947799756912;5;0;0;0;0;0;0;0;0;0;0;0;0;0;0;0;0;0
56;2022-05-01 11:26:37.280;5.173913371289144;52.36973225695285;16;-0.1;-0.02;9.25626659;-0.28970724;-1.40543926;-0.16;8.62745095;4.313725470000001;36.47058868;48.23529434;1694.75;56;5.6000000000000005;-0.07589339395769308;-0.012160966984035036;0.156725905805689;9.306225397854416;-0.3602540380375397;-1.6587093898357685;12.74640913270122;5;0;0;0;0;0;0;0;0;0;0;0;0;0;0;0;0;0
57;2022-05-01 11:26:37.381;5.173913371289144;52.36973225695285;16;0.08;0.09;10.34326744;0.68715686;-1.23544586;0.0;8.62745095;4.313725470000001;36.47058868;45.49019623;1694.75;57;5.7;-0.06166472296470903;-0.0028365514290344947;0.14512148149635065;9.400878093834505;-0.2646549578950763;-1.6200773647289404;13.043370234267432;5;0;0;0;0;0;0;0;0;0;0;0;0;0;0;0;0;0
58;2022-05-01 11:26:37.481;5.173913371289144;52.36973225695285;18;-0.15000001;-0.01;10.19242764;0.60335726;-1.10854924;-0.11;8.62745095;4.313725470000001;34.11764526;45.49019623;1750.75;58;5.800000000000001;-0.06972432049057926;-0.0034901352268228766;0.1446162953666563;9.473098052335692;-0.1854586439579587;-1.573406199141044;13.495606733828396;5;0;0;0;0;0;0;0;0;0;0;0;0;0;0;0;0;0
59;2022-05-01 11:26:37.580;5.173913371289144;52.36973225695285;18;-0.02;0.14;9.98173141;1.27375424;-1.69754088;-0.13;8.62745095;4.313725470000001;34.11764526;45.49019623;1750.75;59;5.9;-0.06518903260749609;0.00959740554227563;0.14598152593769756;9.519489811563128;-0.05236581440974554;-1.5847283551487201;13.906446339058999;5;0;0;0;0;0;0;0;0;0;0;0;0;0;0;0;0;0
60;2022-05-01 11:26:37.681;5.173913371289144;52.36973225695285;18;-0.14;0.18000001;10.27383327;1.36473668;-1.85795724;-0.14;8.62745095;4.313725470000001;34.11764526;45.49019623;1750.75;60;6.0;-0.07201039619017253;0.025134941828133257;0.14813367744083683;9.588271852159052;0.07684747723999183;-1.6096417285459819;14.279702010516505;5;0;0;0;0;0;0;0;0;0;0;0;0;0;0;0;0;0
61;2022-05-01 11:26:37.780;5.17396751440733;52.36970321039865;18;0.04;0.14;11.18844604;2.10696173;-2.77017593;-0.08;8.62745095;4.313725470000001;34.11764526;45.49019623;1750.75;61;6.1000000000000005;-0.061799918877679924;0.035605640177157484;0.14461966969728887;9.734138153830251;0.26190561670394813;-1.7154319813917944;14.618831408405965;5;0;0;0;0;0;0;0;0;0;0;0;0;0;0;0;0;0
62;2022-05-01 11:26:37.882;5.17396751440733;52.36970321039865;18;0.19;0.05;10.606637;-0.25618741;-2.54032564;-0.17;8.62745095;4.313725470000001;34.11764526;45.49019623;1750.75;62;6.2;-0.038852393664087416;0.03691745527400293;0.1496288335776008;9.813652433900518;0.2146897444897448;-1.7906078119234947;14.926970711440065;5;0;0;0;0;0;0;0;0;0;0;0;0;0;0;0;0;0
63;2022-05-01 11:26:37.982;5.17396751440733;52.36970321039865;18;0.0;0.2;10.21637058;1.83162022;-1.07742369;-0.07;8.62745095;4.313725470000001;34.11764526;45.49019623;1750.75;63;6.300000000000001;-0.035312416997977415;0.051776472918351975;0.1450691212657255;9.850345484334861;0.36201390174802045;-1.7256271270247172;15.206965094021186;5;0;0;0;0;0;0;0;0;0;0;0;0;0;0;0;0;0
64;2022-05-01 11:26:38.081;5.17396751440733;52.36970321039865;18;0.03;0.25;8.91149044;2.29850388;-1.94175684;-0.05;8.62745095;4.313725470000001;34.11764526;45.49019623;1750.75;64;6.4;-0.02936279163057583;0.06983361701665276;0.13910380988591456;9.764820617168168;0.5384181817899567;-1.7453154325885243;15.461396212826116;5;0;0;0;0;0;0;0;0;0;0;0;0;0;0;0;0;0
65;2022-05-01 11:26:38.182;5.17396751440733;52.36970321039865;18;-0.07;0.09;10.64733982;1.88429427;-0.01675992;-0.06;8.62745095;4.313725470000001;34.11764526;45.49019623;1750.75;65;6.5;-0.03306394481271713;0.07167032961444171;0.13459369411506691;9.845198647227916;0.6609978019588081;-1.5878821591765013;15.692607013520881;5;0;0;0;0;0;0;0;0;0;0;0;0;0;0;0;0;0
66;2022-05-01 11:26:38.282;5.17396751440733;52.36970321039865;18;-0.17;0.12;11.15253162;1.29769695;-2.94256377;0.07;8.23529435;4.313725470000001;34.11764526;45.49019623;1750.75;66;6.6000000000000005;-0.045533692992032936;0.07607135327817302;0.11865690922669173;9.964247738679312;0.7189772583642086;-1.7112429389727033;15.902724133170361;5;0;0;0;0;0;0;0;0;0;0;0;0;0;0;0;0;0
67;2022-05-01 11:26:38.383;5.17396751440733;52.36970321039865;18;0.17;0.2;9.10542679;0.57223165;-1.68796372;0.0;8.23529435;4.313725470000001;34.11764526;49.80392075;1750.75;67;6.7;-0.02590965419917212;0.08735488179315919;0.11054699289049089;9.886053302445031;0.7056162776690573;-1.7091233989145058;16.09367814318455;5;0;0;0;0;0;0;0;0;0;0;0;0;0;0;0;0;0
68;2022-05-01 11:26:38.483;5.17396751440733;52.36970321039865;18;-0.1;0.04;10.92986488;1.21150303;-0.61772293;-0.18000001;8.23529435;4.313725470000001;34.11764526;49.80392075;1750.75;68;6.800000000000001;-0.032654534796129;0.08304388796629143;0.11956296234982164;9.981077618774389;0.7516701285881385;-1.6097667854890514;16.267221850729854;5;0;0;0;0;0;0;0;0;0;0;0;0;0;0;0;0;0
69;2022-05-01 11:26:38.582;5.17396751440733;52.36970321039865;18;-0.12;0.05;8.820508;1.30487978;-1.99921942;-0.03;8.23529435;4.313725470000001;34.11764526;49.80392075;1891.0;69;6.9;-0.040605098862604695;0.08003608959154762;0.11410346279936093;9.875437525311792;0.8020256767036206;-1.6452164578253299;16.42494685289918;5;0;0;0;0;0;0;0;0;0;0;0;0;0;0;0;0;0
70;2022-05-01 11:26:38.680;5.17396751440733;52.36970321039865;21;0.06;0.25;9.77342987;1.09657788;-0.17238778;0.02;8.23529435;4.313725470000001;33.33333206;49.80392075;1891.0;70;7.0;-0.03144864063222343;0.09550516088039587;0.10459078962066312;9.866153415007233;0.8288340092498011;-1.5111686369744919;16.841340092573976;5;0;0;0;0;0;0;0;0;0;0;0;0;0;0;0;0;0
71;2022-05-01 11:26:38.779;5.174038884233984;52.36967422870833;21;0.03;0.22;10.58030033;2.0375278;-0.9337672;-0.05;8.23529435;4.313725470000001;33.33333206;49.80392075;1891.0;71;7.1000000000000005;-0.025856548619756062;0.10683472957827643;0.10231511004354804;9.931143872370827;0.9388303708166449;-1.4586226094225163;17.21979612694051;5;0;0;0;0;0;0;0;0;0;0;0;0;0;0;0;0;0
72;2022-05-01 11:26:38.879;5.174038884233984;52.36967422870833;21;-0.03;0.07;10.42467213;0.85954463;-1.10376072;-0.11;8.23529435;4.313725470000001;33.33333206;49.80392075;1891.0;72;7.2;-0.026233584706005172;0.10348292910960045;0.1057064636294579;9.976052801095578;0.9316157126320689;-1.4263317181658284;17.56377826712389;5;0;0;0;0;0;0;0;0;0;0;0;0;0;0;0;0;0
73;2022-05-01 11:26:38.979;5.174038884233984;52.36967422870833;21;-0.03;0.07;9.9314518;0.82602483;-1.01038396;-0.1;8.23529435;4.313725470000001;33.33333206;49.80392075;1891.0;73;7.300000000000001;-0.02657628247888426;0.1004363916622766;0.10787907410205644;9.971994654940532;0.9220082324447294;-1.3884855543121628;17.876432460317325;5;0;0;0;0;0;0;0;0;0;0;0;0;0;0;0;0;0
74;2022-05-01 11:26:39.086;5.174038884233984;52.36967422870833;21;-0.06;0.14;9.61061954;1.04629815;-0.36632404;-0.07;8.23529435;4.313725470000001;33.33333206;45.09803772;1891.0;74;7.4;-0.029617193103197482;0.10403591337479537;0.10712442949718698;9.939116522049096;0.9333162065068623;-1.2954886635063376;18.16061657930948;5;0;0;0;0;0;0;0;0;0;0;0;0;0;0;0;0;0
75;2022-05-01 11:26:39.184;5.174038884233984;52.36967422870833;21;-0.07;0.15000001;10.32890129;1.47966182;-1.515576;-0.05;8.23529435;4.313725470000001;33.33333206;45.09803772;1891.0;75;7.5;-0.03329098321869344;0.10821745638345505;0.10461900969591184;9.974576846323442;0.9830195151358272;-1.3155109141493524;18.41892697293053;5;1;0;0;0;0;0;0;0;0;0;0;0;0;0;0;0;0
76;2022-05-01 11:26:39.284;5.174038884233984;52.36967422870833;23;-0.04;0.13;10.48931789;0.99841261;-1.77415764;-0.11;8.23529435;4.313725470000001;33.33333206;45.09803772;1702.75;76;7.6000000000000005;-0.03390129039774675;0.11019897516341408;0.10779975831383673;10.021401912432163;0.9844197972650401;-1.3572331811461915;18.83565893937577;5;1;0;0;0;0;0;0;0;0;0;0;0;0;0;0;0;0
77;2022-05-01 11:26:39.382;5.174038884233984;52.36967422870833;23;0.02;0.11;9.78300667;0.46448931;-0.90264159;-0.1;8.23529435;4.313725470000001;33.33333206;45.09803772;1702.75;77;7.7;-0.028998276854841236;0.11018087582082466;0.10978136082757833;9.999716808168722;0.9371254523315742;-1.315882246661441;19.214459158569994;5;1;0;0;0;0;0;0;0;0;0;0;0;0;0;0;0;0
78;2022-05-01 11:26:39.481;5.174038884233984;52.36967422870833;23;-0.04;0.12;9.75906372;0.81644773;-1.19713736;-0.08;8.23529435;4.313725470000001;33.33333206;45.09803772;1702.75;78;7.800000000000001;-0.02999897088153159;0.11107400308677985;0.10976345568265625;9.977827500043295;0.9261488558204227;-1.3050814568929385;19.558784139105278;5;1;0;0;0;0;0;0;0;0;0;0;0;0;0;0;0;0
79;2022-05-01 11:26:39.586;5.174038884233984;52.36967422870833;23;-0.02;0.09;9.47414589;0.20111908;-0.35195839;-0.02;3.921567920000001;0.7843132000000015;33.33333206;40.0;1702.75;79;7.9;-0.029089529552276693;0.10915724889206946;0.10428997036069376;9.93201589819084;0.8602048650953983;-1.218391584588215;19.8717747422248;5;1;0;0;0;0;0;0;0;0;0;0;0;0;0;0;0;0
80;2022-05-01 11:26:39.681;5.174038884233984;52.36967422870833;23;0.0;0.07;10.03440571;0.72067672;-0.0478855;0.0;3.921567920000001;0.7843132000000015;33.33333206;40.0;1615.0;80;8.0;-0.026443852700248842;0.10559591845540266;0.09749554947323383;9.941328195747944;0.8475148563751855;-1.1119346944007136;20.15628512378843;5;1;0;0;0;0;0;0;0;0;0;0;0;0;0;0;0;0
81;2022-05-01 11:26:39.780;5.174131181283313;52.36965116713187;24;-0.07;0.03;9.83089256;-0.23463893;-0.48603779;-0.02;3.921567920000001;0.7843132000000015;16.07843208;40.0;1615.0;81;8.1;-0.03040510065741732;0.09872078839647182;0.09313824243381508;9.931284540291125;0.7490975320393086;-1.055012009827793;20.50585478605785;5;1;0;0;0;0;0;0;0;0;0;0;0;0;0;0;0;0
82;2022-05-01 11:26:39.881;5.174131181283313;52.36965116713187;24;-0.05;0.0;9.5866766;0.14365649;-1.11094356;-0.06;3.921567920000001;0.7843132000000015;16.07843208;40.0;1615.0;82;8.200000000000001;-0.03218710875027089;0.08974287834040459;0.09281505731067782;9.899945050981994;0.6940372422262787;-1.0600985618590208;20.82362090161626;5;1;0;0;0;0;0;0;0;0;0;0;0;0;0;0;0;0
83;2022-05-01 11:26:39.980;5.174131181283313;52.36965116713187;24;-0.07;-0.01;9.49329948;-0.27055305;-0.02154847;0.03;3.921567920000001;0.7843132000000015;16.07843208;40.0;1615.0;83;8.3;-0.03562579090402353;0.08067231948131375;0.08433672601607958;9.862964941246315;0.606317966763964;-0.9656534255940347;21.11247895394103;5;1;0;0;0;0;0;0;0;0;0;0;0;0;0;0;0;0
84;2022-05-01 11:26:40.079;5.174131181283313;52.36965116713187;24;-0.06;0.0;9.98412609;-0.12689656;-0.83799618;-0.01;0.0;0.7843132000000015;16.07843208;40.0;1615.0;84;8.4;-0.03784229997388732;0.07333624850919765;0.08026710913925883;9.873982930961189;0.5396418895083338;-0.9540447025549057;21.375060462239848;5;1;0;0;0;0;0;0;0;0;0;0;0;0;0;0;0;0
85;2022-05-01 11:26:40.181;5.174131181283313;52.36965116713187;24;-0.04;0.0;10.1014452;-0.09098244;-0.2849187;-0.02;0.0;0.0;16.07843208;18.03921509;1615.0;85;8.5;-0.0380385085905682;0.06666747912586568;0.07747701308307353;9.894667018932214;0.48229660247088746;-0.8931982986258878;21.613757106510068;5;1;0;0;0;0;0;0;0;0;0;0;0;0;0;0;0;0
86;2022-05-01 11:26:40.282;5.174131181283313;52.36965116713187;24;-0.01;0.02;9.73272705;-0.18675344;-0.12929083;0.05;0.0;0.0;16.07843208;18.03921509;1615.0;86;8.6;-0.03548891454869513;0.06242391794128229;0.06857546463592812;9.879941514592458;0.42145863041938847;-0.8237347633504749;21.83074263710817;5;1;0;0;0;0;0;0;0;0;0;0;0;0;0;0;0;0
87;2022-05-01 11:26:40.379;5.174131181283313;52.36965116713187;24;-0.06;0.0;9.63456154;-0.2083019;-0.2657645;0.0;0.0;0.0;16.07843208;18.03921509;1612.25;87;8.700000000000001;-0.03771770263359734;0.056747723600691115;0.06503002494970267;9.857629162708582;0.36419463167364097;-0.7729986391932688;22.027992774116782;5;1;0;0;0;0;0;0;0;0;0;0;0;0;0;0;0;0
88;2022-05-01 11:26:40.480;5.174131181283313;52.36965116713187;24;-0.02;0.02;9.88596058;0.22027329;0.19872481;0.01;0.0;0.0;10.5882349;18.03921509;1612.25;88;8.8;-0.03610666884823138;0.05340632965812988;0.06089775896175841;9.860205279453945;0.35110816393759475;-0.6846418505589374;22.207303282458835;5;1;0;0;0;0;0;0;0;0;0;0;0;0;0;0;0;0
89;2022-05-01 11:26:40.580;5.174131181283313;52.36965116713187;24;-0.02;0.03;10.29059315;0.29449579;-0.30886146;0.03;0.0;0.0;10.5882349;18.03921509;1612.25;89;8.9;-0.03464215057875419;0.05127808093527238;0.05532277793299287;9.899338815091594;0.3459606156337637;-0.6504735658272829;22.37030639124623;5;1;0;0;0;0;0;0;0;0;0;0;0;0;0;0;0;0
90;2022-05-01 11:26:40.679;5.174131181283313;52.36965116713187;24;-0.09;-0.02;10.0966568;0.29689008;-0.61054009;-0.03;0.0;0.0;10.5882349;18.03921509;1612.25;90;9.0;-0.039675543588883075;0.044797146467877615;0.055710274423940054;9.917279883547003;0.34149889442088227;-0.6468426285672444;22.518485710072962;5;1;0;0;0;0;0;0;0;0;0;0;0;0;0;0;0;0
91;2022-05-01 11:26:40.779;5.174232149638379;52.36963180633538;24;0.0;0.03;10.29298782;0.13168511;-0.46448931;-0.01;0.0;0.0;10.5882349;18.03921509;1612.25;91;9.1;-0.03606811485054186;0.043451742055356284;0.05424406776995129;9.951440464211691;0.3224219465795905;-0.6302624750916487;22.65318978069957;5;1;0;0;0;0;0;0;0;0;0;0;0;0;0;0;0;0
92;2022-05-01 11:26:40.881;5.174232149638379;52.36963180633538;24;-0.08;0.0;10.88916206;1.07024086;0.4668836;-0.06;0.0;0.0;10.5882349;18.03921509;1612.25;92;9.200000000000001;-0.04006248743583449;0.03950102501558767;0.05745728962727844;10.036699938557282;0.39041509907845723;-0.5305078164991857;22.7756443896758;5;1;0;0;0;0;0;0;0;0;0;0;0;0;0;0;0;0
93;2022-05-01 11:26:40.983;5.174232149638379;52.36963180633538;24;0.0;0.05;9.79737282;-0.409421;-0.24900457;0.0;0.0;0.0;10.5882349;15.68627453;1612.25;93;9.3;-0.03641997486176725;0.040455600001896;0.054923074785297496;10.014940130456091;0.31769337772372624;-0.5049133219821811;22.886963755775536;5;1;0;0;0;0;0;0;0;0;0;0;0;0;0;0;0;0
94;2022-05-01 11:26:41.082;5.174232149638379;52.36963180633538;24;-0.06;-0.03;10.52044392;0.74701375;0.00239427;0.03;0.0;0.0;10.5882349;15.68627453;1612.25;94;9.4;-0.03856386406233565;0.034049796824073254;0.049891708163648275;10.060900391689758;0.3567270642576198;-0.4587890595422103;22.988160695551695;5;1;0;0;0;0;0;0;0;0;0;0;0;0;0;0;0;0
95;2022-05-01 11:26:41.183;5.174232149638379;52.36963180633538;24;-0.02;0.0;9.95539474;-0.1340794;-0.63687712;-0.02;0.0;0.0;10.5882349;15.68627453;1612.25;95;9.5;-0.036876060738596006;0.030954031844360314;0.04986377809047433;10.051307949674598;0.31210355382330085;-0.47498060346591575;23.080155860750256;5;1;0;0;0;0;0;0;0;0;0;0;0;0;0;0;0;0
96;2022-05-01 11:26:41.284;5.174232149638379;52.36963180633538;24;-0.1;0.06;11.19323444;-2.32244658;0.90264159;0.0;0.0;0.0;10.5882349;15.68627453;1612.25;96;9.600000000000001;-0.04261515498168396;0.03359482946531728;0.04802003018573544;10.15512947639391;0.07257586142852804;-0.34973012492829697;23.163786132654632;5;1;0;0;0;0;0;0;0;0;0;0;0;0;0;0;0;0
97;2022-05-01 11:26:41.382;5.174232149638379;52.36963180633538;24;-0.1;0.0;10.31932449;0.80447632;-0.24900457;0.07;0.0;0.0;10.5882349;15.68627453;1464.5;97;9.700000000000001;-0.04783241717344099;0.03054048587421789;0.039979731467038246;10.170057606569895;0.13911810946310557;-0.34057245221342913;23.23981225057708;5;1;0;0;0;0;0;0;0;0;0;0;0;0;0;0;0;0
98;2022-05-01 11:26:41.490;5.174232149638379;52.36963180633538;24;-0.09;0.04;10.67367744;-0.43096948;0.3423813;-0.02;0.0;0.0;17.64705849;15.68627453;1464.5;98;9.8;-0.051666139810547775;0.031400510352955636;0.04085296285517986;10.215844882635928;0.08728782775481231;-0.27848079116833496;23.308925744594536;5;1;0;0;0;0;0;0;0;0;0;0;0;0;0;0;0;0
99;2022-05-01 11:26:41.579;5.174232149638379;52.36963180633538;24;0.14;0.1;11.69603252;0.85715038;0.67279124;0.1;0.0;0.0;17.64705849;15.68627453;1464.5;99;9.9;-0.03424068079140752;0.03763728016926267;0.030736914880991072;10.350417160457251;0.1572804115663269;-0.19199523972162133;23.371755236171158;5;1;0;0;0;0;0;0;0;0;0;0;0;0;0;0;0;0
100;2022-05-01 11:26:41.679;5.174232149638379;52.36963180633538;24;-0.05;-0.01;9.51484776;1.85556293;-0.2849187;0.0;0.0;0.0;17.64705849;15.68627453;1464.5;100;10.0;-0.035673440691504896;0.03330633262813983;0.03063214388928096;10.27445129449073;0.3116799169790655;-0.20044338433389378;23.428872164456315;5;1;0;0;0;0;0;0;0;0;0;0;0;0;0;0;0;0
101;2022-05-01 11:26:41.780;5.174330406598451;52.36961199655591;24;0.01;0.01;9.68484116;1.33600533;0.10295381;-0.09;0.0;0.0;17.64705849;15.68627453;1464.5;101;10.100000000000001;-0.03152106069440347;0.031187448043452082;0.03871920762130439;10.220847158444046;0.40480599399786776;-0.17286016700113266;23.480795990736837;5;1;0;0;0;0;0;0;0;0;0;0;0;0;0;0;0;0
102;2022-05-01 11:26:41.879;5.174330406598451;52.36961199655591;24;0.03;0.0;10.41030693;0.31365001;-0.31843856;0.03;0.0;0.0;17.64705849;15.68627453;1464.5;102;10.200000000000001;-0.025927932059237158;0.02835207091014687;0.0351613138622619;10.238071713117535;0.39651863453737624;-0.18609528793944136;23.527998928705152;5;1;0;0;0;0;0;0;0;0;0;0;0;0;0;0;0;0
103;2022-05-01 11:26:41.980;5.174330406598451;52.36961199655591;24;0.05;0.0;10.75268841;-0.16520496;-0.19633053;0.01;1.5686264100000002;0.7843132000000015;17.64705849;15.68627453;1464.5;103;10.3;-0.019025050651125947;0.025774482164355475;0.03374517059505538;10.284857368052034;0.3454503220986242;-0.1870258106102317;23.570910243833662;5;1;0;0;0;0;0;0;0;0;0;0;0;0;0;0;0;0
104;2022-05-01 11:26:42.079;5.174330406598451;52.36961199655591;24;0.08;-0.02;10.26904488;0.43575802;-1.29290843;0.01;1.5686264100000002;0.7843132000000015;17.64705849;15.29411793;1464.5;104;10.4;-0.010022367679914223;0.02161297809657248;0.03245777980694711;10.283419804365042;0.3536604827470682;-0.2875651242513309;23.60992016117841;5;1;0;0;0;0;0;0;0;0;0;0;0;0;0;0;0;0
105;2022-05-01 11:26:42.180;5.174330406598451;52.36961199655591;24;-0.19;-0.17;6.92663717;-2.37990928;-1.16840613;-0.08;1.5686264100000002;0.7843132000000015;17.64705849;15.29411793;1464.5;105;10.5;-0.02638464084061703;0.004192902899806005;0.0394695879474508;9.978245246301615;0.1051439610808731;-0.367644859501851;23.645383417334216;5;1;0;0;0;0;0;0;0;0;0;0;0;0;0;0;0;0
106;2022-05-01 11:26:42.280;5.174330406598451;52.36961199655591;23;-0.02;0.0;10.06313705;-1.50839317;-0.02633702;-0.03;1.5686264100000002;0.7843132000000015;17.64705849;15.29411793;1496.5;106;10.600000000000001;-0.02580419733164223;0.003811715714385748;0.041298285321414274;9.985962970391656;-0.041546695074377096;-0.3366157186391807;23.586710012714732;5;1;0;0;0;0;0;0;0;0;0;0;0;0;0;0;0;0
107;2022-05-01 11:26:42.380;5.174330406598451;52.36961199655591;23;-0.09;-0.14;9.32330608;-1.57543278;-0.18675344;0.01;1.5686264100000002;0.7843132000000015;10.98039246;15.29411793;1496.5;107;10.700000000000001;-0.031640376961334545;-0.009262519218065673;0.03932423892044892;9.925719395509379;-0.18099560529921804;-0.32299141391054204;23.533370933173476;5;1;0;0;0;0;0;0;0;0;0;0;0;0;0;0;0;0
108;2022-05-01 11:26:42.482;5.174330406598451;52.36961199655591;23;-0.03;-0.23;9.92426872;-2.61215377;-0.19154198;0.06;1.5686264100000002;0.7843132000000015;10.98039246;15.29411793;1496.5;108;10.8;-0.03149124719357066;-0.029330180506732632;0.03298406844563231;9.925587511858906;-0.40201678582356054;-0.3110410976028655;23.484881174251566;5;1;0;0;0;0;0;0;0;0;0;0;0;0;0;0;0;0
109;2022-05-01 11:26:42.580;5.174330406598451;52.36961199655591;23;-0.07;-0.22;8.70797729;-3.08143163;0.44772938;0.0;1.5686264100000002;0.7843132000000015;10.98039246;15.29411793;1496.5;109;10.9;-0.03499214084853487;-0.046664285420816076;0.032675009031222835;9.814892576571006;-0.6456067684476692;-0.24206003337659085;23.440799834227867;5;1;0;0;0;0;0;0;0;0;0;0;0;0;0;0;0;0
110;2022-05-01 11:26:42.679;5.174330406598451;52.36961199655591;23;-0.14;-0.23;10.07989693;-2.23146415;1.42459357;0.03;1.96078301;1.1764707600000008;10.98039246;15.29411793;1496.5;110;11.0;-0.044538552664222145;-0.06333159247801144;0.02966670533384909;9.838984494178183;-0.7897792881769682;-0.0905422157532224;23.40072610279643;5;1;0;0;0;0;0;0;0;0;0;0;0;0;0;0;0;0
111;2022-05-01 11:26:42.779;5.174424128565946;52.36959229569903;23;-0.03;0.0;9.9314518;-0.19154198;-0.56504887;-0.02;1.96078301;1.1764707600000008;10.98039246;12.94117641;1496.5;111;11.100000000000001;-0.04321683549807113;-0.05757404185580536;0.03147745671655579;9.847390807257282;-0.7353928208365632;-0.13368018174307184;23.364295614753814;5;1;0;0;0;0;0;0;0;0;0;0;0;0;0;0;0;0
112;2022-05-01 11:26:42.879;5.174424128565946;52.36959229569903;23;0.11;-0.37;10.51804924;-2.281744;-1.28572559;0.18000001;1.96078301;1.1764707600000008;10.98039246;12.94117641;1470.0;112;11.200000000000001;-0.029287739485511294;-0.08597699870881563;0.014941385795386092;9.90836103726457;-0.8759731557174111;-0.23841378396292356;23.331177135453775;5;1;0;0;0;0;0;0;0;0;0;0;0;0;0;0;0;0
113;2022-05-01 11:26:42.981;5.174424128565946;52.36959229569903;23;0.0;-0.27000001;9.65611076;-3.35198474;2.12611604;0.05;1.96078301;1.1764707600000008;10.98039246;12.94117641;1470.0;113;11.3;-0.026625166835477037;-0.10270668305619396;0.011727062937521814;9.885428755668018;-1.1010694192491242;-0.02345241958079006;23.301069547819292;5;1;0;0;0;0;0;0;0;0;0;0;0;0;0;0;0;0
114;2022-05-01 11:26:43.080;5.174424128565946;52.36959229569903;23;-0.01;-0.31;10.51086617;-2.35117793;-1.47247899;-0.1;1.96078301;1.1764707600000008;10.98039246;12.94117641;1470.0;114;11.4;-0.025113761776643935;-0.12155185742296129;0.022441562435431543;9.94228769015929;-1.2147176217566196;-0.15518439620322705;23.273699113456875;5;1;0;0;0;0;0;0;0;0;0;0;0;0;0;0;0;0
115;2022-05-01 11:26:43.181;5.174424128565946;52.36959229569903;23;-0.08;-0.11;9.41189384;-1.29530263;0.72307098;0.1;2.3529415200000017;1.1764707600000008;10.98039246;12.94117641;1470.0;115;11.5;-0.03010349859693885;-0.12050167198136515;0.013999878899467083;9.894069305932849;-1.2220436472925555;-0.0753417374582451;23.248816982920978;5;1;0;0;0;0;0;0;0;0;0;0;0;0;0;0;0;0
116;2022-05-01 11:26:43.282;5.174424128565946;52.36959229569903;23;-0.02;0.02;7.44380045;-3.2633965;0.10774237;0.07;2.3529415200000017;1.1764707600000008;10.98039246;12.94117641;1470.0;116;11.600000000000001;-0.02918498553763665;-0.10772860933079201;0.009052956159649957;9.671314393722769;-1.4076238436835042;-0.058697488732161664;23.226196932450705;5;1;0;0;0;0;0;0;0;0;0;0;0;0;0;0;0;0
117;2022-05-01 11:26:43.380;5.174424128565946;52.36959229569903;22;0.02;-0.28;8.63136101;-3.12692285;-0.91940153;0.0;2.3529415200000017;1.1764707600000008;10.98039246;12.94117641;1447.0;117;11.700000000000001;-0.024713564856920313;-0.12338984925012925;0.010919485415386593;9.576771943092167;-1.5639257933363295;-0.13694433191067987;23.114723029135323;5;1;0;0;0;0;0;0;0;0;0;0;0;0;0;0;0;0
118;2022-05-01 11:26:43.480;5.174424128565946;52.36959229569903;22;-0.18000001;-0.31;10.07510853;-2.27695537;-0.90503585;-0.06;2.3529415200000017;1.1764707600000008;11.76470566;12.94117641;1447.0;118;11.8;-0.03883068191602647;-0.14035460969735347;0.018070936139210063;9.62207580670841;-1.6287474330556966;-0.2067716620616316;23.0133833695386;5;1;0;0;0;0;0;0;0;0;0;0;0;0;0;0;0;0
119;2022-05-01 11:26:43.580;5.174424128565946;52.36959229569903;22;-0.04;-0.23;9.80694962;-2.43497753;-0.25139886;0.0;2.3529415200000017;1.1764707600000008;11.76470566;12.94117641;1447.0;119;11.9;-0.03893698470665181;-0.14850427853980064;0.019117635962164863;9.638882698294026;-1.7020418688178462;-0.2108287238172466;22.92125661495255;5;1;0;0;0;0;0;0;0;0;0;0;0;0;0;0;0;0
120;2022-05-01 11:26:43.679;5.174424128565946;52.36959229569903;22;0.0;-0.16;9.31133461;-2.24104118;0.15323359;0.0;2.3529415200000017;1.1764707600000008;11.76470566;12.94117641;1447.0;120;12.0;-0.03539722411387947;-0.14954935437494482;0.020069179296292407;9.609105307365677;-1.751042286688624;-0.17773182529075;22.837505192339624;5;1;0;0;0;0;0;0;0;0;0;0;0;0;0;0;0;0
121;2022-05-01 11:26:43.779;5.174503606645726;52.36955947888684;22;0.01;-0.17;8.78219986;-2.62651944;0.0574626;0.05;4.705881120000001;2.7450981199999998;11.76470566;20.3921566;1447.0;121;12.100000000000001;-0.031270166949627205;-0.1514085205505847;0.01638872200572066;9.533931414747288;-1.8306318283013285;-0.15635032329729176;22.761367677951668;5;1;0;0;0;0;0;0;0;0;0;0;0;0;0;0;0;0
122;2022-05-01 11:26:43.879;5.174503606645726;52.36955947888684;22;-0.2;-0.20999999;10.31214142;-1.27135992;-0.3328042;-0.02;4.705881120000001;2.7450981199999998;11.76470566;20.3921566;1447.0;122;12.200000000000001;-0.046609366990440326;-0.15673506093957126;0.01940654537074857;9.604678352194739;-1.779788515512177;-0.1723917148152444;22.69215187357626;5;1;0;0;0;0;0;0;0;0;0;0;0;0;0;0;0;0
123;2022-05-01 11:26:43.979;5.174503606645726;52.36955947888684;22;-0.03;-0.18000001;9.88835526;-1.95851684;-0.61532861;-0.02;4.705881120000001;2.7450981199999998;11.76470566;20.3921566;1447.0;123;12.3;-0.0450994134125166;-0.15885007189057418;0.022150016912597235;9.630467351989939;-1.7960366647156976;-0.2126590019468724;22.629228512404545;5;1;0;0;0;0;0;0;0;0;0;0;0;0;0;0;0;0
124;2022-05-01 11:26:44.080;5.174503606645726;52.36955947888684;22;-0.09;-0.25;10.2570734;-2.30568671;-0.6344828;-0.07;4.705881120000001;2.7450981199999998;11.76470566;20.3921566;1447.0;124;12.4;-0.04918131225908996;-0.16713648448988813;0.02918956343171939;9.6874319196943;-1.8423687973248954;-0.2510068767875596;22.572025537249402;5;1;0;0;0;0;0;0;0;0;0;0;0;0;0;0;0;0
125;2022-05-01 11:26:44.180;5.174503606645726;52.36955947888684;22;-0.01;-0.20999999;10.02722263;-2.13569307;-1.00798965;-0.02;4.705881120000001;2.7450981199999998;11.76470566;20.3921566;1720.75;125;12.5;-0.045619353093435226;-0.17103319053470453;0.0310436607723482;9.718322172347767;-1.8690348026555796;-0.3198239115376208;22.52002289905493;5;1;0;0;0;0;0;0;0;0;0;0;0;0;0;0;0;0
126;2022-05-01 11:26:44.282;5.174503606645726;52.36955947888684;22;-0.05;-0.16;9.90990353;-2.48046875;-0.82602483;-0.02;4.705881120000001;2.7450981199999998;20.0;20.3921566;1720.75;126;12.600000000000001;-0.04601759592563649;-0.17003016766149093;0.03272920185003044;9.735738755810372;-1.9246200146318138;-0.3658424315715535;22.472747828375574;5;1;0;0;0;0;0;0;0;0;0;0;0;0;0;0;0;0
127;2022-05-01 11:26:44.381;5.174503606645726;52.36955947888684;22;-0.07;-0.15000001;9.49808788;-1.71430075;-0.92179579;-0.05;4.705881120000001;2.7450981199999998;20.0;20.3921566;1720.75;127;12.700000000000001;-0.04819782544865687;-0.16820923507487767;0.03698879675227721;9.714134022022765;-1.9054999852724392;-0.4163839002962729;22.42977053680913;5;1;0;0;0;0;0;0;0;0;0;0;0;0;0;0;0;0
128;2022-05-01 11:26:44.484;5.174503606645726;52.36955947888684;22;-0.09;-0.23999999;9.96736622;-2.3655436;-0.50040346;-0.03;4.705881120000001;2.7450981199999998;20.0;20.3921566;1720.75;128;12.8;-0.051998040519225755;-0.17473569719609766;0.039042961898848275;9.737155236240326;-1.947322323382132;-0.4240220770283589;22.39070030928155;5;1;0;0;0;0;0;0;0;0;0;0;0;0;0;0;0;0
129;2022-05-01 11:26:44.582;5.174503606645726;52.36955947888684;22;-0.02;-0.19;9.57709885;-2.281744;-0.45491222;-0.01;4.705881120000001;2.7450981199999998;20.0;20.3921566;1720.75;129;12.9;-0.049089115647590414;-0.17612336685817478;0.03909219374914488;9.7226045951622;-1.9777244204150175;-0.4268302835222718;22.355181951638937;5;1;0;0;0;0;0;0;0;0;0;0;0;0;0;0;0;0
130;2022-05-01 11:26:44.685;5.174503606645726;52.36955947888684;22;-0.05;-0.27000001;9.61301327;-2.26498389;-1.71908927;-0.02;4.705881120000001;2.7450981199999998;20.0;20.3921566;1720.75;130;13.0;-0.04917192362905335;-0.1846576394082814;0.0400460442871475;9.712641709754713;-2.003839016378292;-0.5443088173388683;22.322892561235555;5;1;0;0;0;0;0;0;0;0;0;0;0;0;0;0;0;0
131;2022-05-01 11:26:44.779;5.174561052054095;52.36951425961816;22;-0.03;-0.16;9.89793205;-1.8268317;-0.88588166;-0.05;4.705881120000001;2.7450981199999998;20.0;20.3921566;1720.75;131;13.100000000000001;-0.04742901549077506;-0.18241602812154023;0.04364046261466151;9.729486344033793;-1.9877473868569324;-0.5753610006673461;22.293538591145975;5;1;0;0;0;0;0;0;0;0;0;0;0;0;0;0;0;0
132;2022-05-01 11:26:44.881;5.174561052054095;52.36951425961816;22;-0.02;-0.22;9.91229725;-2.08541346;-0.32562137;0.0;4.705881120000001;2.7450981199999998;20.0;20.3921566;1720.75;132;13.200000000000001;-0.044935460837003144;-0.18583276351316544;0.04236264474812982;9.746105569229302;-1.9966261485202312;-0.5526573269430274;22.266853181301066;5;1;0;0;0;0;0;0;0;0;0;0;0;0;0;0;0;0
133;2022-05-01 11:26:44.982;5.174561052054095;52.36951425961816;22;-0.09;-0.23999999;10.16609097;-2.64088511;-0.98883551;0.0;5.882352830000002;3.1372547200000014;20.0;20.3921566;1720.75;133;13.3;-0.049032248761083086;-0.1907570708171749;0.041200992835102174;9.784286168656802;-2.0551953113785046;-0.5923100016687507;22.24259373227614;5;1;0;0;0;0;0;0;0;0;0;0;0;0;0;0;0;0
134;2022-05-01 11:26:45.083;5.174561052054095;52.36951425961816;22;-0.02;-0.2;9.39274025;-2.48765159;-1.01996112;-0.09;5.882352830000002;3.1372547200000014;20.0;36.47058868;1720.75;134;13.4;-0.046392946603997655;-0.191597339276252;0.04832678552294149;9.748690993229188;-2.0945096200427664;-0.6311874764513674;22.22053969966706;5;1;0;0;0;0;0;0;0;0;0;0;0;0;0;0;0;0
135;2022-05-01 11:26:45.182;5.174561052054095;52.36951425961816;23;-0.08;-0.19;9.44062519;-2.05907631;-0.97446984;-0.06;5.882352830000002;3.1372547200000014;26.27450943;36.47058868;1752.25;135;13.5;-0.04944814044825099;-0.19145212627389552;0.052077496552704175;9.72068494537488;-2.0912884024772582;-0.6623950373046279;22.29139989331023;5;1;0;0;0;0;0;0;0;0;0;0;0;0;0;0;0;0
136;2022-05-01 11:26:45.282;5.174561052054095;52.36951425961816;23;-0.06;-0.17;9.94342327;-2.1189332;-0.8092649;-0.04;5.882352830000002;3.1372547200000014;26.27450943;36.47058868;1752.25;136;13.600000000000001;-0.0504074024546024;-0.18950192881447334;0.05366904662615929;9.740933927189259;-2.093801571251614;-0.6757468714975277;22.355818222298637;5;1;0;0;0;0;0;0;0;0;0;0;0;0;0;0;0;0
137;2022-05-01 11:26:45.380;5.174561052054095;52.36951425961816;23;0.0;-0.23;9.06233025;-2.44694877;-1.04150951;-0.06;6.274509430000002;3.1372547200000014;26.27450943;36.47058868;1752.25;137;13.700000000000001;-0.04582490243215778;-0.19318357879204912;0.05693409508536047;9.679242564125046;-2.1259059243304734;-0.7089980849607984;22.41438031570215;5;1;0;0;0;0;0;0;0;0;0;0;0;0;0;0;0;0
138;2022-05-01 11:26:45.489;5.174561052054095;52.36951425961816;23;-0.12;-0.22;10.28819847;-2.2841382;-0.77095652;-0.03;6.274509430000002;3.1372547200000014;26.27450943;38.03921509;1752.25;138;13.8;-0.05256810501291207;-0.19562143956507552;0.05717504232073311;9.734602289568018;-2.1402907020340347;-0.714630679898388;22.467618562714712;5;1;0;0;0;0;0;0;0;0;0;0;0;0;0;0;0;0
139;2022-05-01 11:26:45.582;5.174561052054095;52.36951425961816;23;-0.14;-0.20999999;8.8157196;-2.32723522;-0.45491222;-0.01;6.274509430000002;3.1372547200000014;27.45098114;38.03921509;1785.0;139;13.9;-0.06051647184653635;-0.19692858260949225;0.05557590045488931;9.651067365672882;-2.157285685461398;-0.6910198729607002;22.51601695279399;5;1;0;0;0;0;0;0;0;0;0;0;0;0;0;0;0;0
140;2022-05-01 11:26:45.681;5.174561052054095;52.36951425961816;23;-0.12;-0.20999999;9.39513397;-2.0375278;-1.4341706;-0.09;6.274509430000002;3.1372547200000014;27.45098114;38.03921509;1785.0;140;14.0;-0.06592407319702634;-0.19811689410432073;0.06139487344058925;9.627800659425976;-2.14639858909613;-0.7585791284370641;22.560015475762118;5;1;0;0;0;0;0;0;0;0;0;0;0;0;0;0;0;0
141;2022-05-01 11:26:45.780;5.1745967510701;52.369457421010864;23;0.05;-0.17;9.80216122;-1.7454263;-0.82602483;-0.09;6.274509430000002;3.1372547200000014;27.45098114;38.03921509;1785.0;141;14.100000000000001;-0.05538550712387168;-0.19556080943511955;0.06668484741011965;9.643651640481814;-2.109946514513126;-0.7647105639764555;22.600014121875645;5;1;0;0;0;0;0;0;0;0;0;0;0;0;0;0;0;0
142;2022-05-01 11:26:45.881;5.1745967510701;52.369457421010864;23;-0.17;-0.23;10.252285;-3.05509472;-1.09657788;-0.07;6.666666030000002;3.1372547200000014;27.45098114;38.03921509;1785.0;142;14.200000000000001;-0.06580501902768245;-0.19869164871245423;0.06967572943022424;9.69898201254401;-2.1958691821514957;-0.7948803563213926;22.636376518234865;5;1;0;0;0;0;0;0;0;0;0;0;0;0;0;0;0;0
143;2022-05-01 11:26:45.984;5.1745967510701;52.369457421010864;23;-0.02;-0.18000001;10.52523232;-2.78454161;-0.6751855;-0.03;6.666666030000002;3.1372547200000014;27.45098114;40.39215851;1785.0;143;14.3;-0.06164092182870402;-0.1969924069686661;0.06875834484103155;9.774095759115172;-2.249384916015471;-0.7839989938305526;22.669433234595704;5;1;0;0;0;0;0;0;0;0;0;0;0;0;0;0;0;0
144;2022-05-01 11:26:46.081;5.1745967510701;52.369457421010864;24;-0.11;-0.25;9.00965595;-1.97767103;-0.95052707;-0.03;6.666666030000002;3.1372547200000014;30.98039246;40.39215851;1844.0;144;14.4;-0.06603720603915451;-0.2018112838598298;0.06792435902521327;9.704601161828833;-2.224683629059199;-0.7991379249174355;22.790393970054247;5;1;0;0;0;0;0;0;0;0;0;0;0;0;0;0;0;0
145;2022-05-01 11:26:46.186;5.1745967510701;52.369457421010864;24;0.07;-0.12;9.85004616;-2.95214081;-0.7589851;-0.11;6.666666030000002;3.1372547200000014;30.98039246;40.39215851;1844.0;145;14.5;-0.05367017611566056;-0.19437388768688307;0.07443892410068392;9.717823446356551;-2.2908161599064294;-0.7954876648031266;22.900358254116888;5;1;0;0;0;0;0;0;0;0;0;0;0;0;0;0;0;0
146;2022-05-01 11:26:46.285;5.1745967510701;52.369457421010864;24;-0.06;-0.34999999;9.47175121;-3.16523123;-0.63687712;-0.06;6.666666030000002;3.1372547200000014;30.98039246;40.39215851;1844.0;146;14.600000000000001;-0.05424561512405101;-0.20852172681022646;0.0758157966789175;9.695453224645998;-2.370308504409284;-0.7810685125029192;23.00032576781048;5;1;0;0;0;0;0;0;0;0;0;0;0;0;0;0;0;0
147;2022-05-01 11:26:46.380;5.1745967510701;52.369457421010864;24;-0.01;-0.14;10.05356026;-1.63050115;-1.38628507;-0.1;8.23529435;3.1372547200000014;30.98039246;40.39215851;1844.0;147;14.700000000000001;-0.05022328346783756;-0.20229247425911062;0.0807038651824039;9.728008434028412;-2.3030532400673396;-0.8360882407010645;23.091205311438998;5;1;0;0;0;0;0;0;0;0;0;0;0;0;0;0;0;0
148;2022-05-01 11:26:46.483;5.1745967510701;52.369457421010864;24;-0.07;-0.2;9.06711864;-2.56905699;-1.36234236;-0.11;8.23529435;4.313725470000001;30.98039246;41.96078491;1844.0;148;14.8;-0.05202116801145123;-0.20208406736657192;0.08605665471465027;9.667927502808947;-2.3272354155952866;-0.8839295568043666;23.173823066576706;5;1;0;0;0;0;0;0;0;0;0;0;0;0;0;0;0;0
149;2022-05-01 11:26:46.582;5.1745967510701;52.369457421010864;24;-0.08;-0.25999999;9.51005936;-2.60257673;-1.72148359;-0.14;8.23529435;4.313725470000001;30.98039246;41.96078491;1844.0;149;14.9;-0.05456469976452468;-0.20734915449697683;0.09365010079815245;9.653575844591133;-2.3522664596505924;-0.9600708796165462;23.248930106952052;5;1;0;0;0;0;0;0;0;0;0;0;0;0;0;0;0;0
150;2022-05-01 11:26:46.680;5.1745967510701;52.369457421010864;24;0.0;-0.22;9.78061295;-3.03833485;-1.64007819;-0.12;8.23529435;4.313725470000001;30.98039246;41.96078491;2039.75;150;15.0;-0.04960426972564653;-0.20849923200718432;0.09873504994676185;9.665124678845547;-2.4146363483680338;-1.0218897607547117;23.31720922650829;5;1;0;0;0;0;0;0;0;0;0;0;0;0;0;0;0;0
151;2022-05-01 11:26:46.779;5.174600187500753;52.36939250182658;25;0.01;-0.30000001;10.34087276;-3.1748085;-0.409421;0.0;8.23529435;4.313725470000001;27.84313774;41.96078491;2039.75;151;15.100000000000001;-0.04418569698239221;-0.21681748880154783;0.09244863401277686;9.726556353970565;-2.4837429429119076;-0.9662107540594538;23.47019028407032;5;1;0;0;0;0;0;0;0;0;0;0;0;0;0;0;0;0
152;2022-05-01 11:26:46.879;5.174600187500753;52.36939250182658;25;0.02;-0.19;8.96655941;-2.57623959;-2.06147051;-0.09;8.23529435;4.313725470000001;27.84313774;41.96078491;2039.75;152;15.200000000000001;-0.03835063091038365;-0.21437953414187794;0.09491553297549615;9.657465690612819;-2.4921517329161094;-1.0657798690240892;23.609263959199208;5;1;0;0;0;0;0;0;0;0;0;0;0;0;0;0;0;0
153;2022-05-01 11:26:46.977;5.174600187500753;52.36939250182658;25;-0.16;-0.20999999;9.01444435;-1.53951871;-1.2258687;-0.19;8.23529435;4.313725470000001;27.84313774;41.96078491;2039.75;153;15.3;-0.04940966913319984;-0.21398139359724544;0.10624908112647513;9.599009180421756;-2.4055486942683286;-1.080333405257428;23.735694561742932;5;1;0;0;0;0;0;0;0;0;0;0;0;0;0;0;0;0
154;2022-05-01 11:26:47.082;5.174600187500753;52.36939250182658;25;-0.1;-0.16;10.67367744;-1.25938857;-2.61694241;-0.08;10.588233950000003;5.09803868;27.84313774;41.96078491;2039.75;154;15.4;-0.05400879188635126;-0.2090739922957284;0.10655230204954313;9.696706332427526;-2.3013522793416055;-1.2200251865785632;23.850631463882014;5;1;0;0;0;0;0;0;0;0;0;0;0;0;0;0;0;0
155;2022-05-01 11:26:47.180;5.174600187500753;52.36939250182658;25;-0.12;-0.16;9.0431757;-1.82204318;-1.44853628;-0.11;10.588233950000003;5.09803868;27.84313774;51.37254715;2039.75;155;15.5;-0.06000799471727106;-0.20461271871216175;0.109555231092858;9.63729443602157;-2.2577787096517814;-1.2407989295927775;23.95511954907927;5;1;0;0;0;0;0;0;0;0;0;0;0;0;0;0;0;0
156;2022-05-01 11:26:47.283;5.174600187500753;52.36939250182658;25;0.02;-0.1;9.85962391;-1.16122329;-1.30248547;-0.05;10.588233950000003;5.09803868;27.84313774;51.37254715;2039.75;156;15.600000000000001;-0.052734538344843214;-0.19510246853975338;0.10683061922013914;9.657506212794646;-2.15809182169801;-1.2464067986814036;24.050108711112777;5;1;0;0;0;0;0;0;0;0;0;0;0;0;0;0;0;0
157;2022-05-01 11:26:47.386;5.174600187500753;52.36939250182658;25;-0.04;-0.06;9.22514057;-0.45970076;-1.28333127;-0.12;10.588233950000003;5.09803868;27.84313774;51.37254715;2039.75;157;15.700000000000001;-0.0515768527069204;-0.18282042240341048;0.1107173376845905;9.618200233933047;-2.0036925897462305;-1.2497635697692806;24.136462489550144;5;1;0;0;0;0;0;0;0;0;0;0;0;0;0;0;0;0
158;2022-05-01 11:26:47.479;5.174600187500753;52.36939250182658;25;-0.12;-0.06;9.72793865;-1.05348086;-1.76458049;-0.14;10.588233950000003;5.09803868;27.84313774;51.37254715;2121.0;158;15.8;-0.05779714045517108;-0.1716549265305222;0.11606890020712793;9.628176456190843;-1.9173096825778786;-1.2965651202414725;24.214965920171338;5;1;0;0;0;0;0;0;0;0;0;0;0;0;0;0;0;0
159;2022-05-01 11:26:47.581;5.174600187500753;52.36939250182658;25;-0.01;-0.04;10.05834866;-0.60575151;-1.84838021;-0.15000001;10.588233950000003;5.09803868;27.84313774;51.37254715;2121.0;159;15.9;-0.05345194483276676;-0.15968629399349984;0.1218430488371518;9.667283029493584;-1.7980770930182777;-1.3467301403569385;24.286332671709726;5;1;0;0;0;0;0;0;0;0;0;0;0;0;0;0;0;0
160;2022-05-01 11:26:47.679;5.174600187500753;52.36939250182658;28;0.03;-0.05;9.72315025;-0.27055305;-2.00640225;-0.07;10.588233950000003;5.09803868;32.15686417;51.37254715;2121.0;160;16.0;-0.045865402749728085;-0.1497148105609471;0.11981954486809032;9.672361868821818;-1.659211240839104;-1.4067003451357845;24.623938865608974;5;1;0;0;0;0;0;0;0;0;0;0;0;0;0;0;0;0
161;2022-05-01 11:26:47.779;5.174572146467733;52.36932311360224;28;-0.07;0.05;9.52681923;0.53871185;-1.41022789;-0.18000001;10.588233950000003;5.09803868;32.15686417;51.37254715;2121.0;161;16.1;-0.04805945747735531;-0.1315589151157275;0.12797999876011817;9.659130717231967;-1.4594000114073704;-1.4070210310956945;24.930853574640864;5;1;0;0;0;0;0;0;0;0;0;0;0;0;0;0;0;0
162;2022-05-01 11:26:47.879;5.174572146467733;52.36932311360224;28;0.0;0.0;9.85244083;-0.19872481;-1.20671451;-0.14;10.588233950000003;5.09803868;32.15686417;51.37254715;2121.0;162;16.2;-0.043690415106195375;-0.11959901160006102;0.13176222773188903;9.676704366993937;-1.3447931543945832;-1.3888113440991428;25.209866935996562;5;1;0;0;0;0;0;0;0;0;0;0;0;0;0;0;0;0
