;device_time;lon;lat;raw_speed_kph;raw_g_x;raw_g_y;raw_roll;raw_yaw;raw_pitch;raw_g_z;apps_d;apps_e;engine_load;engine_load_abs;engine_rpm;num_samples;cumulative_time;g_x;g_y;g_z;roll;yaw;pitch;speed_kph;sample_nr;roundabout_1;roundabout_2;roundabout_3;roundabout_4;turning_right_1;turning_right_2;turning_right_3;turning_left_1;turning_left_2;road_50km_1;road_50km_2;road_100km;entering_highway;exiting_highway;speed_bumps;road_50km_3;road_50km_4
0;2022-04-07 21:23:19.780;5.173754696246267;52.36977026149719;0;0.0;-0.02;9.45499134;-0.27055305;0.0191542;0.0;0.0;0.0;14.90196037;18.8235302;857.25;0;0.0;0.0;-0.02;0.04000477;9.45499134;-0.27055305;0.0191542;0.0;8;0;0;0;0;0;0;0;0;0;0;0;0;0;0;0;0;0
1;2022-04-07 21:23:19.876;5.173754696246267;52.36977026149719;0;-0.02;0.0;9.7087841;-0.43336374;-0.06943397;0.0;0.0;0.0;14.90196037;18.8235302;857.25;1;0.1;-0.010476190476190476;-0.009523809523809523;0.04000477;9.587930404761904;-0.35583484;-0.02724912714285714;0.0;8;0;0;0;0;0;0;0;0;0;0;0;0;0;0;0;0;0
2;2022-04-07 21:23:19.975;5.173754696246267;52.36977026149719;0;0.01;0.01;10.0487709;-0.09816527;-0.00478855;0.01;0.0;0.0;14.90196037;18.8235302;856.75;2;0.2;-0.0029909365558912385;-0.0023867069486404823;0.03634918087613293;9.756394754984894;-0.2616414322356495;-0.019038462990936558;0.0;8;0;0;0;0;0;0;0;0;0;0;0;0;0;0;0;0;0
3;2022-04-07 21:23:20.076;5.173754696246267;52.36977026149719;0;-0.03;-0.02;10.11820507;-0.2370332;-0.05506832;0.01;0.0;0.0;14.90196037;18.8235302;856.75;3;0.30000000000000004;-0.010736910148674854;-0.007438052143934496;0.03452965687782805;9.860158928500322;-0.2545839969618616;-0.029371524761904765;0.0;8;0;0;0;0;0;0;0;0;0;0;0;0;0;0;0;0;0
4;2022-04-07 21:23:20.175;5.173754696246267;52.36977026149719;0;0.0;0.01;9.99370289;-0.16281068;-0.14605077;-0.01;0.0;0.0;15.29411793;18.8235302;856.75;4;0.4;-0.008162028468002161;-0.003256130120718742;0.03824083492932139;9.892184892699381;-0.23257529712666453;-0.05735306199357913;0.0;8;0;0;0;0;0;0;0;0;0;0;0;0;0;0;0;0;0
5;2022-04-07 21:23:20.276;5.173754696246267;52.36977026149719;0;0.03;0.02;9.79497814;-0.18196489;-0.30886146;0.0;0.0;0.0;15.29411793;18.8235302;856.75;5;0.5;-0.00019631629903533166;0.0015982145287281248;0.03860902812087444;9.871894540116774;-0.22201118530899042;-0.10985141145309311;0.0;8;0;0;0;0;0;0;0;0;0;0;0;0;0;0;0;0;0
6;2022-04-07 21:23:20.377;5.173754696246267;52.36977026149719;0;-0.04;-0.01;9.48611641;-0.35195839;-0.09098244;0.0;0.0;0.0;15.29411793;18.8235302;856.75;6;0.6000000000000001;-0.00762894860859997;-0.0005675464266428834;0.038869658173724286;9.799857313216595;-0.24627652214012896;-0.10632796553476687;0.0;8;0;0;0;0;0;0;0;0;0;0;0;0;0;0;0;0;0
7;2022-04-07 21:23:20.477;5.173754696246267;52.36977026149719;0;0.02;0.01;9.48132801;-0.38308397;-0.14605077;0.0;0.0;0.0;15.29411793;18.8235302;856.75;7;0.7000000000000001;-0.002920874855359942;0.0012332020807373945;0.039063085374736836;9.745578756570936;-0.26958901092286625;-0.11309687649685962;0.0;8;0;0;0;0;0;0;0;0;0;0;0;0;0;0;0;0;0
8;2022-04-07 21:23:20.576;5.173754696246267;52.36977026149719;0;0.01;0.01;9.75427532;-0.35914123;-0.03351985;0.0;0.0;0.0;15.29411793;18.8235302;856.75;8;0.8;-0.0008812496960900967;0.0026170852776979323;0.0392117350347084;9.74695155289995;-0.2837252796463728;-0.10053524215245234;0.0;8;0;0;0;0;0;0;0;0;0;0;0;0;0;0;0;0;0
9;2022-04-07 21:23:20.676;5.173754696246267;52.36977026149719;0;-0.04;-0.01;9.99609756;-0.16520496;0.0095771;0.01;0.0;0.0;15.29411793;18.8235302;856.75;9;0.9;-0.006668882846562995;0.0007503829815295016;0.03784956125266922;9.783812794089858;-0.2661901558077815;-0.08424408160241681;0.0;8;0;0;0;0;0;0;0;0;0;0;0;0;0;0;0;0;0
10;2022-04-07 21:23:20.777;5.173754696246267;52.36977026149719;0;0.01;0.0;9.98651981;-0.27294734;0.0;0.01;0.0;0.0;15.29411793;18.8235302;856.75;10;1.0;-0.004335797776474775;0.0006453545073857921;0.03675155333467998;9.812184984162547;-0.2671359351800297;-0.07245273296561125;0.0;8;0;0;0;0;0;0;0;0;0;0;0;0;0;0;0;0;0
11;2022-04-07 21:23:20.876;5.173754696246267;52.36977026149719;0;-0.04;0.0;9.96736622;-0.16281068;-0.24182175;0.03;0.0;0.0;15.29411793;18.8235302;856.75;11;1.1;-0.009094158275321684;0.0005592505374595634;0.033182965525164754;9.83288945017424;-0.25321673490829827;-0.0950501497067421;0.0;8;0;0;0;0;0;0;0;0;0;0;0;0;0;0;0;0;0
12;2022-04-07 21:23:20.975;5.173754696246267;52.36977026149719;0;0.02;0.02;10.13496494;-0.21069619;0.13647367;0.0;0.0;0.0;15.29411793;18.8235302;856.75;12;1.2000000000000002;-0.005370674046001661;0.0030472869104290323;0.03405602331007064;9.871549215196017;-0.24777493532468778;-0.06541962102012194;0.0;8;0;0;0;0;0;0;0;0;0;0;0;0;0;0;0;0;0
13;2022-04-07 21:23:21.076;5.173754696246267;52.36977026149719;0;0.02;0.01;9.97933769;-0.12450229;-0.09098244;0.0;0.0;0.0;15.29411793;18.8235302;856.75;13;1.3;-0.0022397893345832403;0.0039052910405340054;0.03479013230653761;9.884850922798227;-0.23256239347880034;-0.0685742175034373;0.0;8;0;0;0;0;0;0;0;0;0;0;0;0;0;0;0;0;0
14;2022-04-07 21:23:21.176;5.173754696246267;52.36977026149719;0;0.0;0.0;9.92905807;-0.17717634;-0.16520496;0.0;0.0;0.0;15.29411793;18.8235302;856.75;14;1.4000000000000001;-0.001972086095265319;0.0034385243469490763;0.03541339422713648;9.890134632441892;-0.22594256289903314;-0.08012367993930475;0.0;8;0;0;0;0;0;0;0;0;0;0;0;0;0;0;0;0;0
15;2022-04-07 21:23:21.277;5.173754696246267;52.36977026149719;0;0.02;0.01;9.62977314;-0.31125572;-0.03591412;0.01;0.0;0.0;15.29411793;18.8235302;856.75;15;1.5;0.0005810028088238782;0.004200947660403394;0.034784928707712465;9.859881426873544;-0.23585568966464474;-0.07498666489001331;0.0;8;0;0;0;0;0;0;0;0;0;0;0;0;0;0;0;0;0
16;2022-04-07 21:23:21.375;5.173754696246267;52.36977026149719;0;0.0;0.01;9.88356686;-0.30646718;-0.05506832;0.02;0.0;0.0;15.29411793;18.8235302;856.75;16;1.6;0.0005151571613314082;0.004858160242415558;0.033109878079091826;9.862565721435747;-0.24385816268358176;-0.07272929832251564;0.0;8;0;0;0;0;0;0;0;0;0;0;0;0;0;0;0;0;0
17;2022-04-07 21:23:21.477;5.173754696246267;52.36977026149719;0;-0.03;-0.01;10.07271385;-0.03591412;-0.22027329;0.01;0.0;0.0;15.29411793;18.8235302;856.75;17;1.7000000000000002;-0.0028673154694215225;0.003211197714986806;0.03276569033535747;9.885859728722503;-0.2208084687433967;-0.08908390895232876;0.0;8;0;0;0;0;0;0;0;0;0;0;0;0;0;0;0;0;0
18;2022-04-07 21:23:21.577;5.173754696246267;52.36977026149719;0;0.01;0.01;10.0822916;-0.10295381;-0.20351335;0.0;0.0;0.0;15.29411793;34.50980377;856.75;18;1.8;-0.0014689088630972646;0.003948997762475537;0.033552426065184014;9.907207742388593;-0.2080001456891811;-0.10151998287150264;0.0;8;0;0;0;0;0;0;0;0;0;0;0;0;0;0;0;0;0
19;2022-04-07 21:23:21.677;5.173754696246267;52.36977026149719;0;0.01;0.0;9.96257782;-0.16041641;-0.08379962;0.0;0.0;0.0;15.29411793;34.50980377;856.75;19;1.9000000000000001;-0.0002442418343609649;0.0035273179484682643;0.03424141688108119;9.913120241061195;-0.20291908410797455;-0.09962777634993895;0.0;8;0;0;0;0;0;0;0;0;0;0;0;0;0;0;0;0;0
20;2022-04-07 21:23:21.776;5.173754696246267;52.36977026149719;0;-0.02;0.0;9.89793205;-0.1340794;-0.20590763;0.0;0.0;0.0;15.29411793;34.50980377;856.75;20;2.0;-0.0023208304553641156;0.0031565506889667133;0.034847220688013075;9.911523763494156;-0.1956831327719886;-0.11079917928376597;0.0;8;0;0;0;0;0;0;0;0;0;0;0;0;0;0;0;0;0
21;2022-04-07 21:23:21.876;5.173754696246267;52.36977026149719;0;0.02;0.01;9.82131481;-0.14126222;-0.56983739;0.0;0.0;0.0;15.29411793;34.50980377;856.75;21;2.1;-7.478017936146874e-06;0.0038658123885146815;0.03538175408254333;9.902174420383432;-0.19004289678435848;-0.1583743430195657;0.0;8;0;0;0;0;0;0;0;0;0;0;0;0;0;0;0;0;0
22;2022-04-07 21:23:21.975;5.173754696246267;52.36977026149719;0;-0.02;0.01;9.61061954;-0.10055954;-0.17717634;0.0;0.0;0.0;15.29411793;34.50980377;856.75;22;2.2;-0.002053472962579727;0.004493572950881643;0.03585486433869855;9.872337273679989;-0.18088534798812425;-0.16029850200289378;0.0;8;0;0;0;0;0;0;0;0;0;0;0;0;0;0;0;0;0
23;2022-04-07 21:23:22.076;5.173754696246267;52.36977026149719;0;0.04;0.02;9.67526436;-0.38787252;-0.24182175;0.01;0.0;0.0;15.29411793;34.50980377;856.75;23;2.3000000000000003;0.0022015653424246554;0.006062538280486305;0.035262942346400754;9.852397118027842;-0.20182864430847253;-0.16854715588422067;0.0;8;0;0;0;0;0;0;0;0;0;0;0;0;0;0;0;0;0
24;2022-04-07 21:23:22.177;5.173754696246267;52.36977026149719;0;-0.02;0.0;9.43823147;-0.11013664;-0.06943397;0.01;0.0;0.0;15.29411793;34.50980377;856.75;24;2.4000000000000004;-2.1983433371439567e-05;0.0054553581396323235;0.03473632170035908;9.810917271654608;-0.19264543399037842;-0.15862069350469724;0.0;8;0;0;0;0;0;0;0;0;0;0;0;0;0;0;0;0;0
25;2022-04-07 21:23:22.277;5.173754696246267;52.36977026149719;0;-0.01;0.0;9.46217442;-0.09098244;0.02154847;-0.01;0.0;0.0;15.29411793;34.50980377;825.25;25;2.5;-0.001012156792669243;0.004913993003663469;0.03625149364291565;9.776309604023663;-0.1825568570068128;-0.140741518352195;0.0;8;0;0;0;0;0;0;0;0;0;0;0;0;0;0;0;0;0
26;2022-04-07 21:23:22.378;5.173754696246267;52.36977026149719;0;0.02;0.0;9.7039957;-0.25858167;-0.05985687;0.0;0.0;0.0;15.29411793;34.50980377;825.25;26;2.6;0.001055776437795985;0.004430377279355977;0.03662087623312372;9.769192756066037;-0.1900389179242035;-0.13278117169133466;0.0;8;0;0;0;0;0;0;0;0;0;0;0;0;0;0;0;0;0
27;2022-04-07 21:23:22.478;5.173754696246267;52.36977026149719;0;-0.01;0.0;9.90032673;0.18675344;-0.27055305;0.01;0.0;0.0;15.29411793;34.50980377;825.25;27;2.7;-2.4182089022866976e-05;0.003997605890861907;0.03597459685319934;9.782002281846738;-0.15323280827917657;-0.1462391061541406;0.0;8;0;0;0;0;0;0;0;0;0;0;0;0;0;0;0;0;0
28;2022-04-07 21:23:22.580;5.173754696246267;52.36977026149719;0;-0.01;0.02;10.03201103;-0.34716985;-0.3328042;0.0;0.0;0.0;22.74509811;34.50980377;825.25;28;2.8000000000000003;-0.0009920910338769575;0.005550246540033303;0.036365626508402527;9.806259511257776;-0.1720496510779581;-0.16434068185874992;0.0;8;0;0;0;0;0;0;0;0;0;0;0;0;0;0;0;0;0
29;2022-04-07 21:23:22.679;5.173754696246267;52.36977026149719;0;0.02;0.0;9.76864147;0.18435916;-0.2370332;-0.01;0.0;0.0;22.74509811;34.50980377;825.25;29;2.9000000000000004;0.0010322955444180646;0.005015004739502835;0.03768092658876476;9.802631789860175;-0.13767912494180826;-0.1713508342933088;0.0;8;0;0;0;0;0;0;0;0;0;0;0;0;0;0;0;0;0
30;2022-04-07 21:23:22.776;5.173754696246267;52.36977026149719;0;-0.02;-0.03;9.64174461;-0.59617442;-0.17957062;0.0;0.0;0.0;22.74509811;34.50980377;825.25;30;3.0;-0.000984820411697856;0.0016568679819452107;0.037903796299511176;9.787201800444846;-0.1816514138207274;-0.17213915817691935;0.0;8;0;0;0;0;0;0;0;0;0;0;0;0;0;0;0;0;0
31;2022-04-07 21:23:22.875;5.173754696246267;52.36977026149719;0;-0.02;-0.03;9.87159538;-0.42139238;-0.08379962;0.0;0.0;0.0;22.74509811;34.50980377;825.25;31;3.1;-0.002799416816228768;-0.0013641099978834149;0.03810428976870073;9.795255381286148;-0.2045296145354501;-0.16370901910779515;0.0;8;0;0;0;0;0;0;0;0;0;0;0;0;0;0;0;0;0
32;2022-04-07 21:23:22.977;5.173754696246267;52.36977026149719;0;0.0;0.02;9.90990353;-0.20590763;-0.12210801;0.0;0.0;0.0;22.74509811;34.50980377;825.25;32;3.2;-0.002533473729587491;0.0006654689212840764;0.0382848343649475;9.806146893536097;-0.20466052526084025;-0.15975694569543952;0.0;8;0;0;0;0;0;0;0;0;0;0;0;0;0;0;0;0;0
33;2022-04-07 21:23:23.077;5.173754696246267;52.36977026149719;0;-0.03;-0.05;10.38397026;-0.29449579;-0.12450229;0.0;0.0;0.0;22.74509811;34.50980377;825.25;33;3.3000000000000003;-0.005132149357855328;-0.004128115749171051;0.038447561707058285;9.860816183896667;-0.2131600606858249;-0.15642141598058792;0.0;8;0;0;0;0;0;0;0;0;0;0;0;0;0;0;0;0;0
34;2022-04-07 21:23:23.180;5.173754696246267;52.36977026149719;0;-0.01;0.03;10.4366436;-0.48124924;-0.28970724;0.0;0.0;0.0;22.74509811;34.50980377;825.25;34;3.4000000000000004;-0.005591009355720496;-0.0009110846052353466;0.03859434940588136;9.915095615692763;-0.23843104973029955;-0.16898538669807464;0.0;8;0;0;0;0;0;0;0;0;0;0;0;0;0;0;0;0;0
35;2022-04-07 21:23:23.278;5.173754696246267;52.36977026149719;0;0.04;0.03;9.80216122;-0.10295381;-0.25618741;-0.02;0.0;0.0;22.74509811;34.50980377;825.25;35;3.5;-0.0013078142744547873;0.0019929573848137204;0.040605820734823383;9.904485628000613;-0.22570320151994913;-0.17717786329733112;0.0;8;0;0;0;0;0;0;0;0;0;0;0;0;0;0;0;0;0
36;2022-04-07 21:23:23.377;5.173754696246267;52.36977026149719;0;-0.04;0.0;9.47414589;-0.23463893;-0.32083282;-0.01;0.0;0.0;22.74509811;34.50980377;825.25;36;3.6;-0.004931862994958274;0.0018062898568615925;0.04148615999247488;9.864178466550872;-0.22654015385948872;-0.19063310115143284;0.0;8;0;0;0;0;0;0;0;0;0;0;0;0;0;0;0;0;0
37;2022-04-07 21:23:23.476;5.173754696246267;52.36977026149719;0;0.0;0.04;9.44301987;0.08140534;-0.4668836;-0.02;0.0;0.0;22.74509811;34.50980377;825.25;37;3.7;-0.004471195943047434;0.0053738228299314485;0.043215914749728704;9.824839602259967;-0.19777610608474347;-0.21643663685864176;0.0;8;0;0;0;0;0;0;0;0;0;0;0;0;0;0;0;0;0
38;2022-04-07 21:23:23.577;5.173754696246267;52.36977026149719;0;0.03;-0.02;9.7135725;0.21309046;-0.29928434;-0.02;0.0;0.0;22.74509811;34.50980377;825.25;38;3.8000000000000003;-0.0012593897679711058;0.0030096518570092395;0.04478019319989834;9.814472443351066;-0.1594941800307812;-0.22415585742122202;0.0;8;0;0;0;0;0;0;0;0;0;0;0;0;0;0;0;0;0
39;2022-04-07 21:23:23.681;5.173754696246267;52.36977026149719;0;-0.01;0.0;10.09905148;-0.18675344;-0.42378664;-0.01;0.0;0.0;22.74509811;34.50980377;825.25;39;3.9000000000000004;-0.002071944026108852;0.002729865278382981;0.04526588607639043;9.840927793934998;-0.16202828545061881;-0.24271415462630214;0.0;8;0;0;0;0;0;0;0;0;0;0;0;0;0;0;0;0;0
40;2022-04-07 21:23:23.776;5.173754696246267;52.36977026149719;0;0.02;-0.02;10.15411949;-0.47167215;-0.57941449;-0.04;0.0;0.0;22.74509811;34.50980377;825.25;40;4.0;-2.427353985057811e-05;0.0006211577611785333;0.048488700852097694;9.869983385586321;-0.19075473573242033;-0.2739507026459253;0.0;8;0;0;0;0;0;0;0;0;0;0;0;0;0;0;0;0;0
41;2022-04-07 21:23:23.876;5.173754696246267;52.36977026149719;0;0.0;0.02;9.86680603;-0.48843205;-0.42139238;0.0;0.0;0.0;22.74509811;34.50980377;825.25;41;4.1000000000000005;-2.2025810257665274e-05;0.002415638395017805;0.04770308892413524;9.86968916248485;-0.21831965261462438;-0.2876038007707778;0.0;8;0;0;0;0;0;0;0;0;0;0;0;0;0;0;0;0;0
42;2022-04-07 21:23:23.977;5.173754696246267;52.36977026149719;0;-0.02;0.0;9.68963051;-0.30646718;-0.28252444;0.0;0.0;0.0;22.74509811;25.09803963;825.25;42;4.2;-0.0018688632386940909;0.002192327895208589;0.046991428002457133;9.8530438782551;-0.22646833432045133;-0.2871342459753361;0.0;8;0;0;0;0;0;0;0;0;0;0;0;0;0;0;0;0;0
43;2022-04-07 21:23:24.078;5.173754696246267;52.36977026149719;0;0.0;-0.01;9.65132141;-0.16281068;-0.1340794;-0.02;0.0;0.0;22.74509811;25.09803963;825.25;43;4.3;-0.0016963633620109702;0.0010669512411772897;0.0481925859274105;9.834424484295306;-0.22059260339864897;-0.2730069725024262;0.0;8;0;0;0;0;0;0;0;0;0;0;0;0;0;0;0;0;0
44;2022-04-07 21:23:24.179;5.173754696246267;52.36977026149719;0;0.0;0.01;9.81413269;-0.07661679;-0.1053481;0.0;0.0;0.0;22.74509811;25.09803963;825.25;44;4.4;-0.0015400033751071056;0.0018903428671820427;0.04743788512459224;9.83255411574024;-0.20732182851537231;-0.2575532438403552;0.0;8;0;0;0;0;0;0;0;0;0;0;0;0;0;0;0;0;0
45;2022-04-07 21:23:24.279;5.173754696246267;52.36977026149719;0;0.0;-0.02;10.04637718;-0.10055954;-0.0670397;0.0;0.0;0.0;22.74509811;25.09803963;863.25;45;4.5;-0.0013982349306911406;-0.0001248214539978897;0.046753613138301994;9.852238074678482;-0.19749358799995126;-0.24001509477718092;0.0;8;0;0;0;0;0;0;0;0;0;0;0;0;0;0;0;0;0
46;2022-04-07 21:23:24.381;5.173754696246267;52.36977026149719;0;-0.01;0.0;10.07510853;-0.3998439;-0.1699935;0.0;0.0;0.0;20.3921566;25.09803963;863.25;46;4.6000000000000005;-0.002189181476963605;-0.00011334391454583037;0.04613304583280553;9.872731382212732;-0.2161000343657846;-0.2335764931521366;0.0;8;0;0;0;0;0;0;0;0;0;0;0;0;0;0;0;0;0
47;2022-04-07 21:23:24.485;5.173754696246267;52.36977026149719;0;0.0;0.03;9.7518816;-0.29210153;-0.2083019;0.02;0.0;0.0;20.3921566;25.09803963;863.25;47;4.7;-0.0019880922626291063;0.002652744110810343;0.04373300978535031;9.861630617834185;-0.2230812194370784;-0.23125487288763638;0.0;8;0;0;0;0;0;0;0;0;0;0;0;0;0;0;0;0;0
48;2022-04-07 21:23:24.578;5.173754696246267;52.36977026149719;0;-0.01;0.0;9.70160198;-0.16759923;-0.18435916;0.0;0.0;0.0;20.3921566;25.09803963;863.25;48;4.800000000000001;-0.002723337053984971;0.0024093044265044825;0.043390872934432945;9.846944949165469;-0.21798969253925876;-0.22695130003485298;0.0;8;0;0;0;0;0;0;0;0;0;0;0;0;0;0;0;0;0
49;2022-04-07 21:23:24.682;5.173754696246267;52.36977026149719;0;0.01;0.0;9.66329288;-0.21069619;-0.22745611;0.0;0.0;0.0;20.3921566;25.88235283;863.25;49;4.9;-0.001556732266371046;0.0021883949224291164;0.0430804006206129;9.830105861885569;-0.21732095013742883;-0.22699758614043022;0.0;8;0;0;0;0;0;0;0;0;0;0;0;0;0;0;0;0;0
50;2022-04-07 21:23:24.777;5.173754696246267;52.36977026149719;0;0.0;0.0;9.81892109;-0.40223816;-0.13647367;0.02;0.0;0.0;20.3921566;25.88235283;863.25;50;5.0;-0.0014141066387714251;0.001987897247915776;0.04096624369676746;9.82908112876723;-0.2342628056384401;-0.21870391186437652;0.0;8;0;0;0;0;0;0;0;0;0;0;0;0;0;0;0;0;0
51;2022-04-07 21:23:24.882;5.173754696246267;52.36977026149719;0;-0.03;0.0;10.07750225;-0.44054657;-0.04549122;-0.01;0.0;0.0;20.3921566;25.88235283;852.0;51;5.1000000000000005;-0.004031249228100439;0.0018058980189608858;0.04179375367989236;9.85182498666425;-0.2531488351347226;-0.20284565943328653;0.0;8;0;0;0;0;0;0;0;0;0;0;0;0;0;0;0;0;0
52;2022-04-07 21:23:24.975;5.173754696246267;52.36977026149719;0;0.0;0.01;9.95300007;-0.10295381;-0.13168511;0.0;0.0;0.0;20.3921566;25.88235283;852.0;52;5.2;-0.003662411421663093;0.0025556146525401286;0.04163007121351341;9.861081967240779;-0.2394067912982027;-0.1963348486466715;0.0;8;0;0;0;0;0;0;0;0;0;0;0;0;0;0;0;0;0
53;2022-04-07 21:23:25.074;5.173754696246267;52.36977026149719;0;-0.02;0.0;9.63216782;-0.18675344;-0.02633702;0.01;0.0;0.0;20.3921566;25.88235283;852.0;53;5.300000000000001;-0.0051563388426865775;0.002321926382775427;0.04056704063361781;9.840149800906472;-0.23459210980858133;-0.18079005655498775;0.0;8;0;0;0;0;0;0;0;0;0;0;0;0;0;0;0;0;0
54;2022-04-07 21:23:25.175;5.173754696246267;52.36977026149719;0;0.0;0.02;9.75906372;-0.03591412;-0.25858167;0.0;0.0;0.0;20.3921566;25.88235283;852.0;54;5.4;-0.00468508815619839;0.003937569687466639;0.04051565331595533;9.832739141433228;-0.21643443205623933;-0.18789962641791114;0.0;8;0;0;0;0;0;0;0;0;0;0;0;0;0;0;0;0;0
55;2022-04-07 21:23:25.275;5.173754696246267;52.36977026149719;0;0.0;0.0;9.88596058;-0.21309046;-0.05506832;-0.01;0.0;0.0;20.3921566;25.88235283;852.0;55;5.5;-0.004257113133140095;0.0035778792352053144;0.041382468367510764;9.837600831467315;-0.21612896576186835;-0.1757657071549709;0.0;8;0;0;0;0;0;0;0;0;0;0;0;0;0;0;0;0;0
56;2022-04-07 21:23:25.374;5.173754696246267;52.36977026149719;0;-0.02;0.0;9.66089916;-0.33998701;-0.36153549;0.0;0.0;0.0;20.7843132;25.88235283;854.25;56;5.6000000000000005;-0.005694568305917822;0.003251189406477241;0.04125667316478497;9.82146651418248;-0.22743822485049361;-0.19272801766096292;0.0;8;0;0;0;0;0;0;0;0;0;0;0;0;0;0;0;0;0
57;2022-04-07 21:23:25.475;5.173754696246267;52.36977026149719;0;0.0;-0.01;9.72793865;-0.21787901;-0.37829542;-0.03;0.0;0.0;20.7843132;25.88235283;854.25;57;5.7;-0.005174814794784641;0.002041729470146335;0.043880563768217015;9.812930057477393;-0.22656573808498104;-0.20966508887272584;0.0;8;0;0;0;0;0;0;0;0;0;0;0;0;0;0;0;0;0
58;2022-04-07 21:23:25.575;5.173754696246267;52.36977026149719;0;0.0;0.0;9.83328629;-0.31125572;-0.22506183;0.0;0.0;0.0;20.7843132;25.88235283;854.25;58;5.800000000000001;-0.004702671374905101;0.0018554447096800722;0.04352694134943634;9.814787333847704;-0.23429274267868988;-0.21106986765208577;0.0;8;0;0;0;0;0;0;0;0;0;0;0;0;0;0;0;0;0
59;2022-04-07 21:23:25.677;5.173754696246267;52.36977026149719;0;-0.01;-0.02;9.90511513;-0.05985687;-0.21069619;-0.02;0.0;0.0;20.7843132;25.88235283;854.25;59;5.9;-0.005185833539597816;-0.00013796078270842028;0.04502986176908452;9.82302600971805;-0.21838268313580306;-0.2110357850198655;0.0;8;0;0;0;0;0;0;0;0;0;0;0;0;0;0;0;0;0
60;2022-04-07 21:23:25.775;5.173754696246267;52.36977026149719;0;-0.01;0.02;10.02961731;-0.2370332;-0.2753416;-0.02;0.0;0.0;20.7843132;25.88235283;854.25;60;6.0;-0.005624795645269242;0.0016982452857389474;0.046395293833668735;9.841863279457492;-0.22008326208792436;-0.21689927482288296;0.0;8;0;0;0;0;0;0;0;0;0;0;0;0;0;0;0;0;0
61;2022-04-07 21:23:25.877;5.173754696246267;52.36977026149719;0;0.01;-0.01;9.91469193;-0.28013015;-0.44533512;0.0;0.0;0.0;20.7843132;25.88235283;854.25;61;6.1000000000000005;-0.0042004937333512465;0.0006318740188860333;0.04581275595470404;9.848502085401908;-0.2255569271008674;-0.237722690272472;0.0;8;0;0;0;0;0;0;0;0;0;0;0;0;0;0;0;0;0
62;2022-04-07 21:23:25.975;5.173775624787518;52.369769371665775;0;-0.02;0.0;9.65850449;-0.32562137;-0.51716334;-0.03;0.0;0.0;20.7843132;25.88235283;861.25;62;6.2;-0.005640365398251823;0.0005742888336134158;0.04801747013708507;9.831186851026771;-0.23467619662504624;-0.26318922490801405;0.0;8;0;0;0;0;0;0;0;0;0;0;0;0;0;0;0;0;0
63;2022-04-07 21:23:26.075;5.173775624787518;52.369769371665775;0;0.02;0.01;9.64653301;-0.27773589;-0.36871833;-0.01;0.0;0.0;20.7843132;25.88235283;861.25;63;6.300000000000001;-0.0033041825621285496;0.0014330981486580902;0.048198539936905024;9.814362397578835;-0.23859951499546841;-0.27280434856940133;0.0;8;0;0;0;0;0;0;0;0;0;0;0;0;0;0;0;0;0
64;2022-04-07 21:23:26.175;5.173775624787518;52.369769371665775;0;0.01;0.0;9.921875;-0.51955765;-0.06464542;0.01;0.0;0.0;20.7843132;25.88235283;861.25;64;6.4;-0.0020922399377018173;0.0013025502759695558;0.04654118104374646;9.824156242854842;-0.26419335647361436;-0.25384214048106807;0.0;8;0;0;0;0;0;0;0;0;0;0;0;0;0;0;0;0;0
65;2022-04-07 21:23:26.274;5.173775624787518;52.369769371665775;0;-0.02;0.0;10.06074238;-0.36871833;0.05267405;0.0;0.0;0.0;20.7843132;25.88235283;861.25;65;6.5;-0.0037232418150223816;0.0011839166814820203;0.045945858197885124;9.845704020605348;-0.2737132756290723;-0.22592527760348877;0.0;8;0;0;0;0;0;0;0;0;0;0;0;0;0;0;0;0;0
66;2022-04-07 21:23:26.375;5.173775624787518;52.369769371665775;0;0.0;0.04;9.85722923;0.14844504;-0.10774237;0.0;0.0;0.0;20.7843132;25.88235283;861.25;66;6.6000000000000005;-0.003384193871947565;0.004718608721699428;0.04540484747841164;9.846753535714198;-0.23527045733334315;-0.2151632391111479;0.0;8;0;0;0;0;0;0;0;0;0;0;0;0;0;0;0;0;0
67;2022-04-07 21:23:26.475;5.173775624787518;52.369769371665775;0;0.0;0.0;9.80216122;0.24421602;-0.37590113;0.02;0.0;0.0;20.7843132;25.88235283;867.25;67;6.7;-0.0030760677924296137;0.004288986051955705;0.043092206244187324;9.842693468254252;-0.19161388976277072;-0.22979819739770246;0.0;8;0;0;0;0;0;0;0;0;0;0;0;0;0;0;0;0;0
68;2022-04-07 21:23:26.575;5.173775624787518;52.369769371665775;1;0.0;-0.06;9.72075558;-0.28970724;-0.58420306;-0.02;0.0;0.0;20.3921566;25.88235283;867.25;68;6.800000000000001;-0.0027960352221422895;-0.001563619033537396;0.04463185654394476;9.831592744028576;-0.20054390523987745;-0.2620617596121293;0.0910358903586264;8;0;0;0;0;0;0;0;0;0;0;0;0;0;0;0;0;0
69;2022-04-07 21:23:26.675;5.173775624787518;52.369769371665775;1;0.0;0.03;9.65371609;-0.57223165;-0.41420954;-0.01;0.0;0.0;20.3921566;25.88235283;867.25;69;6.9;-0.0025415279376040686;0.0013094388259660991;0.04512092249094373;9.81540163747847;-0.23437654006003353;-0.2759109122009031;0.17377375626801192;8;0;0;0;0;0;0;0;0;0;0;0;0;0;0;0;0;0
70;2022-04-07 21:23:26.777;5.173775624787518;52.369769371665775;1;-0.03;-0.03;9.5866766;-0.61772293;0.0;0.01;0.0;0.0;20.3921566;25.88235283;867.25;70;7.0;-0.005040629428004511;-0.0015401540084702223;0.04374514312735078;9.794584489286267;-0.2692663741433582;-0.25079919548439555;0.24897179468859554;8;0;0;0;0;0;0;0;0;0;0;0;0;0;0;0;0;0
71;2022-04-07 21:23:26.876;5.173775624787518;52.369769371665775;1;-0.02;0.01;9.88835526;-0.34477556;0.0191542;-0.04;0.0;0.0;20.3921566;25.88235283;867.25;71;7.1000000000000005;-0.006401996837055501;-0.0004899500920052498;0.04704492596588698;9.803118034902834;-0.27613803657156516;-0.22623226916845188;0.31731860895249386;8;0;0;0;0;0;0;0;0;0;0;0;0;0;0;0;0;0
72;2022-04-07 21:23:26.975;5.173780947937048;52.36976901766539;1;0.02;0.0;10.02004051;-0.03351985;0.06464542;-0.01;0.0;0.0;20.3921566;25.88235283;867.75;72;7.2;-0.003999529752714132;-0.0004453667608171868;0.04731425892242913;9.822857038338489;-0.2540608349531369;-0.1997636623388473;0.37943965158446963;8;0;0;0;0;0;0;0;0;0;0;0;0;0;0;0;0;0
73;2022-04-07 21:23:27.075;5.173780947937048;52.36976901766539;1;0.02;-0.01;10.19721603;-0.16759923;-0.2466103;0.02;0.0;0.0;20.7843132;25.88235283;867.75;73;7.300000000000001;-0.0018158657766481124;-0.001314721645013072;0.04482942910371411;9.85691913258078;-0.24619388530893965;-0.2040261339836889;0.4359030611500976;8;0;0;0;0;0;0;0;0;0;0;0;0;0;0;0;0;0
74;2022-04-07 21:23:27.178;5.173780947937048;52.36976901766539;1;0.0;-0.01;9.79497814;-0.41899809;-0.50758624;-0.03;0.0;0.0;20.7843132;25.88235283;867.75;74;7.4;-0.001650657178022076;-0.0021049136758101226;0.047119897288584865;9.85128370252126;-0.26191571941189556;-0.2316442213768543;0.4872249517628798;8;0;0;0;0;0;0;0;0;0;0;0;0;0;0;0;0;0
75;2022-04-07 21:23:27.276;5.173780947937048;52.36976901766539;1;0.01;0.02;9.53639698;-0.31125572;-0.44772938;0.01;0.0;0.0;20.7843132;25.88235283;867.75;75;7.5;-0.0005907489529938001;-9.39387187297423e-05;0.04556286373173132;9.822637161639252;-0.2664043822956412;-0.25130237743033923;0.5338742079302528;8;0;0;0;0;0;0;0;0;0;0;0;0;0;0;0;0;0
76;2022-04-07 21:23:27.377;5.173780947937048;52.36976901766539;1;0.0;0.0;9.61540794;-0.39744961;-0.22985038;0.0;7.0588226400000025;4.705882070000001;20.7843132;25.88235283;867.75;76;7.6000000000000005;-0.0005370095842035898;-8.539328259496097e-05;0.04505725395061132;9.803785892399851;-0.2783253307528711;-0.24935092784189156;0.5762768321172616;8;0;0;0;0;0;0;0;0;0;0;0;0;0;0;0;0;0
77;2022-04-07 21:23:27.477;5.173780947937048;52.36976901766539;1;-0.01;-0.04;9.84525776;-0.17717634;-0.50279772;-0.02;7.0588226400000025;4.705882070000001;20.7843132;35.29411697;867.75;77;7.7;-0.0013977899073213164;-0.0037161385922353627;0.046416922208683556;9.807558290555678;-0.26912453300103684;-0.2724051635603209;0.6148198876775555;8;0;0;0;0;0;0;0;0;0;0;0;0;0;0;0;0;0
78;2022-04-07 21:23:27.579;5.173780947937048;52.36976901766539;1;0.0;-0.03;9.96018314;-0.60575151;-0.81644773;-0.06;7.0588226400000025;4.705882070000001;20.7843132;35.29411697;867.75;78;7.800000000000001;-0.0012706498227755586;-0.006106864368740769;0.05129116222367244;9.821440731801315;-0.2997434279378656;-0.32189015234964935;0.649855075576335;8;0;0;0;0;0;0;0;0;0;0;0;0;0;0;0;0;0
79;2022-04-07 21:23:27.677;5.173780947937048;52.36976901766539;2;-0.01;-0.04;10.15890789;-0.7996878;-1.58261561;-0.20999999;7.0588226400000025;4.705882070000001;20.7843132;35.29411697;1491.0;79;7.9;-0.002064614714039496;-0.009189563447107085;0.06936485807136408;9.852134548651902;-0.34521511494132356;-0.4365575365850363;0.7726554726674543;8;0;0;0;0;0;0;0;0;0;0;0;0;0;0;0;0;0
80;2022-04-07 21:23:27.779;5.173780947937048;52.36976901766539;2;-0.03;0.0;9.72793865;-0.39744961;-1.85077441;-0.19;7.0588226400000025;4.705882070000001;34.11764526;35.29411697;1491.0;80;8.0;-0.004605322774330582;-0.008353777662102884;0.08397497047409705;9.840838999385983;-0.34996581378661606;-0.5651797901356558;0.8842817882320056;8;0;0;0;0;0;0;0;0;0;0;0;0;0;0;0;0;0
81;2022-04-07 21:23:27.875;5.173780947937048;52.36976901766539;2;0.01;0.0;9.65132141;-0.50758624;-1.48205614;-0.12;7.0588226400000025;4.705882070000001;34.11764526;35.29411697;1491.0;81;8.1;-0.0032770302464022955;-0.007594036804608959;0.0908895601870773;9.82360317366806;-0.3643007269975777;-0.648565828457208;0.9857516555443261;8;0;0;0;0;0;0;0;0;0;0;0;0;0;0;0;0;0
82;2022-04-07 21:23:27.976;5.173788327634077;52.36976826053007;2;-0.01;-0.02;9.74948692;-0.45970076;-1.81246603;-0.16;7.0588226400000025;4.705882070000001;34.11764526;35.29411697;1491.0;82;8.200000000000001;-0.0038884335661879574;-0.008722265453673128;0.10081276436080264;9.816862860204878;-0.37297663943257403;-0.7544137607257793;1.0779898817471831;8;0;0;0;0;0;0;0;0;0;0;0;0;0;0;0;0;0
83;2022-04-07 21:23:28.076;5.173788327634077;52.36976826053007;2;-0.02;-0.01;9.99370289;-0.36392978;-1.51078737;-0.12;9.01960755;4.705882070000001;34.11764526;35.29411697;1491.0;83;8.3;-0.005353609968570208;-0.008838461883950564;0.1061956506387143;9.832944588801336;-0.3721539233415762;-0.8231979331553171;1.161836941160764;8;0;0;0;0;0;0;0;0;0;0;0;0;0;0;0;0;0
84;2022-04-07 21:23:28.178;5.173788327634077;52.36976826053007;2;0.04;0.01;9.9362402;-0.43815228;-1.38867939;-0.11;9.01960755;4.705882070000001;34.11764526;45.09803772;1491.0;84;8.4;-0.0012293043367212183;-0.007125355154470984;0.11017950545938474;9.842337946271826;-0.3781555932030877;-0.874620925917898;1.2380566869841727;8;0;0;0;0;0;0;0;0;0;0;0;0;0;0;0;0;0
85;2022-04-07 21:23:28.277;5.173788327634077;52.36976826053007;5;0.0;-0.03;9.57470512;-0.88109314;-1.77894616;-0.13;9.01960755;4.705882070000001;34.11764526;45.09803772;1608.5;85;8.5;-0.0011175185924245828;-0.009205441527873691;0.11561966500706267;9.818000982845176;-0.4238897912564106;-0.956854971921286;1.5801458024987738;8;0;0;0;0;0;0;0;0;0;0;0;0;0;0;0;0;0
86;2022-04-07 21:23:28.378;5.173788327634077;52.36976826053007;5;-0.03;-0.04;9.5818882;-0.69912827;-1.87232292;-0.17;9.01960755;4.705882070000001;26.66666603;45.09803772;1608.5;86;8.6;-0.003743856661491324;-0.012005648341621844;0.12420227918407017;9.796530805770399;-0.44891774105738264;-1.040100185139667;1.8911195426982361;8;0;0;0;0;0;0;0;0;0;0;0;0;0;0;0;0;0
87;2022-04-07 21:23:28.478;5.173788327634077;52.36976826053007;5;0.0;-0.05;9.9266634;-0.91461295;-1.33121681;-0.15000001;9.01960755;4.705882070000001;26.66666603;45.09803772;1608.5;87;8.700000000000001;-0.003403428526013977;-0.015460467118946523;0.130185687387949;9.80836373646833;-0.4912633130211121;-1.0665713614608736;2.173809419259808;8;0;0;0;0;0;0;0;0;0;0;0;0;0;0;0;0;0
88;2022-04-07 21:23:28.581;5.173788327634077;52.36976826053007;5;0.0;-0.04;9.79497814;-0.8834874;-1.34318817;-0.18000001;9.01960755;4.705882070000001;26.66666603;45.09803772;1608.5;88;8.8;-0.003093961861239419;-0.017691795715324997;0.13835275033969627;9.807146612070563;-0.5269274320451601;-1.091723551525944;2.4307890403547945;8;0;0;0;0;0;0;0;0;0;0;0;0;0;0;0;0;0
89;2022-04-07 21:23:28.677;5.173788327634077;52.36976826053007;5;0.0;-0.06;10.57072353;-0.63208854;-1.2665714;-0.14;9.01960755;4.705882070000001;26.66666603;47.05882263;1608.5;89;8.9;-0.0028126396515667246;-0.021538720160567053;0.1421400104074313;9.87657576324986;-0.5364893324784231;-1.1076218027957685;2.664397642108261;8;0;0;0;0;0;0;0;0;0;0;0;0;0;0;0;0;0
90;2022-04-07 21:23:28.776;5.173788327634077;52.36976826053007;5;0.0;-0.09;9.80216122;-1.18037748;-1.46050763;-0.13;9.01960755;4.705882070000001;26.66666603;47.05882263;1756.5;90;9.0;-0.002556901379393638;-0.027763537977930245;0.14467360388384853;9.869809647048424;-0.5950346360789655;-1.1397078226573283;2.8767614659482277;8;0;0;0;0;0;0;0;0;0;0;0;0;0;0;0;0;0
91;2022-04-07 21:23:28.876;5.173788327634077;52.36976826053007;7;-0.04;-0.12;9.89314365;-1.84359157;-1.28572559;-0.15000001;9.01960755;4.705882070000001;25.09803963;47.05882263;1756.5;91;9.1;-0.005961349001237103;-0.03614997540823086;0.14879526102253063;9.871931250061612;-0.7085574704868086;-1.1529842303022626;3.251659648488617;8;0;0;0;0;0;0;0;0;0;0;0;0;0;0;0;0;0
92;2022-04-07 21:23:28.977;5.173812778937856;52.36976304061487;7;-0.03;-0.11;9.70160198;-1.34797668;-1.81246603;-0.11;9.01960755;4.705882070000001;25.09803963;47.05882263;1756.5;92;9.200000000000001;-0.008146989981819067;-0.042864563517732636;0.14890523193511115;9.856444580994431;-0.7666947107235955;-1.2129456003242949;3.59246605571396;8;0;0;0;0;0;0;0;0;0;0;0;0;0;0;0;0;0
93;2022-04-07 21:23:29.077;5.173812778937856;52.36976304061487;7;-0.07;-0.14;9.57231045;-1.69993508;-0.88109314;-0.07;9.01960755;4.705882070000001;25.09803963;47.05882263;1756.5;93;9.3;-0.013770713848091224;-0.05169619308993167;0.14536837162501157;9.830610884409152;-0.8515456522723688;-1.1827733160545673;3.902281697054311;8;0;0;0;0;0;0;0;0;0;0;0;0;0;0;0;0;0
94;2022-04-07 21:23:29.180;5.173812778937856;52.36976304061487;7;-0.06;-0.09;9.26823807;-1.23065722;-1.56585574;-0.14;8.62745095;4.313725470000001;25.09803963;47.05882263;1756.5;94;9.4;-0.01797386743889742;-0.05517876435496414;0.14851750314575463;9.779480107557257;-0.8860143685310291;-1.217603061434802;4.18392536694677;8;0;0;0;0;0;0;0;0;0;0;0;0;0;0;0;0;0
95;2022-04-07 21:23:29.277;5.173812778937856;52.36976304061487;7;-0.07;-0.05;9.63456154;-0.85475612;-0.87391031;-0.11;8.62745095;4.313725470000001;25.09803963;42.74509811;1756.5;95;9.5;-0.022704018401169666;-0.05470791757102831;0.14865272358970175;9.766304292480537;-0.8831724076338907;-1.186354945941766;4.439959353707613;8;0;0;0;0;0;0;0;0;0;0;0;0;0;0;0;0;0
96;2022-04-07 21:23:29.377;5.173812778937856;52.36976304061487;7;0.02;-0.08;10.10383987;-1.44853628;-0.87151605;-0.08;8.62745095;4.313725470000001;25.09803963;42.74509811;1756.5;96;9.600000000000001;-0.018821459913367464;-0.05700741988920142;0.146048112606188;9.796992308983395;-0.9345740879331771;-1.157730463434155;4.6727128020367035;8;0;0;0;0;0;0;0;0;0;0;0;0;0;0;0;0;0
97;2022-04-07 21:23:29.476;5.173812778937856;52.36976304061487;10;-0.05;-0.18000001;9.11739826;-1.64965534;-1.5586729;-0.06;8.62745095;4.313725470000001;25.09803963;42.74509811;1842.75;97;9.700000000000001;-0.02165612154460911;-0.06818954628592737;0.14186198662667707;9.735205606651578;-0.9995871829280618;-1.1941829765445113;5.157054165574306;8;0;0;0;0;0;0;0;0;0;0;0;0;0;0;0;0;0
98;2022-04-07 21:23:29.576;5.173812778937856;52.36976304061487;10;0.0;-0.06;10.40312386;-1.84838021;-0.66321415;-0.09;8.62745095;4.313725470000001;23.52941132;42.74509811;1842.75;98;9.8;-0.019687226060630558;-0.06744498264534282;0.1407839717928237;9.795930295048604;-1.0767563452082043;-1.1459092299014002;5.597357114692503;8;0;0;0;0;0;0;0;0;0;0;0;0;0;0;0;0;0
99;2022-04-07 21:23:29.675;5.173812778937856;52.36976304061487;10;0.12;-0.05;11.1597147;-0.82363051;0.26337022;0.04;8.62745095;4.313725470000001;23.52941132;42.74509811;1842.75;99;9.9;-0.006987465760648012;-0.06585896004126414;0.12798493376757347;9.919919692878148;-1.053743235681054;-1.0177836187473013;5.997626422822083;8;0;0;0;0;0;0;0;0;0;0;0;0;0;0;0;0;0
100;2022-04-07 21:23:29.775;5.173812778937856;52.36976304061487;10;0.15000001;0.0;9.2083807;-0.0287313;-0.48124924;0.0;8.62745095;4.313725470000001;23.52941132;42.74509811;1842.75;100;10.0;0.007285064487024673;-0.05987138686248173;0.11998620939492097;9.855230062389817;-0.9605541848644249;-0.9690045482355715;6.361502570686594;8;0;0;0;0;0;0;0;0;0;0;0;0;0;0;0;0;0
101;2022-04-07 21:23:29.875;5.173812778937856;52.36976304061487;10;-0.15000001;0.08;9.05035877;-0.21309046;-0.600963;0.0;8.62745095;4.313725470000001;23.52941132;42.74509811;1842.75;101;10.100000000000001;-0.007014436213039832;-0.04715504361832954;0.11271473336739626;9.782055556502804;-0.8925988617555344;-0.9355442189970108;6.692294902427785;8;0;0;0;0;0;0;0;0;0;0;0;0;0;0;0;0;0
102;2022-04-07 21:23:29.977;5.173848575568214;52.369748015689744;10;0.01;-0.09;10.02482891;-1.3072741;-1.78373468;-0.06;8.62745095;4.313725470000001;23.52941132;42.74509811;1842.75;102;10.200000000000001;-0.0054675849507204765;-0.05105025201860623;0.1115592191538943;9.804127064698111;-0.9302986660687348;-1.0126566468707112;6.993011760835262;8;0;0;0;0;0;0;0;0;0;0;0;0;0;0;0;0;0
103;2022-04-07 21:23:30.078;5.173848575568214;52.369748015689744;10;-0.16;-0.18000001;8.22194004;-2.05428767;-1.0175668;-0.08;8.62745095;4.313725470000001;23.52941132;42.74509811;1842.75;103;10.3;-0.019516682639328257;-0.06277353833510632;0.11232703455905191;9.660284751326234;-1.032484549283694;-1.0131030465529876;7.26638787747104;8;0;0;0;0;0;0;0;0;0;0;0;0;0;0;0;0;0
104;2022-04-07 21:23:30.177;5.173848575568214;52.369748015689744;10;-0.06;-0.05;10.44622135;-0.95531565;-0.21069619;-0.03;8.62745095;4.313725470000001;23.52941132;41.5686264;1842.75;104;10.4;-0.023197150050600777;-0.061612255252740396;0.10847938259681014;9.73173675247956;-1.0254688786940767;-0.9401536817612113;7.514909268205715;8;0;0;0;0;0;0;0;0;0;0;0;0;0;0;0;0;0
105;2022-04-07 21:23:30.276;5.173848575568214;52.369748015689744;10;0.1;-0.03;10.84127617;-0.18435916;-0.28731298;0.05;8.62745095;4.313725470000001;23.52941132;41.5686264;1842.75;105;10.5;-0.011996950360435962;-0.058738296144581405;0.09770852207971073;9.832608104091458;-0.9490012265865182;-0.8808020959283437;7.7408358617417;8;0;0;0;0;0;0;0;0;0;0;0;0;0;0;0;0;0
106;2022-04-07 21:23:30.377;5.173848575568214;52.369748015689744;10;0.0;-0.03;10.13257122;-0.34716985;-0.70870537;-0.04;8.62745095;4.313725470000001;23.52941132;41.5686264;2075.5;106;10.600000000000001;-0.010906277895368214;-0.05612562647802804;0.09609903013870844;9.859878493751175;-0.8942872458384241;-0.8651563564146283;7.946222067872279;8;0;0;0;0;0;0;0;0;0;0;0;0;0;0;0;0;0
107;2022-04-07 21:23:30.476;5.173848575568214;52.369748015689744;13;0.02;0.06;10.12538815;0.34956414;-1.10854924;-0.09;8.62745095;4.313725470000001;23.52941132;41.5686264;2075.5;107;10.700000000000001;-0.008096521151389296;-0.045568393955560005;0.09918147447436672;9.88401655236057;-0.7812060190501668;-0.8872837312607907;8.405671978839907;8;0;0;0;0;0;0;0;0;0;0;0;0;0;0;0;0;0
108;2022-04-07 21:23:30.578;5.173848575568214;52.369748015689744;13;0.01;0.19;9.63934994;1.64247251;-0.63208854;-0.04;8.62745095;4.313725470000001;21.96078491;41.5686264;2075.5;108;10.8;-0.006451332234297156;-0.024152426338870898;0.09743808405122137;9.861773448524717;-0.5608648263297418;-0.8640834544316042;8.823351016632106;8;0;0;0;0;0;0;0;0;0;0;0;0;0;0;0;0;0
109;2022-04-07 21:23:30.678;5.173848575568214;52.369748015689744;13;-0.03;0.15000001;10.63057995;0.45970076;-1.86514008;-0.06;8.62745095;4.313725470000001;21.96078491;41.5686264;2075.5;109;10.9;-0.008592180107979658;-0.008319943722775384;0.09767142566572476;9.931666904083752;-0.4680835409005211;-0.9550911483532614;9.20305700187617;8;0;0;0;0;0;0;0;0;0;0;0;0;0;0;0;0;0
110;2022-04-07 21:23:30.779;5.173848575568214;52.369748015689744;13;0.03;0.0;9.78061295;-0.54589468;-1.23305154;-0.06;8.62745095;4.313725470000001;21.96078491;41.5686264;2075.5;110;11.0;-0.005083710864315357;-0.007563565964931648;0.09788355327315137;9.917934377168871;-0.475157460735606;-0.980360917573887;9.548242417460129;8;0;0;0;0;0;0;0;0;0;0;0;0;0;0;0;0;0
111;2022-04-07 21:23:30.875;5.173848575568214;52.369748015689744;13;-0.08;-0.1;9.07430172;-1.27375424;-0.54350036;-0.03;8.62745095;4.313725470000001;21.96078491;41.5686264;2075.5;111;11.100000000000001;-0.011894440079379549;-0.01596707245307026;0.09534905982840797;9.841238725912628;-0.5477588466069921;-0.9406454031416528;9.862045816987104;8;0;0;0;0;0;0;0;0;0;0;0;0;0;0;0;0;0
112;2022-04-07 21:23:30.981;5.173882480016009;52.36972122485616;13;0.0;-0.03;10.06074238;-0.06464542;-1.21629155;-0.03;8.62745095;4.313725470000001;21.96078491;41.5686264;2075.5;112;11.200000000000001;-0.010813104615540112;-0.017242819954988487;0.09304498504940314;9.861194023011354;-0.5038385209959708;-0.9657046705034983;10.147320375465702;8;0;0;0;0;0;0;0;0;0;0;0;0;0;0;0;0;0
113;2022-04-07 21:23:31.076;5.173882480016009;52.36972122485616;13;0.04;0.13;9.41907692;1.3096683;-0.72307098;-0.08;8.62745095;4.313725470000001;21.96078491;51.76470566;2075.5;113;11.3;-0.006193643196211506;-0.0038568532599482035;0.09549592142487093;9.821000791055956;-0.33897111412002684;-0.9436466407729659;10.406659842458453;8;0;0;0;0;0;0;0;0;0;0;0;0;0;0;0;0;0
114;2022-04-07 21:23:31.178;5.173882480016009;52.36972122485616;14;0.0;0.22;9.99370289;0.96968132;-1.13009775;-0.1;8.62745095;4.313725470000001;21.96078491;51.76470566;1549.0;114;11.4;-0.005630574942400945;0.01649412329383609;0.0995422506776839;9.836701254612093;-0.2200006443041966;-0.9605970360682139;10.733332804357822;8;0;0;0;0;0;0;0;0;0;0;0;0;0;0;0;0;0
115;2022-04-07 21:23:31.276;5.173882480016009;52.36972122485616;14;0.0;0.03;9.84046936;0.06225114;-1.90344846;-0.17;8.62745095;4.313725470000001;29.80392075;51.76470566;1549.0;115;11.5;-0.005118696409294035;0.01772194965746602;0.10958445647947546;9.837043815057212;-0.19434098595768454;-1.0463121555288504;11.030307239359438;8;0;0;0;0;0;0;0;0;0;0;0;0;0;0;0;0;0
116;2022-04-07 21:23:31.380;5.173882480016009;52.36972122485616;14;-0.02;-0.01;8.96416473;-0.63208854;-1.07502937;-0.06;8.62745095;4.313725470000001;29.80392075;51.76470566;1549.0;116;11.600000000000001;-0.006471561613001339;0.01520173623382924;0.1087135633872465;9.757690031699465;-0.2341367894813553;-1.0489228488709097;11.30028318448304;8;0;0;0;0;0;0;0;0;0;0;0;0;0;0;0;0;0
117;2022-04-07 21:23:31.477;5.173882480016009;52.36972122485616;14;0.0;0.08;10.39354706;0.41420954;-0.84757328;-0.06;8.62745095;4.313725470000001;29.80392075;51.76470566;1549.0;117;11.700000000000001;-0.005883230151344989;0.021092564369924897;0.1079218445643138;9.815495970549366;-0.17519544479617483;-1.0306181037040383;11.545715189169572;8;0;0;0;0;0;0;0;0;0;0;0;0;0;0;0;0;0
118;2022-04-07 21:23:31.576;5.173882480016009;52.36972122485616;14;0.01;-0.01;9.68723583;0.88588166;-0.40702671;-0.06;8.62745095;4.313725470000001;29.80392075;51.76470566;1549.0;118;11.8;-0.004439283005046019;0.018265934070843804;0.10720210197321317;9.803835819423592;-0.07873274527759679;-0.9739273043631186;11.768834637483014;8;0;0;0;0;0;0;0;0;0;0;0;0;0;0;0;0;0
119;2022-04-07 21:23:31.679;5.173882480016009;52.36972122485616;14;0.01;0.14;10.01764584;1.13249195;-0.11253092;0.0;8.62745095;4.313725470000001;29.80392075;51.76470566;1549.0;119;11.9;-0.0031266067545860274;0.02933278670897622;0.10109318771862816;9.823273303682534;0.03137977837789989;-0.8956176974670961;11.97167004012742;8;0;0;0;0;0;0;0;0;0;0;0;0;0;0;0;0;0
120;2022-04-07 21:23:31.779;5.173882480016009;52.36972122485616;14;-0.06;0.23999999;9.39034557;1.75739765;-0.6344828;-0.11;8.62745095;4.313725470000001;29.80392075;51.76470566;1549.0;120;12.0;-0.008296965931190899;0.048484538443663856;0.10553973880095077;9.783915851050978;0.18829203263740707;-0.8718779285451909;12.156065480996517;8;0;0;0;0;0;0;0;0;0;0;0;0;0;0;0;0;0
121;2022-04-07 21:23:31.880;5.173882480016009;52.36972122485616;14;-0.07;0.16;10.07510853;1.39825654;-0.46448931;-0.07;8.62745095;4.313725470000001;29.80392075;51.76470566;1549.0;121;12.100000000000001;-0.013906382669337327;0.058622398049054725;0.10594565434663303;9.810388148758426;0.2982897865986463;-0.8348422694356347;12.32369738615388;8;0;0;0;0;0;0;0;0;0;0;0;0;0;0;0;0;0
122;2022-04-07 21:23:31.976;5.1739232930266015;52.36969036152836;14;0.01;0.06;9.61780167;2.18357873;-0.72785956;0.0;8.62745095;4.313725470000001;29.80392075;51.76470566;1549.0;122;12.200000000000001;-0.011733057541304296;0.05874763560497558;0.09995097991606473;9.792880145168159;0.4696810795001992;-0.8251164897600781;12.476089767855859;8;0;0;0;0;0;0;0;0;0;0;0;0;0;0;0;0;0
123;2022-04-07 21:23:32.077;5.1739232930266015;52.36969036152836;14;-0.1;-0.05;8.8779707;-0.80208206;-0.22506183;0.0;8.62745095;4.313725470000001;29.80392075;51.76470566;1593.5;123;12.3;-0.019757384154991887;0.04886141407907477;0.09450128431972891;9.709705946476362;0.35406539686370414;-0.7705656642544453;12.61462808233738;8;0;0;0;0;0;0;0;0;0;0;0;0;0;0;0;0;0
124;2022-04-07 21:23:32.177;5.1739232930266015;52.36969036152836;17;-0.06;0.14;9.10782146;0.85475612;0.69433969;-0.19;8.62745095;4.313725470000001;29.80392075;51.76470566;1593.5;124;12.4;-0.02341582827978701;0.0571467955634373;0.1068198655219432;9.654988808509101;0.3995830401862025;-0.6373915582943855;13.01330092679176;8;0;0;0;0;0;0;0;0;0;0;0;0;0;0;0;0;0
125;2022-04-07 21:23:32.279;5.1739232930266015;52.36969036152836;17;-0.04;0.02;12.16052151;2.30329227;0.40702671;-0.08;8.62745095;4.313725470000001;20.0;51.76470566;1593.5;125;12.5;-0.02492348943398687;0.053769793587165014;0.10801850049984649;9.882765895501707;0.5726485693608567;-0.5424438648907436;13.375730321974327;8;0;0;0;0;0;0;0;0;0;0;0;0;0;0;0;0;0
126;2022-04-07 21:23:32.379;5.1739232930266015;52.36969036152836;17;0.02;0.19;10.02482891;1.8268317;1.43895912;0.20999999;8.62745095;4.313725470000001;20.0;51.76470566;1593.5;126;12.600000000000001;-0.020839513243679487;0.06615442635724907;0.0827443860130685;9.895680786487343;0.6866658487029274;-0.362315323772213;13.705211207337426;8;0;0;0;0;0;0;0;0;0;0;0;0;0;0;0;0;0
127;2022-04-07 21:23:32.478;5.1739232930266015;52.36969036152836;17;-0.06;0.15000001;9.24908352;1.24981141;-0.83081335;-0.06;8.62745095;4.313725470000001;20.0;51.76470566;1593.5;127;12.700000000000001;-0.02439957540830817;0.0737767904983074;0.08431351972586434;9.83689892101928;0.737861157342157;-0.40490626774477656;14.004738968424498;8;0;0;0;0;0;0;0;0;0;0;0;0;0;0;0;0;0
128;2022-04-07 21:23:32.576;5.1739232930266015;52.36969036152836;17;0.01;0.13;9.01205063;0.67757976;-0.18675344;0.0;7.0588226400000025;4.313725470000001;20.0;51.76470566;1593.5;128;12.8;-0.021272326974682766;0.07888801474339202;0.08028543314248625;9.761912369718836;0.7323810052420969;-0.3850741017730118;14.277036671466245;8;0;0;0;0;0;0;0;0;0;0;0;0;0;0;0;0;0
129;2022-04-07 21:23:32.676;5.1739232930266015;52.36969036152836;17;0.01;0.25999999;8.99768448;1.67599237;0.53631759;0.07;7.0588226400000025;3.5294113200000012;20.0;35.29411697;1593.5;129;12.9;-0.01842937633600508;0.09535280823780623;0.07025987661870887;9.69243681809358;0.8181642133248788;-0.30131087236194015;14.524579821683947;8;0;0;0;0;0;0;0;0;0;0;0;0;0;0;0;0;0
130;2022-04-07 21:23:32.776;5.1739232930266015;52.36969036152836;17;-0.03;0.0;10.05116558;2.32005239;-0.56265455;0.1;7.0588226400000025;3.5294113200000012;20.0;35.29411697;1593.5;130;13.0;-0.01948125519126051;0.08668433835344871;0.058418458522326314;9.725048647013011;0.9547000182978359;-0.3250694783321263;14.749618870490439;8;0;0;0;0;0;0;0;0;0;0;0;0;0;0;0;0;0
131;2022-04-07 21:23:32.877;5.1739232930266015;52.36969036152836;19;-0.05;0.31999999;9.35682583;2.95692945;0.32083282;0.04;7.0588226400000025;3.5294113200000012;22.35294151;35.29411697;1676.75;131;13.100000000000001;-0.022255696072956067;0.1078949250379398;0.053108104951016824;9.691573730416787;1.1367215013130145;-0.2663508857653507;15.136018483004047;8;0;0;0;0;0;0;0;0;0;0;0;0;0;0;0;0;0
132;2022-04-07 21:23:32.975;5.17397984201292;52.36965895502844;19;0.0;0.27000001;10.41749001;1.87232292;0.48603779;-0.07;7.0588226400000025;3.5294113200000012;22.35294151;35.29411697;1676.75;132;13.200000000000001;-0.020232444653876972;0.12263179698812644;0.05828054520738365;9.757566325660035;1.2035945664984953;-0.1979517015317437;15.487290627534149;8;0;0;0;0;0;0;0;0;0;0;0;0;0;0;0;0;0
133;2022-04-07 21:23:33.075;5.17397984201292;52.36965895502844;19;0.03;0.12;9.23471832;1.94654536;-0.46448931;-0.01;7.0588226400000025;3.5294113200000012;22.35294151;35.29411697;1676.75;133;13.3;-0.015665845805263968;0.12239254203689776;0.057528199869747346;9.710034553772392;1.2711357395701552;-0.22218246203583678;15.806628750262295;8;0;0;0;0;0;0;0;0;0;0;0;0;0;0;0;0;0
134;2022-04-07 21:23:33.177;5.17397984201292;52.36965895502844;19;0.0;0.23999999;10.05116558;0.65124273;-0.81884199;-0.05;7.450979240000002;3.9215688699999998;22.35294151;35.29411697;1676.75;134;13.4;-0.014241674327309928;0.13308415582309585;0.06048062295983919;9.741046545326357;1.2147816840925851;-0.2764243773680146;16.0969359771384;8;0;0;0;0;0;0;0;0;0;0;0;0;0;0;0;0;0
135;2022-04-07 21:23:33.275;5.17397984201292;52.36965895502844;19;0.05;0.18000001;10.42467213;1.58500993;-1.5586729;-0.14;7.450979240000002;3.9215688699999998;22.35294151;40.0;1676.75;135;13.5;-0.008401508406287173;0.13734924348758643;0.07134648001591087;9.80319447163987;1.248438876365193;-0.39299269851735336;16.360851507833964;8;0;0;0;0;0;0;0;0;0;0;0;0;0;0;0;0;0
136;2022-04-07 21:23:33.376;5.17397984201292;52.36965895502844;20;-0.07;0.23;9.46696281;1.8699286;0.51476908;0.0;7.450979240000002;3.9215688699999998;22.35294151;40.0;1734.0;136;13.600000000000001;-0.014001383228788137;0.14577205750877403;0.06849722757041529;9.772627891715096;1.3049380627215819;-0.31046872436103057;16.691683894948827;8;0;0;0;0;0;0;0;0;0;0;0;0;0;0;0;0;0
137;2022-04-07 21:23:33.478;5.17397984201292;52.36965895502844;20;0.03;0.13;10.12778282;0.17478207;0.14605077;-0.01;7.450979240000002;3.9215688699999998;21.56862831;40.0;1734.0;137;13.700000000000001;-0.010001249720319566;0.14433823131721324;0.06681609180255255;9.804914766015008;1.2021964095154523;-0.26896687163136623;16.992440487977095;8;0;0;0;0;0;0;0;0;0;0;0;0;0;0;0;0;0
138;2022-04-07 21:23:33.575;5.17397984201292;52.36965895502844;20;0.04;0.08;9.73991013;1.23544586;-0.33998701;-0.05;7.450979240000002;3.9215688699999998;21.56862831;40.0;1734.0;138;13.8;-0.00545567354704097;0.13848929088187922;0.06892415717479278;9.799005243227572;1.205219092163237;-0.27542325923361893;17.265855471283263;8;0;0;0;0;0;0;0;0;0;0;0;0;0;0;0;0;0
139;2022-04-07 21:23:33.676;5.17397984201292;52.36965895502844;20;0.02;0.14;10.13975334;1.19953167;-0.15802214;0.0;7.450979240000002;3.9215688699999998;21.56862831;40.0;1734.0;139;13.9;-0.0031415176960354774;0.13862662829463346;0.06629511776185533;9.829982392600881;1.2047020529557744;-0.2647504131002408;17.51441446332612;8;0;0;0;0;0;0;0;0;0;0;0;0;0;0;0;0;0
140;2022-04-07 21:23:33.776;5.17397984201292;52.36965895502844;20;-0.08;0.08;10.21397591;0.61054009;-0.27773589;0.04;7.84313775;3.9215688699999998;21.56862831;40.0;1734.0;140;14.0;-0.01012866263524043;0.1332969270448552;0.06026871372683196;9.86489094506451;1.1506872503199908;-0.26593091272088754;17.740377114199802;8;0;0;0;0;0;0;0;0;0;0;0;0;0;0;0;0;0
141;2022-04-07 21:23:33.876;5.174057124919897;52.369637155058086;20;-0.02;0.16;9.7135725;0.58899158;0.29449579;-0.05;7.84313775;3.9215688699999998;21.56862831;40.0;1734.0;141;14.100000000000001;-0.011026058130239201;0.1357244823483664;0.06297199515188343;9.851134704557941;1.099623939901185;-0.21498296314577048;17.94579764874179;8;0;0;0;0;0;0;0;0;0;0;0;0;0;0;0;0;0
142;2022-04-07 21:23:33.976;5.174057124919897;52.369637155058086;20;0.06;0.1;9.71836185;1.29530263;-0.45012367;-0.03;7.84313775;3.9215688699999998;21.56862831;40.0;1837.5;142;14.200000000000001;-0.004569135976697825;0.13247679822268976;0.06361133909005334;9.839064430512716;1.1174129331571274;-0.23635941679187317;18.132543541993734;8;0;0;0;0;0;0;0;0;0;0;0;0;0;0;0;0;0
143;2022-04-07 21:23:34.076;5.174057124919897;52.369637155058086;21;-0.03;0.07;9.56033897;0.51716334;-0.19633053;0.0;7.84313775;3.9215688699999998;24.70588303;40.0;1837.5;143;14.3;-0.006881035237847238;0.1267970830735046;0.0614652850044525;9.813725724535898;1.0628447285670812;-0.2327204230984631;18.393221687280832;8;0;0;0;0;0;0;0;0;0;0;0;0;0;0;0;0;0
144;2022-04-07 21:23:34.177;5.174057124919897;52.369637155058086;21;0.0;0.14;9.25387192;1.01038396;-0.0478855;-0.04;7.84313775;3.9215688699999998;24.70588303;40.0;1837.5;144;14.4;-0.006255485957099016;0.12799734944355906;0.06315069440922041;9.76282987345446;1.0580755630403396;-0.21591723154300613;18.63020176981587;8;0;0;0;0;0;0;0;0;0;0;0;0;0;0;0;0;0
145;2022-04-07 21:23:34.277;5.174057124919897;52.369637155058086;21;0.03;0.08;9.4166832;0.87391031;-0.52195191;-0.04;7.84313775;3.9215688699999998;24.70588303;40.0;1837.5;145;14.5;-0.0029595297052982623;0.12363395009054645;0.06468288448598522;9.731361965569782;1.0413332521569318;-0.24373859112764185;18.845638167538524;8;0;0;0;0;0;0;0;0;0;0;0;0;0;0;0;0;0
146;2022-04-07 21:23:34.378;5.174057124919897;52.369637155058086;21;-0.01;0.13;10.65212822;0.08858817;0.0095771;-0.1;7.450979240000002;3.9215688699999998;24.70588303;40.0;1837.5;146;14.600000000000001;-0.0035995729859666275;0.12421268237665686;0.0715303342574581;9.81506805757016;0.9547199916076651;-0.22070987298701958;19.041489404356188;8;0;0;0;0;0;0;0;0;0;0;0;0;0;0;0;0;0
147;2022-04-07 21:23:34.476;5.174057124919897;52.369637155058086;21;0.02;0.06;10.12059975;0.35435268;-0.50758624;-0.03;7.450979240000002;3.9215688699999998;24.70588303;39.60784149;1837.5;147;14.700000000000001;-0.0014541556552677083;0.11837516143068616;0.07139164649395527;9.842843686748134;0.9001411042746558;-0.24678956222222645;19.219535955314985;8;0;0;0;0;0;0;0;0;0;0;0;0;0;0;0;0;0
148;2022-04-07 21:23:34.576;5.174057124919897;52.369637155058086;21;-0.04;0.1;9.3592205;0.30886146;-0.69912827;-0.02;7.450979240000002;3.9215688699999998;24.70588303;39.60784149;1804.0;148;14.8;-0.004958325705702028;0.11670469107384457;0.07035647519971001;9.798877912602885;0.8463883727903379;-0.2879112908908489;19.38139643307393;8;0;0;0;0;0;0;0;0;0;0;0;0;0;0;0;0;0
149;2022-04-07 21:23:34.677;5.174057124919897;52.369637155058086;22;-0.04;0.04;9.9362402;0.87630457;-0.36153549;-0.08;7.450979240000002;3.9215688699999998;20.7843132;39.60784149;1804.0;149;14.9;-0.00814393442892835;0.10973153302936776;0.07486995933522268;9.81136540099455;0.8491080287632937;-0.2946044040381515;19.619451449949327;8;0;0;0;0;0;0;0;0;0;0;0;0;0;0;0;0;0
150;2022-04-07 21:23:34.775;5.174057124919897;52.369637155058086;22;0.0;0.1;9.55794525;0.60575151;-0.52674043;0.01;7.450979240000002;3.9215688699999998;20.7843132;39.60784149;1804.0;150;15.0;-0.00740357633752042;0.10884684771135938;0.07079130346725646;9.788327192503065;0.8269846964433183;-0.31570769098477186;19.83586507611495;8;1;0;0;0;0;0;0;0;0;0;0;0;0;0;0;0;0
151;2022-04-07 21:23:34.875;5.174057124919897;52.369637155058086;22;0.0;0.04;9.87638378;0.13886794;-1.18756032;-0.1;7.450979240000002;3.9215688699999998;20.7843132;39.60784149;1804.0;151;15.100000000000001;-0.006730523599356776;0.10258804017651536;0.07708344000288953;9.796332340910572;0.7644285957176017;-0.39496706138661747;20.03260471515867;8;1;0;0;0;0;0;0;0;0;0;0;0;0;0;0;0;0
152;2022-04-07 21:23:34.975;5.174145461832449;52.36962044017587;22;-0.04;0.0;9.84286404;-0.4764607;-0.34716985;-0.01;7.84313775;3.9215688699999998;20.7843132;39.60784149;1804.0;152;15.200000000000001;-0.009755022858625357;0.09326185037457163;0.07462174158661586;9.800562497337854;0.651620425533726;-0.3906218583334329;20.211458915027475;8;1;0;0;0;0;0;0;0;0;0;0;0;0;0;0;0;0
153;2022-04-07 21:23:35.076;5.174145461832449;52.36962044017587;22;0.0;0.13;9.84765244;0.65603131;-0.71109962;0.0;7.84313775;3.9215688699999998;20.7843132;43.13725662;1804.0;153;15.3;-0.008868202224327534;0.09660168356880586;0.07147474284096264;9.804843403023664;0.6520214151999612;-0.419756212603879;20.374053627764678;8;1;0;0;0;0;0;0;0;0;0;0;0;0;0;0;0;0
154;2022-04-07 21:23:35.176;5.174145461832449;52.36962044017587;23;0.03;0.0;9.76385307;0.49082634;-0.65124273;-0.05;7.84313775;3.9215688699999998;20.7843132;43.13725662;1582.5;154;15.4;-0.005334727938605752;0.08781970896453245;0.07315929141108415;9.801117007682137;0.6373673118298919;-0.44080044953538616;20.61277611686839;8;1;0;0;0;0;0;0;0;0;0;0;0;0;0;0;0;0
155;2022-04-07 21:23:35.277;5.174145461832449;52.36962044017587;23;-0.03;0.05;9.52921391;0.25618741;-0.78771639;-0.06;7.84313775;3.9215688699999998;25.09803963;43.13725662;1582.5;155;15.5;-0.007577026181142681;0.0843815524044367;0.07559979031619074;9.776398535631417;0.6027145813902646;-0.47233827330946043;20.82979654560578;8;1;0;0;0;0;0;0;0;0;0;0;0;0;0;0;0;0
156;2022-04-07 21:23:35.378;5.174145461832449;52.36962044017587;23;0.01;0.05;9.72075558;0.13168511;-1.07981789;0.0;7.84313775;3.9215688699999998;25.09803963;43.13725662;1582.5;156;15.600000000000001;-0.005979114203254231;0.08125595573983202;0.0723638783518879;9.771340083514874;0.5598937067715276;-0.5275637105267243;21.027087831315523;8;1;0;0;0;0;0;0;0;0;0;0;0;0;0;0;0;0
157;2022-04-07 21:23:35.476;5.174145461832449;52.36962044017587;23;0.06;0.05;10.18524456;0.1699935;-0.00478855;-0.01;7.84313775;3.9215688699999998;25.09803963;43.13725662;1582.5;157;15.700000000000001;1.898881764624195e-05;0.0784145043986291;0.0703312315519179;9.80896777404618;0.524448223207114;-0.48003868222841445;21.20644353473559;8;1;0;0;0;0;0;0;0;0;0;0;0;0;0;0;0;0
158;2022-04-07 21:23:35.577;5.174145461832449;52.36962044017587;23;0.04;0.05;10.21876526;0.43575802;-0.83799618;-0.05;7.84313775;3.9215688699999998;25.09803963;45.88235474;1582.5;158;15.8;0.0036536271507096162;0.0758313669579273;0.07211973551606865;9.84622210071759;0.5163854753472992;-0.5125802814659617;21.369494165231924;8;1;0;0;0;0;0;0;0;0;0;0;0;0;0;0;0;0
159;2022-04-07 21:23:35.678;5.174145461832449;52.36962044017587;23;-0.02;0.0;9.65371609;-0.16041641;-0.19393626;0.0;7.84313775;3.9215688699999998;25.09803963;45.88235474;1582.5;159;15.9;0.0015032968972576446;0.06893760468242964;0.06920019250062472;9.828721550117892;0.45485801656125974;-0.4836126362471479;21.517722003719122;8;1;0;0;0;0;0;0;0;0;0;0;0;0;0;0;0;0
160;2022-04-07 21:23:35.779;5.174145461832449;52.36962044017587;23;-0.03;0.05;9.51963711;0.32562137;0.23463893;0.02;7.84313775;3.9215688699999998;25.09803963;45.88235474;1618.75;160;16.0;-0.00136063980481026;0.0672160038837531;0.06472788039523548;9.800622958564803;0.4431092279647498;-0.418317025168676;21.652474578030986;8;1;0;0;0;0;0;0;0;0;0;0;0;0;0;0;0;0
161;2022-04-07 21:23:35.876;5.174145461832449;52.36962044017587;24;-0.03;-0.01;8.94979954;-0.22266756;0.08858817;0.02;7.84313775;3.9215688699999998;12.94117641;45.88235474;1618.75;161;16.1;-0.003964218517182056;0.060196365784438155;0.060662142285777085;9.723275359824285;0.3825840535012701;-0.372234725622281;21.865886022062362;8;1;0;0;0;0;0;0;0;0;0;0;0;0;0;0;0;0
162;2022-04-07 21:23:35.975;5.174243197192532;52.36960452693232;24;-0.02;0.03;10.25467873;0.20590763;-0.1053481;0.0;7.84313775;3.9215688699999998;12.94117641;45.88235474;1618.75;162;16.2;-0.005422017094831521;0.05745124113068157;0.058784199014446765;9.771584765763144;0.3665225575797701;-0.34797230076679736;22.059896418432057;8;1;0;0;0;0;0;0;0;0;0;0;0;0;0;0;0;0
163;2022-04-07 21:23:36.078;5.174243197192532;52.36960452693232;24;0.03;0.08;10.25467873;0.55307746;0.2083019;0.03;7.84313775;3.9215688699999998;12.94117641;45.88235474;1618.75;163;16.3;-0.0022018331983942757;0.05950112863429921;0.05434970474583424;9.815502406024477;0.38348209692409224;-0.2974019106470853;22.236269500011787;8;1;0;0;0;0;0;0;0;0;0;0;0;0;0;0;0;0
164;2022-04-07 21:23:36.176;5.174243197192532;52.36960452693232;24;0.04;0.0;9.89314365;-0.45730647;0.09816527;0.07;-0.39215659999999986;3.9215688699999998;12.94117641;45.88235474;1618.75;164;16.400000000000002;0.0016346976601038102;0.05409193432163038;0.04668198227062403;9.822560701975839;0.30704676134726244;-0.26144125253948036;22.396608660101556;8;1;0;0;0;0;0;0;0;0;0;0;0;0;0;0;0;0
165;2022-04-07 21:23:36.276;5.174243197192532;52.36960452693232;24;0.0;0.06;9.7470932;0.28970724;0.19633053;0.07;-0.39215659999999986;0.0;12.94117641;18.8235302;1618.75;165;16.5;0.0014860887619204243;0.054629031273737;0.03971132567190631;9.815700019055077;0.305470441012724;-0.21982563034649535;22.54237152879249;8;1;0;0;0;0;0;0;0;0;0;0;0;0;0;0;0;0
166;2022-04-07 21:23:36.376;5.174243197192532;52.36960452693232;24;-0.05;-0.01;9.87398911;-0.73264807;0.11971374;0.05;-0.39215659999999986;0.0;12.94117641;18.8235302;1613.0;166;16.6;-0.0031944653343158607;0.04875366407575702;0.0351925473309108;9.82099902797086;0.21109601937879607;-0.18895841108543182;22.67488322419917;8;1;0;0;0;0;0;0;0;0;0;0;0;0;0;0;0;0
167;2022-04-07 21:23:36.476;5.174243197192532;52.36960452693232;24;-0.08;-0.34;9.06472397;-3.66563463;-0.58899158;-0.04;-0.39215659999999986;0.0;9.01960754;18.8235302;1613.0;167;16.7;-0.010176787443858422;0.013412417957791965;0.03926638620830518;9.752246742329591;-0.14133407883901897;-0.22532506684820353;22.795348399028995;8;1;0;0;0;0;0;0;0;0;0;0;0;0;0;0;0;0
168;2022-04-07 21:23:36.578;5.174243197192532;52.36960452693232;24;-0.08;0.05;9.44541454;0.17238778;1.6185298;-0.01;-0.39215659999999986;0.0;9.01960754;18.8235302;1613.0;168;16.8;-0.01652435286325851;0.016738562115995063;0.04024260301531048;9.724352902934854;-0.11281390697102728;-0.05770188019251104;22.904862192004366;8;1;0;0;0;0;0;0;0;0;0;0;0;0;0;0;0;0
169;2022-04-07 21:23:36.678;5.174243197192532;52.36960452693232;24;-0.02;0.1;9.94342327;-1.98964238;1.15882897;0.18000001;-0.39215659999999986;0.0;9.01960754;18.8235302;1613.0;169;16.900000000000002;-0.016840320813813106;0.024307784437309937;0.023857343053817343;9.744268392679796;-0.2834346929238398;0.0528918436232323;23.004420183697285;8;1;0;0;0;0;0;0;0;0;0;0;0;0;0;0;0;0
