;device_time;lon;lat;raw_speed_kph;raw_g_x;raw_g_y;raw_roll;raw_yaw;raw_pitch;raw_g_z;apps_d;apps_e;engine_load;engine_load_abs;engine_rpm;num_samples;cumulative_time;g_x;g_y;g_z;roll;yaw;pitch;speed_kph;sample_nr;cu mulative_time;roundabout_1;roundabout_2;roundabout_3;roundabout_4;turning_right_1;turning_right_2;turning_right_3;turning_left_1;turning_left_2;road_50km_1;road_50km_2;road_100km;entering_highway;exiting_highway;speed_bumps;road_50km_3;road_50km_4
0;2022-05-02 00:34:54.982;5.1737379388631695;52.369769719974606;0;0.0;0.0;9.45020294;0.05985687;-1.68317521;-0.12;0.0;0.0;0.0;0.0;0.0;0;0.0;0.0;0.0;0.12;9.45020294;0.05985687;-1.68317521;0.0;6;0.0;0;0;0;0;0;0;0;0;0;0;0;0;0;0;0;0;0
1;2022-05-02 00:34:55.079;5.1737379388631695;52.369769719974606;0;0.0;0.0;9.13415813;-0.07661679;-2.07583618;-0.1;0.0;0.0;0.0;0.0;1305.5;1;0.1;0.0;0.0;0.10952380952380952;9.284655658571427;-0.011629332857142861;-1.8888547657142858;0.0;6;0.1;0;0;0;0;0;0;0;0;0;0;0;0;0;0;0;0;0
2;2022-05-02 00:34:55.180;5.1737379388631695;52.369769719974606;0;0.05;0.02;10.14454269;0.3328042;-1.84359157;-0.1;0.0;0.0;39.2156868;0.0;1305.5;2;0.2;0.018277945619335347;0.007311178247734139;0.10604229607250756;9.59899502655589;0.11428141480362537;-1.8723084011178248;0.0;6;0.2;0;0;0;0;0;0;0;0;0;0;0;0;0;0;0;0;0
3;2022-05-02 00:34:55.279;5.1737379388631695;52.369769719974606;0;0.0;0.01;9.83089256;0.1699935;-2.05907631;-0.16;0.0;0.0;39.2156868;0.0;1305.5;3;0.30000000000000004;0.013035983624218919;0.00808230984701573;0.12151691445809093;9.66550130042232;0.13025917507002802;-1.925871875955613;0.0;6;0.30000000000000004;0;0;0;0;0;0;0;0;0;0;0;0;0;0;0;0;0
4;2022-05-02 00:34:55.380;5.1737379388631695;52.369769719974606;0;-0.02;-0.01;9.42625999;0.07182825;-2.370332;-0.15000001;0.0;0.0;39.2156868;0.0;1305.5;4;0.4;0.005113429755450361;0.003745884588295031;0.1283476134119015;9.608127432248281;0.11624651067550079;-2.032460476898003;0.0;6;0.4;0;0;0;0;0;0;0;0;0;0;0;0;0;0;0;0;0
5;2022-05-02 00:34:55.477;5.1737379388631695;52.369769719974606;0;-0.01;0.0;9.7518816;0.20111908;-2.41821766;-0.13;0.0;0.0;39.2156868;0.0;1305.5;5;0.5;0.001958743378682956;0.0029639911815138387;0.12869252264448305;9.638133812133452;0.13396230004572543;-2.112981109869031;0.0;6;0.5;0;0;0;0;0;0;0;0;0;0;0;0;0;0;0;0;0
6;2022-05-02 00:34:55.580;5.1737379388631695;52.369769719974606;0;0.0;0.01;9.75427532;0.46448931;-2.65764499;-0.15000001;7.450979240000002;3.9215688699999998;39.2156868;40.39215851;1305.5;6;0.6000000000000001;0.0015929827764251327;0.004277841097203791;0.13267131817868674;9.659821179823734;0.19568235972227227;-2.214687433930092;0.0;6;0.6000000000000001;0;0;0;0;0;0;0;0;0;0;0;0;0;0;0;0;0
7;2022-05-02 00:34:55.679;5.1737379388631695;52.369769719974606;0;0.01;0.03;9.9170866;0.41420954;-2.79651308;-0.23;7.450979240000002;3.9215688699999998;39.2156868;40.39215851;1305.5;7;0.7000000000000001;0.0030255692166137934;0.008660990920329133;0.14925648103854824;9.703660147042743;0.23292018937732029;-2.3138326490459145;0.0;6;0.7000000000000001;0;0;0;0;0;0;0;0;0;0;0;0;0;0;0;0;0
8;2022-05-02 00:34:55.784;5.1737379388631695;52.369769719974606;4;0.0;0.01;9.88596058;0.37111259;-2.70074201;-0.23999999;7.450979240000002;3.9215688699999998;39.2156868;40.39215851;1588.75;8;0.8;0.0025479678804505583;0.008872360246165034;0.16358080086906096;9.732437188362912;0.2547345556865019;-2.3749082399631662;0.6314201420885217;6;0.8;0;0;0;0;0;0;0;0;0;0;0;0;0;0;0;0;0
9;2022-05-02 00:34:55.882;5.1737379388631695;52.369769719974606;4;-0.02;-0.01;9.73991013;0.0383084;-2.41103482;-0.19;7.450979240000002;3.9215688699999998;29.41176414;40.39215851;1588.75;9;0.9;-0.0007880120618240914;0.006080187772867632;0.16748953086455584;9.733542812760787;0.22271422825913492;-2.3802531804484834;1.1298027413331384;6;0.9;0;0;0;0;0;0;0;0;0;0;0;0;0;0;0;0;0
10;2022-05-02 00:34:55.979;5.1737379388631695;52.369769719974606;4;0.01;-0.01;9.73751545;-0.07661679;-2.18836713;-0.1;7.450979240000002;3.9215688699999998;29.41176414;40.39215851;1588.75;10;1.0;0.0007219481502103438;0.003829500287543549;0.15804325793212473;9.734098848862125;0.18081791546222245;-2.353395562959627;1.5315341851283983;6;1.0;0;0;0;0;0;0;0;0;0;0;0;0;0;0;0;0;0
11;2022-05-02 00:34:56.079;5.1737379388631695;52.369769719974606;4;0.01;-0.01;10.13017654;0.0383084;-1.80528319;-0.1;8.62745095;3.9215688699999998;29.41176414;40.39215851;1588.75;11;1.1;0.001959836920344419;0.0019843518253796688;0.1502990570654523;9.786944007942727;0.16180412553261206;-2.280265754865954;1.8608798453122968;6;1.1;0;0;0;0;0;0;0;0;0;0;0;0;0;0;0;0;0
12;2022-05-02 00:34:56.182;5.1737379388631695;52.369769719974606;4;0.0;-0.05;10.13735962;0.1340794;-2.6767993;-0.11;8.62745095;4.313725470000001;29.41176414;46.27450943;1588.75;12;1.2000000000000002;0.001709016058098289;-0.004668630273690341;0.14514156455373536;9.831790364824943;0.1582559019577623;-2.331014306782487;2.1346454612557677;6;1.2000000000000002;0;0;0;0;0;0;0;0;0;0;0;0;0;0;0;0;0
13;2022-05-02 00:34:56.280;5.1737379388631695;52.369769719974606;4;0.01;-0.04;9.89553738;-0.40223816;-1.79331183;-0.13;8.62745095;4.313725470000001;29.41176414;46.27450943;1723.75;13;1.3;0.002732170382624665;-0.009028721184519242;0.14327300982466948;9.839657107145161;0.08908776372688526;-2.264658779105231;2.3648407645472735;6;1.3;0;0;0;0;0;0;0;0;0;0;0;0;0;0;0;0;0
14;2022-05-02 00:34:56.381;5.1737379388631695;52.369769719974606;6;-0.03;-0.05;9.47653961;-1.06545234;-2.06865335;-0.19;8.62745095;4.313725470000001;30.98039246;46.27450943;1723.75;14;1.4000000000000001;-0.0011800314954886514;-0.013925674611589093;0.1488578951709693;9.796256717323738;-0.04890473445939846;-2.241231893600781;2.7993208684308937;6;1.4000000000000001;0;0;0;0;0;0;0;0;0;0;0;0;0;0;0;0;0
15;2022-05-02 00:34:56.478;5.173755826510026;52.369771860875815;6;-0.03;-0.09;9.29696941;-0.73983091;-2.16681862;-0.19;8.62745095;4.313725470000001;30.98039246;46.27450943;1723.75;15;1.5;-0.004528823298235297;-0.022765277514705137;0.15363848135993874;9.738241066067234;-0.12918823347124747;-2.23258529981249;3.171229950751475;6;1.5;0;0;0;0;0;0;0;0;0;0;0;0;0;0;0;0;0
16;2022-05-02 00:34:56.579;5.173755826510026;52.369771860875815;6;-0.01;-0.09;9.83328629;-0.85475612;-1.99203658;-0.2;9.80392075;4.313725470000001;30.98039246;46.27450943;1723.75;16;1.6;-0.005148877396084963;-0.03038505795084889;0.1588926800784761;9.749012639312445;-0.21141759030506435;-2.2053236653264174;3.491817377647267;6;1.6;0;0;0;0;0;0;0;0;0;0;0;0;0;0;0;0;0
17;2022-05-02 00:34:56.678;5.173755826510026;52.369771860875815;6;0.06;-0.03;10.38636398;-0.32801566;-2.14048171;-0.16;9.80392075;5.09803868;30.98039246;47.05882263;1723.75;17;1.7000000000000002;0.002072592693401573;-0.030342375949471204;0.15901542168220567;9.819660267133978;-0.22434197989469132;-2.1981362162152576;3.769838527208605;6;1.7000000000000002;0;0;0;0;0;0;0;0;0;0;0;0;0;0;0;0;0
18;2022-05-02 00:34:56.778;5.173755826510026;52.369771860875815;9;0.02;-0.12;8.90191364;-1.64486682;-2.55947971;-0.18000001;9.80392075;5.09803868;30.98039246;47.05882263;1937.25;18;1.8;0.004020924874375145;-0.04008627428456291;0.16129600515001097;9.719920507945991;-0.3787231579711685;-2.2374066553415624;4.3382470948756655;6;1.8;0;0;0;0;0;0;0;0;0;0;0;0;0;0;0;0;0
19;2022-05-02 00:34:56.883;5.173755826510026;52.369771860875815;9;-0.11;-0.15000001;9.73512173;-0.82841909;-2.63609648;-0.2;9.80392075;5.09803868;38.82352829;47.05882263;1937.25;19;1.9000000000000001;-0.008154397900136437;-0.051823025334093824;0.16542887488844574;9.721543716890126;-0.4267423538237565;-2.2799793437097553;4.836035955801329;6;1.9000000000000001;0;0;0;0;0;0;0;0;0;0;0;0;0;0;0;0;0
20;2022-05-02 00:34:56.981;5.173755826510026;52.369771860875815;9;-0.04;-0.1;9.29696941;-1.28333127;-2.54990268;-0.28999999;9.80392075;5.09803868;38.82352829;47.05882263;1937.25;20;2.0;-0.011501787273660469;-0.056887055605510224;0.1785229286816457;9.676915403106058;-0.5167810545051015;-2.3083518173948416;5.273723048341698;6;2.0;0;0;0;0;0;0;0;0;0;0;0;0;0;0;0;0;0
21;2022-05-02 00:34:57.083;5.173755826510026;52.369771860875815;9;-0.05;-0.17;9.20598698;-1.64726102;-2.3679378;-0.19;9.80392075;5.09803868;38.82352829;47.05882263;1937.25;21;2.1;-0.015491779242158004;-0.06861019046569922;0.17971242344358762;9.628107926268445;-0.6339450905328304;-2.3145273662110846;5.659917992382358;6;2.1;0;0;0;0;0;0;0;0;0;0;0;0;0;0;0;0;0
22;2022-05-02 00:34:57.179;5.173755826510026;52.369771860875815;9;0.02;-0.06;9.39274025;-1.10854924;-2.15963578;-0.19;11.37254906;5.4901962300000005;38.82352829;66.27451324;1937.25;22;2.2;-0.011859621129689343;-0.0677290406947477;0.18076523357159133;9.604020866306238;-0.6825151354420148;-2.2986760692791606;6.001735343310449;6;2.2;0;0;0;0;0;0;0;0;0;0;0;0;0;0;0;0;0
23;2022-05-02 00:34:57.279;5.173755826510026;52.369771860875815;9;0.1;-0.02;10.83409309;-1.02714384;-1.16122329;-0.18000001;11.37254906;5.4901962300000005;38.82352829;66.27451324;1937.25;23;2.3000000000000003;-0.000541484025682891;-0.06289973928133107;0.1806878070148855;9.728481560299246;-0.7173852242977703;-2.1835867602398524;6.305104603064739;6;2.3000000000000003;0;0;0;0;0;0;0;0;0;0;0;0;0;0;0;0;0
24;2022-05-02 00:34:57.378;5.173755826510026;52.369771860875815;13;0.14;-0.1;10.93465328;-0.50519198;-0.91221869;-0.06;11.37254906;5.4901962300000005;36.47058868;66.27451324;2187.75;24;2.4000000000000004;0.01353413811780265;-0.06661543400962462;0.1686005860733662;9.849283026744295;-0.6961334782468326;-2.056255697201424;6.975617075241287;6;2.4000000000000004;0;0;0;0;0;0;0;0;0;0;0;0;0;0;0;0;0
25;2022-05-02 00:34:57.478;5.173799975387478;52.36976089877651;13;-0.04;0.0;9.31851768;0.13647367;-2.1189332;-0.16;11.37254906;5.4901962300000005;36.47058868;66.27451324;2187.75;25;2.5;0.008221651710984832;-0.06000481880028564;0.1677471027034671;9.796612267693607;-0.6135093002401315;-2.062475529878995;7.573449664360771;6;2.5;0;0;0;0;0;0;0;0;0;0;0;0;0;0;0;0;0
26;2022-05-02 00:34:57.578;5.173799975387478;52.36976089877651;13;-0.37;-0.28999999;9.39992332;-1.81246603;-1.6017698;-0.23;11.37254906;5.4901962300000005;36.47058868;66.27451324;2187.75;26;2.6;-0.029001424899954244;-0.08264003240845563;0.17387378623636138;9.75757171297149;-0.7315058718355497;-2.0171346970609716;8.107509250751049;6;2.6;0;0;0;0;0;0;0;0;0;0;0;0;0;0;0;0;0
27;2022-05-02 00:34:57.679;5.173799975387478;52.36976089877651;13;0.16;0.01;6.27539444;-2.7653873;-2.90664959;0.0;10.980392460000001;5.4901962300000005;36.47058868;66.27451324;2187.75;27;2.7;-0.010539247996320203;-0.0735907002799352;0.15688931851555146;9.417423098444145;-0.9301809810187981;-2.1040249483939997;8.585421148821872;6;2.7;0;0;0;0;0;0;0;0;0;0;0;0;0;0;0;0;0
28;2022-05-02 00:34:57.778;5.173799975387478;52.36976089877651;13;0.03;-0.2;9.27063179;-1.1827718;-1.90823698;0.02;10.980392460000001;5.4901962300000005;36.47058868;58.82352829;2187.75;28;2.8000000000000003;-0.006605906279034068;-0.08585562863003657;0.13972653996764428;9.403180595048651;-0.9546887372009654;-2.085028518467704;9.013747968331801;6;2.8000000000000003;0;0;0;0;0;0;0;0;0;0;0;0;0;0;0;0;0
29;2022-05-02 00:34:57.879;5.173799975387478;52.36976089877651;15;0.08;0.01;10.57072353;0.2370332;-2.14048171;-0.16;10.980392460000001;5.4901962300000005;36.47058868;58.82352829;2331.0;29;2.9000000000000004;0.0017459932048913876;-0.07661172587925663;0.14168162487647348;9.515773392178026;-0.8397642215423734;-2.090376184714027;9.591036255031952;6;2.9000000000000004;0;0;0;0;0;0;0;0;0;0;0;0;0;0;0;0;0
30;2022-05-02 00:34:57.980;5.173799975387478;52.36976089877651;15;0.13;-0.01;10.88916206;0.09577099;-2.65046215;-0.25999999;10.980392460000001;5.4901962300000005;30.98039246;58.82352829;2331.0;30;3.0;0.01404627697543172;-0.07022328507156134;0.1530290244833393;9.647489123823293;-0.7500411098294804;-2.144091592762996;10.10978643391688;6;3.0;0;0;0;0;0;0;0;0;0;0;0;0;0;0;0;0;0
31;2022-05-02 00:34:58.079;5.173799975387478;52.36976089877651;15;0.03;0.05;9.87638378;1.19953167;-1.69275224;-0.22;10.980392460000001;5.4901962300000005;30.98039246;58.82352829;2331.0;31;3.1;0.015568722151656769;-0.05875051723265242;0.15941998654689093;9.669332273828045;-0.5639956538703769;-2.1010208048725216;10.576453809483596;6;3.1;0;0;0;0;0;0;0;0;0;0;0;0;0;0;0;0;0
32;2022-05-02 00:34:58.180;5.173799975387478;52.36976089877651;15;-0.13;0.1;8.69121742;-0.32562137;-1.23305154;-0.09;10.980392460000001;5.4901962300000005;30.98039246;58.82352829;2331.0;32;3.2;0.0017397721135591132;-0.04366930377633491;0.1528251252922719;9.576411890622254;-0.5413502255579925;-2.0185641931697598;10.99668831010755;6;3.2;0;0;0;0;0;0;0;0;0;0;0;0;0;0;0;0;0
33;2022-05-02 00:34:58.280;5.173799975387478;52.36976089877651;15;0.05;-0.07;10.30256462;-0.62969428;-1.58979845;-0.11;10.980392460000001;5.4901962300000005;30.98039246;58.82352829;2331.0;33;3.3000000000000003;0.006305791011924239;-0.04616051572931752;0.14877333482270585;9.645114986953255;-0.5497086739078341;-1.9779976112859898;11.375451478717258;6;3.3000000000000003;0;0;0;0;0;0;0;0;0;0;0;0;0;0;0;0;0
34;2022-05-02 00:34:58.379;5.173799975387478;52.36976089877651;15;0.01;-0.1;8.98092461;-0.84996754;-3.05030608;-0.08;10.980392460000001;5.4901962300000005;30.98039246;58.82352829;2331.0;34;3.4000000000000004;0.006654019594310467;-0.05123560686371245;0.14229052863372554;9.582506164835294;-0.5780120859848626;-2.0790770193937393;11.717113630866866;6;3.4000000000000004;0;0;0;0;0;0;0;0;0;0;0;0;0;0;0;0;0
35;2022-05-02 00:34:58.481;5.173799975387478;52.36976089877651;15;-0.04;-0.08;9.28020954;-0.31843856;-1.98485386;-0.12;10.980392460000001;5.4901962300000005;30.98039246;54.90196228;2331.0;35;3.5;0.0022709565722027693;-0.05393797096878531;0.14019637270359792;9.554105929023992;-0.55362561011085;-2.070224919417016;12.02553502682486;6;3.5;0;0;0;0;0;0;0;0;0;0;0;0;0;0;0;0;0
36;2022-05-02 00:34:58.578;5.173852476072348;52.36973573373639;15;0.03;0.0;12.7758503;1.07263517;-1.67599237;-0.2;10.980392460000001;5.4901962300000005;30.98039246;54.90196228;2331.0;36;3.6;0.004868158112278808;-0.04888594738804131;0.14579779466828946;9.855866047933903;-0.40130419975757947;-2.0332996865953326;12.304134071517776;6;3.6;0;0;0;0;0;0;0;0;0;0;0;0;0;0;0;0;0
37;2022-05-02 00:34:58.678;5.173852476072348;52.36973573373639;19;-0.01;0.0;9.5818882;0.07182825;-2.21709847;-0.17;10.980392460000001;5.4901962300000005;30.98039246;54.90196228;2155.0;37;3.7;0.003479378543193138;-0.04431969214410222;0.14805843300947966;9.83027479212943;-0.357110650379588;-2.050467650057088;12.929570102570834;6;3.7;0;0;0;0;0;0;0;0;0;0;0;0;0;0;0;0;0
38;2022-05-02 00:34:58.780;5.173852476072348;52.36973573373639;19;-0.03;0.06;10.39354706;0.93616146;-3.08143163;-0.18000001;10.980392460000001;5.4901962300000005;30.19607925;54.90196228;2155.0;38;3.8000000000000003;0.00035998358746246943;-0.03459984859808603;0.1510345454248808;9.88275690940743;-0.2366118038343775;-2.1465262980521476;13.495174042223624;6;3.8000000000000003;0;0;0;0;0;0;0;0;0;0;0;0;0;0;0;0;0
39;2022-05-02 00:34:58.879;5.173852476072348;52.36973573373639;19;0.01;0.03;9.09824467;-0.89785308;-1.87471712;-0.14;10.980392460000001;5.4901962300000005;30.19607925;54.90196228;2155.0;39;3.9000000000000004;0.001256149435908832;-0.028594446153634025;0.15000873983081073;9.809826216495876;-0.2980828453682929;-2.1212580731611808;14.006919750310198;6;3.9000000000000004;0;0;0;0;0;0;0;0;0;0;0;0;0;0;0;0;0
40;2022-05-02 00:34:58.978;5.173852476072348;52.36973573373639;19;0.0;-0.05;9.37598038;-0.17238778;-2.10696173;-0.11;10.980392460000001;5.4901962300000005;30.19607925;54.90196228;2155.0;40;4.0;0.0011396132520911373;-0.030580293924966157;0.14629702709508485;9.769577232811985;-0.2864217938850841;-2.119931764979267;14.470140527361586;6;4.0;0;0;0;0;0;0;0;0;0;0;0;0;0;0;0;0;0
41;2022-05-02 00:34:59.080;5.173852476072348;52.36973573373639;19;-0.01;-0.01;9.62019634;-0.07422252;-2.56666255;-0.20999999;10.980392460000001;5.4901962300000005;30.19607925;54.90196228;2155.0;41;4.1000000000000005;0.00010808515546979122;-0.028674558874753075;0.15219592094241946;9.755744563351486;-0.26677214284769085;-2.1612990320419803;14.889605477717534;6;4.1000000000000005;0;0;0;0;0;0;0;0;0;0;0;0;0;0;0;0;0
42;2022-05-02 00:34:59.179;5.173852476072348;52.36973573373639;19;0.04;0.03;8.93782806;-0.41899809;-1.75260913;-0.06;10.980392460000001;5.4901962300000005;30.19607925;60.39215851;2155.0;42;4.2;0.0037958405168069184;-0.02325046680226811;0.14367299084307777;9.680133352856432;-0.28084446940642765;-2.123518234021794;15.269585468546085;6;4.2;0;0;0;0;0;0;0;0;0;0;0;0;0;0;0;0;0
43;2022-05-02 00:34:59.278;5.173852476072348;52.36973573373639;21;-0.08;0.02;10.22594738;0.61293435;-1.40783358;-0.15000001;10.980392460000001;5.4901962300000005;30.19607925;60.39215851;2190.75;43;4.3;-0.003938685935652079;-0.01925836078005753;0.14425698757528568;9.730513097304707;-0.19834686715420063;-2.0574590853336168;15.798514380813467;6;4.3;0;0;0;0;0;0;0;0;0;0;0;0;0;0;0;0;0
44;2022-05-02 00:34:59.378;5.173852476072348;52.36973573373639;21;0.13;0.09;10.95859623;1.03911531;-1.38867939;-0.12;10.980392460000001;5.4901962300000005;34.11764526;60.39215851;2190.75;44;4.4;0.008406930367916702;-0.009187619897953393;0.14202113271981262;9.843709990638608;-0.08428547314691413;-1.995815226036885;16.27795424700611;6;4.4;0;0;0;0;0;0;0;0;0;0;0;0;0;0;0;0;0
45;2022-05-02 00:34:59.477;5.173852476072348;52.36973573373639;21;0.04;0.05;10.27862167;0.91940153;-0.45730647;-0.09;10.980392460000001;5.4901962300000005;34.11764526;60.39215851;2190.75;45;4.5;0.011315300835451694;-0.0037389715785737724;0.13723221135661667;9.88374675499772;0.008111171832363066;-1.8541843721119569;16.712652697466584;6;4.5;0;0;0;0;0;0;0;0;0;0;0;0;0;0;0;0;0
46;2022-05-02 00:34:59.578;5.173917511695314;52.36970119053815;21;-0.02;0.09;9.93863487;1.30009127;-2.07823062;-0.17;10.588233950000003;5.4901962300000005;34.11764526;60.39215851;2190.75;46;4.6000000000000005;0.008435807052290994;0.004880482129333977;0.14024526379964888;9.888793808090039;0.126910881922627;-1.8747857957203082;17.106881383589236;6;4.6000000000000005;0;0;0;0;0;0;0;0;0;0;0;0;0;0;0;0;0
47;2022-05-02 00:34:59.678;5.173917511695314;52.36970119053815;21;0.02;0.20999999;8.91149044;1.97048819;-1.81725454;-0.17;10.588233950000003;5.4901962300000005;34.11764526;60.7843132;2190.75;47;4.7;0.009498046295011397;0.02372191721200297;0.14297841159402808;9.799022736790702;0.29625431751590725;-1.869501210986602;17.46448726145866;6;4.7;0;0;0;0;0;0;0;0;0;0;0;0;0;0;0;0;0
48;2022-05-02 00:34:59.778;5.173917511695314;52.36970119053815;24;0.1;0.22;11.47336483;3.27776217;-0.96010423;-0.08;10.588233950000003;5.4901962300000005;34.90196228;60.7843132;2149.75;48;4.800000000000001;0.017803320425758933;0.04173416133134754;0.13719894550302567;9.952675442654733;0.5698643228708729;-1.786046756009995;18.064244754600892;6;4.800000000000001;0;0;0;0;0;0;0;0;0;0;0;0;0;0;0;0;0
49;2022-05-02 00:34:59.879;5.173917511695314;52.36970119053815;24;0.01;-0.03;9.88117218;-0.2849187;-2.8467927;-0.23999999;10.588233950000003;5.4901962300000005;34.90196228;60.7843132;2149.75;49;4.9;0.017087832741250513;0.0351568447288286;0.14662478953851954;9.946119297188407;0.49148913225687113;-1.8833067194496345;18.608495092228964;6;4.9;0;0;0;0;0;0;0;0;0;0;0;0;0;0;0;0;0
50;2022-05-02 00:34:59.978;5.173917511695314;52.36970119053815;24;-0.06;0.07;10.8101511;1.52515304;-1.53951871;-0.1;10.588233950000003;5.4901962300000005;34.90196228;60.7843132;2149.75;50;5.0;0.01002515358792019;0.038349125762282416;0.14235309169214974;10.025280679530221;0.5861919702166782;-1.8518093440382022;19.102457212619676;6;5.0;0;0;0;0;0;0;0;0;0;0;0;0;0;0;0;0;0
51;2022-05-02 00:35:00.078;5.173917511695314;52.36970119053815;24;0.05;0.05;10.59945488;3.04791188;-1.52036452;-0.1;10.588233950000003;5.4901962300000005;34.90196228;60.7843132;2149.75;51;5.1000000000000005;0.013684996284627285;0.039415805707706246;0.13847551198328464;10.077848417566406;0.8115713885710262;-1.8214643639446448;19.55084508176701;6;5.1000000000000005;0;0;0;0;0;0;0;0;0;0;0;0;0;0;0;0;0
52;2022-05-02 00:35:00.179;5.173917511695314;52.36970119053815;24;0.17;0.19;8.60023499;1.20910883;-2.4517374;-0.25;10.980392460000001;5.4901962300000005;34.90196228;58.4313736;2149.75;52;5.2;0.027986985524521352;0.053193456446774125;0.14867940789659098;9.942654668793208;0.8479439444654355;-1.879130985609911;19.957919030234905;6;5.2;0;0;0;0;0;0;0;0;0;0;0;0;0;0;0;0;0
53;2022-05-02 00:35:00.279;5.173917511695314;52.36970119053815;26;0.09;0.20999999;10.69761944;2.13569307;-1.52515304;-0.1;10.980392460000001;5.4901962300000005;37.25490189;58.4313736;1897.75;53;5.300000000000001;0.03365752511125604;0.06753202172203272;0.14422810824810228;10.011689494110577;0.9656971686215389;-1.8467628453027545;20.510413689865704;6;5.300000000000001;0;0;0;0;0;0;0;0;0;0;0;0;0;0;0;0;0
54;2022-05-02 00:35:00.379;5.173917511695314;52.36970119053815;26;-0.06;0.13;10.91310501;2.14527035;-1.41262209;-0.11;10.980392460000001;5.4901962300000005;37.25490189;58.4313736;1897.75;54;5.4;0.025097929950813076;0.07324112629121254;0.1410999159393311;10.094072109689941;1.073501308040358;-1.8070856372660677;21.01212069479928;6;5.4;0;0;0;0;0;0;0;0;0;0;0;0;0;0;0;0;0
55;2022-05-02 00:35:00.483;5.174004858062083;52.36966598944693;26;0.12;0.27000001;10.55635738;2.64806795;-1.79331183;-0.23;10.980392460000001;5.4901962300000005;37.25490189;58.4313736;1897.75;55;5.5;0.03376707645638007;0.0912147235821803;0.14922079099168475;10.13630110146648;1.217335356073789;-1.805827422844959;21.467755186506988;6;5.5;0;0;0;0;0;0;0;0;0;0;0;0;0;0;0;0;0
56;2022-05-02 00:35:00.578;5.174004858062083;52.36966598944693;26;-0.02;0.19;10.51804924;2.26498389;-1.71669507;-0.03;10.19607735;5.4901962300000005;37.25490189;58.4313736;1897.75;56;5.6000000000000005;0.02885769974351959;0.10023463255961144;0.13833495130021067;10.171157849220187;1.3129942918891369;-1.7976889052565141;21.881586449257465;6;5.6000000000000005;0;0;0;0;0;0;0;0;0;0;0;0;0;0;0;0;0
57;2022-05-02 00:35:00.678;5.174004858062083;52.36966598944693;26;-0.01;0.11;9.64413929;1.16122329;-1.13728058;-0.06;10.19607735;5.09803868;37.25490189;60.39215851;1897.75;57;5.7;0.025311087464716116;0.10112593524349936;0.1311851791321571;10.123055915610507;1.2991418790489742;-1.7374122473267197;22.25748147558851;6;5.7;0;0;0;0;0;0;0;0;0;0;0;0;0;0;0;0;0
58;2022-05-02 00:35:00.779;5.174004858062083;52.36966598944693;26;0.07;0.12;9.01923275;0.92658436;-0.46209505;-0.02;10.19607735;5.09803868;37.25490189;60.39215851;1809.75;58;5.800000000000001;0.029388446139730233;0.10284798054068432;0.12104078695636707;10.022344515295494;1.2651502120770666;-1.6210539530001524;22.59894403321647;6;5.800000000000001;0;0;0;0;0;0;0;0;0;0;0;0;0;0;0;0;0
59;2022-05-02 00:35:00.879;5.174004858062083;52.36966598944693;28;-0.05;0.1;9.54118538;1.13967478;0.33519846;-0.05;10.19607735;5.09803868;35.29411697;60.39215851;1809.75;59;5.9;0.022147533558480686;0.10258822009529284;0.11456125305607079;9.97845864265589;1.2537057679678392;-1.4426268216205946;23.09156702816817;6;5.9;0;0;0;0;0;0;0;0;0;0;0;0;0;0;0;0;0
60;2022-05-02 00:35:00.981;5.174004858062083;52.36966598944693;28;0.01;0.09;10.45340347;1.32882249;-0.36153549;0.07;10.19607735;5.09803868;35.29411697;60.39215851;1809.75;60;6.0;0.021039905279856618;0.10144040943167415;0.09773271234539467;10.02176474418012;1.260555010665529;-1.3440514750357455;23.539124479823542;6;6.0;0;0;0;0;0;0;0;0;0;0;0;0;0;0;0;0;0
61;2022-05-02 00:35:01.079;5.174004858062083;52.36966598944693;28;0.0;0.11;9.7662468;1.15643477;-0.87630457;-0.03;6.274509430000002;5.09803868;35.29411697;60.39215851;1809.75;61;6.1000000000000005;0.019121980847625945;0.10222067187404364;0.09155843436550018;9.998472618978132;1.2510637724300917;-1.3014132974709818;23.945762344181098;6;6.1000000000000005;0;0;0;0;0;0;0;0;0;0;0;0;0;0;0;0;0
62;2022-05-02 00:35:01.178;5.174004858062083;52.36966598944693;28;0.04;0.11;9.06472397;0.3328042;-1.1827718;0.0;6.274509430000002;3.1372547200000014;35.29411697;60.39215851;1809.75;62;6.2;0.021024677532535164;0.10292963289798232;0.08321435113273305;9.913376401469053;1.1673791358945314;-1.2906010272894481;24.315241100343826;6;6.2;0;0;0;0;0;0;0;0;0;0;0;0;0;0;0;0;0
63;2022-05-02 00:35:01.279;5.174004858062083;52.36966598944693;28;-0.05;0.01;10.05834866;0.40223816;-0.33519846;0.0;6.274509430000002;3.1372547200000014;35.29411697;32.54901886;1809.75;63;6.300000000000001;0.01455337222874991;0.09446249095318364;0.0756324022870009;9.926585327973552;1.0976644813903764;-1.2035509777046671;24.650972294612068;6;6.300000000000001;0;0;0;0;0;0;0;0;0;0;0;0;0;0;0;0;0
64;2022-05-02 00:35:01.379;5.174004858062083;52.36966598944693;28;0.07;0.09;10.02961731;1.02953815;-0.80687064;0.01;6.274509430000002;3.1372547200000014;35.29411697;32.54901886;1854.0;64;6.4;0.01960427492516855;0.09405598097242938;0.0678317307403629;9.9359710117699;1.0914585228903144;-1.1674154385769357;24.95605149865873;6;6.4;0;0;0;0;0;0;0;0;0;0;0;0;0;0;0;0;0
65;2022-05-02 00:35:01.479;5.174113439466556;52.36963829913161;28;0.0;0.08;9.73512173;0.86433321;-1.15643477;-0.06;6.274509430000002;3.1372547200000014;35.29411697;32.54901886;1854.0;65;6.5;0.01781875797077426;0.09277579119582635;0.06711843284627879;9.9176780731508;1.070772417513516;-1.166415341914879;25.233288054368845;6;6.5;0;0;0;0;0;0;0;0;0;0;0;0;0;0;0;0;0
66;2022-05-02 00:35:01.579;5.174113439466556;52.36963829913161;28;0.06;0.06;9.64892769;1.04150951;-0.84517902;0.0;6.274509430000002;3.1372547200000014;16.86274529;32.54901886;1854.0;66;6.6000000000000005;0.021659889988750382;0.08979114363875443;0.061006456313591716;9.893204974401156;1.068107662148765;-1.1371627390496244;25.48523193576327;6;6.6000000000000005;0;0;0;0;0;0;0;0;0;0;0;0;0;0;0;0;0
67;2022-05-02 00:35:01.679;5.174113439466556;52.36963829913161;28;0.03;0.08;9.69920731;0.84278476;-0.67757976;0.0;6.274509430000002;3.1372547200000014;16.86274529;32.54901886;1854.0;67;6.7;0.022419245243724552;0.08889967381830045;0.05545190449993562;9.875541760640544;1.0475923296673104;-1.095318356929091;25.71419802158751;6;6.7;0;0;0;0;0;0;0;0;0;0;0;0;0;0;0;0;0
68;2022-05-02 00:35:01.778;5.174113439466556;52.36963829913161;28;-0.04;0.04;9.49808788;0.62969428;-0.67039692;0.0;5.098039630000002;2.3529405600000004;16.86274529;26.27450943;1854.0;68;6.800000000000001;0.01673685367744863;0.08444804847400507;0.050403791001702454;9.841179910547114;1.0095486086367134;-1.0566352555857843;25.9222880398758;6;6.800000000000001;0;0;0;0;0;0;0;0;0;0;0;0;0;0;0;0;0
69;2022-05-02 00:35:01.882;5.174113439466556;52.36963829913161;28;-0.04;0.04;9.35682583;0.5411061;-1.02953815;-0.05;5.098039630000002;2.3529405600000004;16.86274529;26.27450943;1468.75;69;6.9;0.0115724185343083;0.08040219381861384;0.05036703618883371;9.797091895911661;0.9669089344683546;-1.0541687592030244;26.111410417461098;6;6.9;0;0;0;0;0;0;0;0;0;0;0;0;0;0;0;0;0
70;2022-05-02 00:35:01.980;5.174113439466556;52.36963829913161;28;0.02;0.02;9.91469193;0.19872481;-0.05985687;-0.05;5.098039630000002;2.3529405600000004;14.50980377;26.27450943;1468.75;70;7.0;0.012339445241166638;0.07490475709844469;0.05033363080908567;9.807795128771577;0.8969935332763876;-0.9636725976327971;26.283298242455608;6;7.0;0;0;0;0;0;0;0;0;0;0;0;0;0;0;0;0;0
71;2022-05-02 00:35:02.080;5.174113439466556;52.36963829913161;28;0.0;0.02;9.96018314;0.19633053;-0.56265455;-0.01;5.098039630000002;2.3529405600000004;14.50980377;26.27450943;1468.75;71;7.1000000000000005;0.01121650236624775;0.06990818678447638;0.04666309599561058;9.821663096746436;0.8332301701858361;-0.9271782212243034;26.43952552571822;6;7.1000000000000005;0;0;0;0;0;0;0;0;0;0;0;0;0;0;0;0;0
72;2022-05-02 00:35:02.179;5.174113439466556;52.36963829913161;28;-0.01;0.0;9.80694962;0.47167215;-0.35914123;0.05;5.098039630000002;2.3529405600000004;14.50980377;26.27450943;1468.75;72;7.2;0.00928589276522616;0.06354684530291199;0.03786717393588035;9.820324234243055;0.8003299601018409;-0.8754893212321128;26.581521927867435;6;7.2;0;0;0;0;0;0;0;0;0;0;0;0;0;0;0;0;0
73;2022-05-02 00:35:02.280;5.174113439466556;52.36963829913161;28;0.01;-0.01;9.94102859;-0.05267405;-0.11013664;0.03;0.0;0.0;14.50980377;26.27450943;1468.75;73;7.300000000000001;0.009350867798474358;0.056854980991566204;0.03169209032348463;9.831306855825083;0.7227170173695527;-0.8058515784841285;26.710586101160462;6;7.300000000000001;0;0;0;0;0;0;0;0;0;0;0;0;0;0;0;0;0
74;2022-05-02 00:35:02.380;5.174113439466556;52.36963829913161;28;0.0;0.0;10.39115238;0.02394275;-0.00718282;0.01;0.0;0.0;14.50980377;17.64705849;1468.75;74;7.4;0.008500120025819659;0.05168227943216742;0.02789891799505003;9.882241950084486;0.6591420995795633;-0.7331881977142577;26.82789778025903;6;7.4;0;0;0;0;0;0;0;0;0;0;0;0;0;0;0;0;0
75;2022-05-02 00:35:02.478;5.174229135005543;52.36961806537713;28;0.02;0.0;9.65850449;-0.14126222;0.42857519;0.04;0.0;0.0;14.50980377;17.64705849;1468.75;75;7.5;0.009546311428178045;0.04698052980368305;0.021721874026300138;9.86188763267844;0.5863260250261993;-0.6274978017683611;26.93452874229788;6;7.5;1;0;0;0;0;0;0;0;0;0;0;0;0;0;0;0;0
76;2022-05-02 00:35:02.580;5.174229135005543;52.36961806537713;28;-0.02;0.0;9.02641582;-0.56744313;0.09816527;-0.01;0.0;0.0;9.4117651;17.64705849;1419.25;76;7.6000000000000005;0.006858536666695007;0.042706795581582635;0.020655556247793062;9.78588626589172;0.4813697220035633;-0.5614855384650251;27.031452744554425;6;7.6000000000000005;1;0;0;0;0;0;0;0;0;0;0;0;0;0;0;0;0
77;2022-05-02 00:35:02.681;5.174229135005543;52.36961806537713;28;-0.01;-0.05;9.56752205;-0.45730647;-0.69673395;-0.02;0.0;0.0;9.4117651;17.64705849;1419.25;77;7.7;0.00532503657828469;0.03427392373562635;0.020595925000797904;9.766023240351839;0.39598508560923984;-0.5737881157970172;27.119554537208206;6;7.7;1;0;0;0;0;0;0;0;0;0;0;0;0;0;0;0;0
78;2022-05-02 00:35:02.781;5.174229135005543;52.36961806537713;28;0.09;-0.04;11.92109394;-0.26815879;-0.12689656;-0.02;0.0;0.0;9.4117651;17.64705849;1419.25;78;7.800000000000001;0.013026896458627273;0.02751812095451359;0.020541720892879017;9.962044022531066;0.3355759296601008;-0.5331397823892434;27.19963803902129;6;7.800000000000001;1;0;0;0;0;0;0;0;0;0;0;0;0;0;0;0;0
79;2022-05-02 00:35:02.884;5.174229135005543;52.36961806537713;28;0.04;-0.09;8.77262306;-0.37590113;-0.60335726;0.0;0.0;0.0;9.4117651;17.64705849;1419.25;79;7.9;0.015480194445933609;0.016829437349102343;0.018673379623028098;9.853862031201754;0.2708646058110869;-0.5395263072558376;27.27243375513063;6;7.9;1;0;0;0;0;0;0;0;0;0;0;0;0;0;0;0;0
80;2022-05-02 00:35:02.979;5.174229135005543;52.36961806537713;28;-0.13;0.0;11.06154919;-1.4940275;-0.15083931;0.09;0.0;0.0;9.4117651;12.54901981;1419.25;80;8.0;0.0022488500825802497;0.01529880919827038;0.008789594999299863;9.963700519816078;0.11034863107592194;-0.5041754367828052;27.338605508403862;6;8.0;1;0;0;0;0;0;0;0;0;0;0;0;0;0;0;0;0
81;2022-05-02 00:35:03.082;5.174229135005543;52.36961806537713;28;-0.05;-0.31999999;9.21077538;-3.16523123;-0.02154847;0.04;0.0;0.0;9.4117651;12.54901981;1442.0;81;8.1;-0.002502962542849216;-0.015195202914981438;0.004352387038917239;9.895225152803663;-0.18755154691579248;-0.4602825489870628;27.398756548868654;6;8.1;1;0;0;0;0;0;0;0;0;0;0;0;0;0;0;0;0
82;2022-05-02 00:35:03.181;5.174229135005543;52.36961806537713;28;0.04;-0.13;9.46217442;-1.84598589;-1.40065074;0.01;0.0;0.0;9.01960754;12.54901981;1442.0;82;8.200000000000001;0.0013623608710360451;-0.025635832077047394;0.0030471458428302234;9.855842459533314;-0.33837362408870014;-0.5458019332589426;27.45343509949345;6;8.200000000000001;1;0;0;0;0;0;0;0;0;0;0;0;0;0;0;0;0
83;2022-05-02 00:35:03.279;5.174229135005543;52.36961806537713;28;-0.11;-0.04;10.75268841;-1.67599237;0.19872481;0.08;0.0;0.0;9.01960754;12.54901981;1442.0;83;8.3;-0.008764866914798379;-0.026942101083666053;-0.004505112894641436;9.937401104286701;-0.4600158883554696;-0.47809510787688625;27.503139390996232;6;8.3;1;0;0;0;0;0;0;0;0;0;0;0;0;0;0;0;0
84;2022-05-02 00:35:03.380;5.174229135005543;52.36961806537713;28;0.09;-0.11;10.9945097;-2.2841382;0.13647367;0.14;0.0;0.0;9.01960754;12.54901981;1442.0;84;8.4;0.00021647982094770063;-0.03449510867242403;-0.01682656484438996;10.033531025097805;-0.6258954716634024;-0.4222082782835484;27.548322233318558;6;8.4;1;0;0;0;0;0;0;0;0;0;0;0;0;0;0;0;0
85;2022-05-02 00:35:03.479;5.174229135005543;52.36961806537713;28;-0.14;-0.25;8.35123062;-2.4254005;-0.62011719;-0.01;0.0;0.0;9.01960754;12.54901981;1442.0;85;8.5;-0.012533986512917853;-0.05409186267141513;-0.014387113987126643;9.880552468611155;-0.7895319308779473;-0.44020495684255184;27.58939516686518;6;8.5;1;0;0;0;0;0;0;0;0;0;0;0;0;0;0;0;0
86;2022-05-02 00:35:03.578;5.174343559026895;52.36959774726141;28;0.03;-0.23;10.41270161;-1.87950575;0.87151605;0.14;0.0;0.0;9.01960754;12.54901981;1442.0;86;8.6;-0.008666291544758085;-0.07008751869574512;-0.02580932871464733;9.928941785606755;-0.8886452894239165;-0.32092771166231004;27.626732232520553;6;8.6;1;0;0;0;0;0;0;0;0;0;0;0;0;0;0;0;0
87;2022-05-02 00:35:03.684;5.174343559026895;52.36959774726141;26;0.01;-0.25;10.39354706;-2.09259629;-0.16520496;0.09;0.0;0.0;9.01960754;12.54901981;1390.75;87;8.700000000000001;-0.0069689693977271405;-0.08644692454306015;-0.03164617358252944;9.971188250040473;-0.9981203124791367;-0.3067678730805933;27.478813796824547;6;8.700000000000001;1;0;0;0;0;0;0;0;0;0;0;0;0;0;0;0;0
88;2022-05-02 00:35:03.781;5.174343559026895;52.36959774726141;26;0.16;-0.33000001;10.2714386;-1.97767103;0.62730002;0.08;0.0;0.0;11.37254906;12.54901981;1390.75;88;8.8;0.00821317110718197;-0.10859269915704498;-0.03604288627272598;9.998489388786052;-1.0871888183142617;-0.22183502570765484;27.344348339410672;6;8.8;1;0;0;0;0;0;0;0;0;0;0;0;0;0;0;0;0
89;2022-05-02 00:35:03.879;5.174343559026895;52.36959774726141;26;0.02;-0.27000001;10.0487709;-2.68877053;0.27294734;0.07;0.0;0.0;11.37254906;12.54901981;1390.75;89;8.9;0.009284902724401453;-0.12326885335032182;-0.03913047774808983;10.003061295769651;-1.2328145649491338;-0.1768463430183987;27.222111847050897;6;8.9;1;0;0;0;0;0;0;0;0;0;0;0;0;0;0;0;0
90;2022-05-02 00:35:03.980;5.174343559026895;52.36959774726141;26;0.14;-0.18000001;10.08708;-0.38308397;-0.24182175;-0.02;0.0;0.0;11.37254906;12.54901981;1390.75;90;9.0;0.021170127020936434;-0.1284271138377212;-0.03375405983275458;10.010700666934074;-1.155553109133472;-0.18275420907083162;27.11099175671406;6;9.0;1;0;0;0;0;0;0;0;0;0;0;0;0;0;0;0;0
91;2022-05-02 00:35:04.084;5.174343559026895;52.36959774726141;26;0.23;-0.28999999;9.34724903;-3.67281747;0.34716985;0.01;0.0;0.0;11.37254906;20.3921566;1390.75;91;9.1;0.04015761445185602;-0.143117842283533;-0.03159426388941768;9.95037749842565;-1.3844309259439382;-0.13457179978517317;27.00997679311937;6;9.1;1;0;0;0;0;0;0;0;0;0;0;0;0;0;0;0;0
92;2022-05-02 00:35:04.183;5.174343559026895;52.36959774726141;26;-0.2;-0.56;10.40312386;-1.08700073;0.13168511;0.09;0.0;0.0;11.37254906;20.3921566;1390.75;92;9.200000000000001;0.018322016274080047;-0.1810215802272901;-0.03690462720185622;9.991542079654323;-1.3573879930792343;-0.11036320282939815;26.91814773546584;6;9.200000000000001;1;0;0;0;0;0;0;0;0;0;0;0;0;0;0;0;0
93;2022-05-02 00:35:04.282;5.174343559026895;52.36959774726141;25;0.01;-0.14;9.90032673;-1.36952519;-0.02633702;0.04;0.0;0.0;11.37254906;20.3921566;1657.0;93;9.3;0.017565372069985652;-0.17729186618930554;-0.0371860609085556;9.98324870898941;-1.3584915164804865;-0.10272347681395384;26.74374824875041;6;9.3;1;0;0;0;0;0;0;0;0;0;0;0;0;0;0;0;0
94;2022-05-02 00:35:04.379;5.174343559026895;52.36959774726141;25;-0.02;-0.27000001;6.94100285;-2.02076793;0.08379962;0.03;0.0;0.0;8.62745094;20.3921566;1657.0;94;9.4;0.014149939091265265;-0.18572086434156898;-0.036532706288017074;9.706648577974871;-1.4187055002405593;-0.08576484973142227;26.58520715233128;6;9.4;1;0;0;0;0;0;0;0;0;0;0;0;0;0;0;0;0
95;2022-05-02 00:35:04.479;5.174343559026895;52.36959774726141;25;-0.07;-0.15000001;8.94979954;-3.5100069;-0.54828894;0.0;0.0;0.0;8.62745094;20.3921566;1657.0;95;9.5;0.0064991317801468525;-0.18247316890046508;-0.03321119828240623;9.637836809176429;-1.60884401028367;-0.12781696206340304;26.44108209886523;6;9.5;1;0;0;0;0;0;0;0;0;0;0;0;0;0;0;0;0
96;2022-05-02 00:35:04.581;5.174441812756128;52.36956489214085;25;-0.2;-0.47;9.45499134;-2.57145119;-0.42618093;-0.11;0.0;0.0;8.62745094;20.3921566;1657.0;96;9.600000000000001;-0.012275329894280375;-0.20861449658699008;-0.0201907408580892;9.621212888175878;-1.6963622068364472;-0.15494357917198995;26.31006198075813;6;9.600000000000001;1;0;0;0;0;0;0;0;0;0;0;0;0;0;0;0;0
97;2022-05-02 00:35:04.679;5.174441812756128;52.36956489214085;25;0.01;-0.15000001;9.94821167;-1.41741073;-0.10055954;0.03;0.0;0.0;8.62745094;20.3921566;1657.0;97;9.700000000000001;-0.010250122081498962;-0.20328543898193865;-0.021082569995798005;9.650942660568173;-1.671000754819472;-0.14999914146693918;26.19095497892017;6;9.700000000000001;1;0;0;0;0;0;0;0;0;0;0;0;0;0;0;0;0
98;2022-05-02 00:35:04.780;5.174441812756128;52.36956489214085;25;0.0;-0.25999999;9.5435791;-2.65046215;-0.19154198;-0.02;0.0;0.0;8.62745094;20.3921566;1657.0;98;9.8;-0.009318218414680286;-0.20844171884236126;-0.017347492762862224;9.6411815577266;-1.7600498079350024;-0.1537760646344098;26.08267770153292;6;9.8;1;0;0;0;0;0;0;0;0;0;0;0;0;0;0;0;0
99;2022-05-02 00:35:04.881;5.174441812756128;52.36956489214085;25;-0.17;-0.25999999;9.31372929;-2.6217308;0.52434617;-0.08;0.0;0.0;8.62745094;12.54901981;1657.0;99;9.9;-0.02392671318013571;-0.2131291745507258;-0.008497078456860969;9.611411009430306;-1.8383901283987132;-0.09212411494068809;25.984245313122283;6;9.9;1;0;0;0;0;0;0;0;0;0;0;0;0;0;0;0;0
100;2022-05-02 00:35:04.979;5.174441812756128;52.36956489214085;25;0.07;-0.18000001;10.18285084;-1.8268317;-0.11253092;0.02;0.0;0.0;8.62745094;12.54901981;1657.0;100;10.0;-0.01538735774154088;-0.2101172336246148;-0.009542867586634413;9.6633635121826;-1.8373392928582544;-0.09397940142807296;25.894762563402264;6;10.0;1;0;0;0;0;0;0;0;0;0;0;0;0;0;0;0;0
101;2022-05-02 00:35:05.080;5.174441812756128;52.36956489214085;25;0.02;-0.2;10.02482891;-1.92499697;-0.38308397;0.01;0.0;0.0;8.62745094;12.54901981;1533.25;101;10.100000000000001;-0.012170132277211514;-0.20919742995112744;-0.00958442757118007;9.69622597370984;-1.8453086505340701;-0.12026321121847465;25.813415633672975;6;10.100000000000001;1;0;0;0;0;0;0;0;0;0;0;0;0;0;0;0;0
102;2022-05-02 00:35:05.179;5.174441812756128;52.36956489214085;25;-0.01;-0.25999999;10.00088596;-1.58500993;-0.56504887;-0.01;0.0;0.0;9.4117651;12.54901981;1533.25;102;10.200000000000001;-0.011972836768246491;-0.21381609630931253;-0.00780392799241269;9.723923846179453;-1.8216438402872484;-0.16070047573508872;25.739464726103495;6;10.200000000000001;1;0;0;0;0;0;0;0;0;0;0;0;0;0;0;0;0
103;2022-05-02 00:35:05.282;5.174441812756128;52.36956489214085;25;0.05;-0.25;9.38795185;-2.30089808;-0.45012367;0.03;0.0;0.0;9.4117651;12.54901981;1533.25;103;10.3;-0.006338663268016202;-0.21710570514344313;-0.009821852735506391;9.69337942355164;-1.8652145670454936;-0.18701297934981562;25.67223732807833;6;10.3;1;0;0;0;0;0;0;0;0;0;0;0;0;0;0;0;0
104;2022-05-02 00:35:05.379;5.174441812756128;52.36956489214085;25;-0.04;-0.25999999;9.34964275;-2.46849728;-0.11731946;0.02;2.7450981200000015;0.0;9.4117651;12.54901981;1533.25;104;10.4;-0.009398922677050985;-0.22100536129409654;-0.0107471805435109;9.662129226988078;-1.9200609212864668;-0.1806769193758108;25.6111220900016;6;10.4;1;0;0;0;0;0;0;0;0;0;0;0;0;0;0;0;0
105;2022-05-02 00:35:05.478;5.174441812756128;52.36956489214085;25;0.0;-0.19;9.71836185;-1.83162022;-0.65603131;-0.01;2.7450981200000015;1.9607839600000005;9.4117651;14.11764717;1533.25;105;10.5;-0.00854444016010841;-0.21818657662402136;-0.008860995960508926;9.66724149303138;-1.912020528186953;-0.2238927250693741;25.55556326059461;6;10.5;1;0;0;0;0;0;0;0;0;0;0;0;0;0;0;0;0
106;2022-05-02 00:35:05.578;5.174515604177966;52.36951787045803;24;0.0;-0.25;10.21637058;-2.08780766;0.05267405;0.01;2.7450981200000015;1.9607839600000005;9.4117651;14.11764717;1647.5;106;10.600000000000001;-0.007767643946732176;-0.22107881372205512;-0.008964545638231248;9.71716417812472;-1.9280017716381226;-0.19874935469122162;25.414143152564762;6;10.600000000000001;1;0;0;0;0;0;0;0;0;0;0;0;0;0;0;0;0
107;2022-05-02 00:35:05.678;5.174515604177966;52.36951787045803;24;0.05;-0.20999999;9.64174461;-2.22667551;-0.19154198;0.0;2.7450981200000015;1.9607839600000005;11.76470566;14.11764717;1647.5;107;10.700000000000001;-0.002515862165936477;-0.22007161383296517;-0.008149559354570676;9.710307621638567;-1.955154848868993;-0.19809411662879298;25.285580331984356;6;10.700000000000001;1;0;0;0;0;0;0;0;0;0;0;0;0;0;0;0;0
108;2022-05-02 00:35:05.778;5.174515604177966;52.36951787045803;24;0.01;-0.20999999;9.591465;-2.23625278;-0.34477556;0.04;2.7450981200000015;1.9607839600000005;11.76470566;14.11764717;1647.5;108;10.8;-0.0013780214975011112;-0.21915598348785637;-0.011045143070136834;9.699503414445244;-1.9807099927027434;-0.211429203685504;25.16870579590536;6;10.8;1;0;0;0;0;0;0;0;0;0;0;0;0;0;0;0;0
109;2022-05-02 00:35:05.879;5.174515604177966;52.36951787045803;24;0.01;-0.25999999;9.92426872;-2.55229688;-0.3998439;0.0;5.490196230000002;1.9607839600000005;11.76470566;14.11764717;1647.5;109;10.9;-0.0003436269673308803;-0.2228691788738624;-0.010041011061842915;9.719937195721624;-2.0326738908081534;-0.22855829166571248;25.062456841908546;6;10.9;1;0;0;0;0;0;0;0;0;0;0;0;0;0;0;0;0
110;2022-05-02 00:35:05.978;5.174515604177966;52.36951787045803;24;0.0;-0.30000001;10.04158878;-2.69116497;-0.24182175;0.05;5.490196230000002;3.1372547200000014;11.76470566;35.29411697;1647.5;110;11.0;-0.00031238735757572295;-0.22988125095652676;-0.013673738814076282;9.749178992569044;-2.0925382387695217;-0.22976409127330838;24.965867399640004;6;11.0;1;0;0;0;0;0;0;0;0;0;0;0;0;0;0;0;0
111;2022-05-02 00:35:06.079;5.174515604177966;52.36951787045803;24;0.02;-0.2;9.93863487;-2.48765159;-0.79250497;-0.02;5.490196230000002;3.1372547200000014;11.76470566;35.29411697;1647.5;111;11.100000000000001;0.0015342360083171486;-0.22716471078588793;-0.01061241904814265;9.766402652393515;-2.128458464871665;-0.2809235358677039;24.878059242128465;6;11.100000000000001;1;0;0;0;0;0;0;0;0;0;0;0;0;0;0;0;0
112;2022-05-02 00:35:06.178;5.174515604177966;52.36951787045803;24;0.02;-0.20999999;9.5435791;-1.98964238;-0.37111259;0.03;5.490196230000002;3.1372547200000014;11.76470566;35.29411697;1843.5;112;11.200000000000001;0.0032129771123824303;-0.22560424882308736;-0.01237496345556253;9.7461455400138;-2.115838555525675;-0.28912271313309346;24.79823399675929;6;11.200000000000001;1;0;0;0;0;0;0;0;0;0;0;0;0;0;0;0;0
113;2022-05-02 00:35:06.283;5.174515604177966;52.36951787045803;24;0.0;-0.23999999;9.79976654;-2.37751484;-1.14925194;-0.06;5.490196230000002;3.1372547200000014;32.54901886;35.29411697;1843.5;113;11.3;0.0029208827024042355;-0.22691297757470646;-0.005795295593543326;9.751020269526515;-2.139627763243416;-0.3673177734273125;24.725665883090084;6;11.3;1;0;0;0;0;0;0;0;0;0;0;0;0;0;0;0;0
114;2022-05-02 00:35:06.379;5.174515604177966;52.36951787045803;24;-0.02;-0.25;9.72075558;-2.86355257;-0.42378664;-0.02;5.490196230000002;3.1372547200000014;32.54901886;35.29411697;1843.5;114;11.4;0.0008371298948589565;-0.2290118342558028;-0.0034502279836965124;9.748268886318934;-2.205440252584085;-0.3724513959316236;24.659695111333104;6;11.4;1;0;0;0;0;0;0;0;0;0;0;0;0;0;0;0;0
115;2022-05-02 00:35:06.481;5.174515604177966;52.36951787045803;24;0.0;-0.27000001;9.66329288;-2.59060526;-0.8930645;-0.02;7.450979240000002;3.1372547200000014;32.54901886;35.29411697;1843.5;115;11.5;0.0007610259752798979;-0.23273809089731753;-0.0013183554086733532;9.740543672835626;-2.2404558062383804;-0.419780607380343;24.59972188136256;6;11.5;1;0;0;0;0;0;0;0;0;0;0;0;0;0;0;0;0
116;2022-05-02 00:35:06.578;5.174560068096548;52.36946049963916;24;-0.05;-0.22;9.11739826;-2.37751484;-0.43815228;-0.04;7.450979240000002;3.9215688699999998;32.54901886;51.37254715;1843.5;116;11.600000000000001;-0.003853679001865249;-0.23158006600846276;0.0024379126471518447;9.683893276535557;-2.2529158972848156;-0.42145078341495856;24.54520092758644;6;11.600000000000001;1;0;0;0;0;0;0;0;0;0;0;0;0;0;0;0;0
117;2022-05-02 00:35:06.678;5.174560068096548;52.36946049963916;24;0.09;-0.18000001;10.68325424;-1.76458049;-0.51716334;0.0;7.450979240000002;3.9215688699999998;32.54901886;51.37254715;1843.5;117;11.700000000000001;0.004678584994209875;-0.2268909088067744;0.002216281332044245;9.774745458978838;-2.2085211899286756;-0.4301520384878324;24.495636560003362;6;11.700000000000001;1;0;0;0;0;0;0;0;0;0;0;0;0;0;0;0;0
118;2022-05-02 00:35:06.778;5.174560068096548;52.36946049963916;25;-0.07;-0.30000001;9.85244083;-3.3424077;-1.17080033;-0.07;7.450979240000002;3.9215688699999998;30.98039246;51.37254715;1951.5;118;11.8;-0.002110457830489312;-0.23353726959299653;0.008378510689895542;9.78180875833279;-2.3116030048267455;-0.497484500257244;24.541488325855852;6;11.8;1;0;0;0;0;0;0;0;0;0;0;0;0;0;0;0;0
119;2022-05-02 00:35:06.880;5.174560068096548;52.36946049963916;25;0.08;-0.31999999;9.65132141;-2.25301266;-0.65363705;-0.01;7.450979240000002;3.9215688699999998;30.98039246;51.37254715;1951.5;119;11.9;0.005354209762133748;-0.2413976016876561;0.008525920399020644;9.769946144165445;-2.3062765523890825;-0.5116803397199414;24.583171654937868;6;11.9;1;0;0;0;0;0;0;0;0;0;0;0;0;0;0;0;0
120;2022-05-02 00:35:06.980;5.174560068096548;52.36946049963916;25;0.02;-0.25999999;8.88036537;-2.59060526;-0.28970724;-0.02;7.450979240000002;3.9215688699999998;30.98039246;51.37254715;1951.5;120;12.0;0.006685658294283497;-0.243088744480956;0.009569028773124948;9.689074371679663;-2.3321248701819877;-0.4915007691403547;24.621065512433958;6;12.0;1;0;0;0;0;0;0;0;0;0;0;0;0;0;0;0;0
121;2022-05-02 00:35:07.081;5.174560068096548;52.36946049963916;25;0.06;-0.23;10.37439251;-2.22667551;-0.54350036;0.0;8.23529435;3.9215688699999998;30.98039246;40.7843132;1951.5;121;12.100000000000001;0.011532459837523662;-0.24189884801183067;0.008699109311661943;9.75137657600502;-2.3225384792539168;-0.49622804681392224;24.65551440930414;6;12.100000000000001;1;0;0;0;0;0;0;0;0;0;0;0;0;0;0;0;0
122;2022-05-02 00:35:07.182;5.174560068096548;52.36946049963916;25;0.06;-0.38;10.06313705;-3.62493205;-1.03432667;0.0;8.23529435;3.9215688699999998;30.98039246;40.7843132;2017.0;122;12.200000000000001;0.0159386355599664;-0.25445359993635164;0.007908274783492606;9.77971866696175;-2.4409388542935755;-0.5451464999026135;24.68683153497974;6;12.200000000000001;1;0;0;0;0;0;0;0;0;0;0;0;0;0;0;0;0
123;2022-05-02 00:35:07.281;5.174560068096548;52.36946049963916;26;0.01;-0.2;9.95300007;-2.00640225;-1.07024086;-0.02;8.23529435;3.9215688699999998;22.35294151;40.7843132;2017.0;123;12.3;0.01539875562252403;-0.2495032361987062;0.009007530628970903;9.79547163783992;-2.401435235596394;-0.5928827025064187;24.806211365849585;6;12.3;1;0;0;0;0;0;0;0;0;0;0;0;0;0;0;0;0
124;2022-05-02 00:35:07.379;5.174560068096548;52.36946049963916;26;0.01;-0.14;9.63456154;-2.27934957;-1.6017698;-0.05;8.23529435;3.9215688699999998;22.35294151;40.7843132;2017.0;124;12.4;0.014907956369699672;-0.23954832987104258;0.012734143712694889;9.780843349153868;-2.390336464389695;-0.6846003256505623;24.914738332179894;6;12.4;1;0;0;0;0;0;0;0;0;0;0;0;0;0;0;0;0
125;2022-05-02 00:35:07.479;5.174560068096548;52.36946049963916;26;-0.06;-0.25;9.14852428;-2.40145755;-1.14685762;-0.06;8.23529435;4.313725470000001;22.35294151;40.7843132;2017.0;125;12.5;0.008098100691381614;-0.24049848748613376;0.017031065901308595;9.723359447412717;-2.3913474783281696;-0.7266239719136286;25.013399084511605;6;12.5;1;0;0;0;0;0;0;0;0;0;0;0;0;0;0;0;0
126;2022-05-02 00:35:07.579;5.17457317692836;52.3693951674889;26;0.0;-0.22;10.12538815;-1.42938209;-0.90503585;-0.07;8.23529435;4.313725470000001;22.35294151;41.17647171;2017.0;126;12.600000000000001;0.00736190564449166;-0.23863497830896488;0.02184645020049344;9.759907713584234;-2.3038955953304114;-0.7428433233343025;25.103090573284103;6;12.600000000000001;1;0;0;0;0;0;0;0;0;0;0;0;0;0;0;0;0
127;2022-05-02 00:35:07.679;5.17457317692836;52.3693951674889;26;0.18000001;-0.17;10.79817963;-1.9106313;-1.74782062;-0.06;8.23529435;4.313725470000001;22.35294151;41.17647171;2061.5;127;12.700000000000001;0.02305635774141477;-0.2323954034291041;0.025314972181149795;9.854296544581889;-2.2681441158552693;-0.8342053554876161;25.184628204187906;6;12.700000000000001;1;0;0;0;0;0;0;0;0;0;0;0;0;0;0;0;0
128;2022-05-02 00:35:07.780;5.17457317692836;52.3693951674889;27;0.02;-0.17;9.03120422;-1.40065074;-1.41022789;0.02;8.23529435;4.313725470000001;22.35294151;41.17647171;2061.5;128;12.8;0.02277850576661598;-0.22672306807836126;0.021195410410656156;9.77946962732418;-2.1892807209260225;-0.8865712799911994;25.34966275875773;6;12.8;1;0;0;0;0;0;0;0;0;0;0;0;0;0;0;0;0
129;2022-05-02 00:35:07.879;5.17457317692836;52.3693951674889;27;0.01;-0.14;9.9170866;-1.38628507;-1.4341706;-0.09;8.23529435;4.313725470000001;30.19607925;41.17647171;2061.5;129;12.9;0.021616818593162015;-0.21883912001203845;0.02745039911281894;9.791980313231193;-2.1162808127163233;-0.9363532433807109;25.499694040978003;6;12.9;1;0;0;0;0;0;0;0;0;0;0;0;0;0;0;0;0
130;2022-05-02 00:35:07.981;5.17457317692836;52.3693951674889;27;-0.06;-0.17;10.32650757;-1.24981141;-2.0327394;-0.20999999;8.23529435;4.313725470000001;30.19607925;41.17647171;2061.5;130;13.0;0.01419707976106139;-0.21439918322541512;0.04404587920671198;9.840573883921977;-2.037510569217761;-1.0360250889815055;25.6360860074387;6;13.0;1;0;0;0;0;0;0;0;0;0;0;0;0;0;0;0;0
131;2022-05-02 00:35:08.081;5.17457317692836;52.3693951674889;27;0.01;0.0;9.88596058;-0.67757976;-1.30009127;-0.18000001;9.80392075;4.313725470000001;30.19607925;41.17647171;2061.5;131;13.100000000000001;0.013815525744151392;-0.19490828139866676;0.05640538812073086;9.844699961382668;-1.913880070748158;-1.0600311879440398;25.760078614729515;6;13.100000000000001;1;0;0;0;0;0;0;0;0;0;0;0;0;0;0;0;0
132;2022-05-02 00:35:08.179;5.17457317692836;52.3693951674889;27;0.03;-0.01;9.11739826;-0.36632404;-1.50599885;-0.13;9.80392075;5.09803868;30.19607925;49.80392075;2061.5;132;13.200000000000001;0.015286846182651853;-0.17809838511355644;0.06309582828639443;9.778581418309589;-1.7731927192920802;-1.10057382934965;25.872799092852123;6;13.200000000000001;1;0;0;0;0;0;0;0;0;0;0;0;0;0;0;0;0
133;2022-05-02 00:35:08.282;5.17457317692836;52.3693951674889;27;0.0;0.0;9.80934429;0.12210801;-1.22108018;-0.07;9.80392075;5.09803868;30.19607925;49.80392075;2061.5;133;13.3;0.013897128945960804;-0.1619075768420615;0.06372348204314911;9.781378050952284;-1.60089216358953;-1.1115289832531137;25.97527219365789;6;13.3;1;0;0;0;0;0;0;0;0;0;0;0;0;0;0;0;0
134;2022-05-02 00:35:08.379;5.17457317692836;52.3693951674889;29;-0.04;0.02;9.94342327;0.45730647;-1.37431371;-0.15000001;9.80392075;5.09803868;29.41176414;49.80392075;2003.5;134;13.4;0.00899737729880389;-0.14537048170002034;0.07156682301946359;9.796109472541344;-1.4137827137481913;-1.1354185655538094;26.250248158818955;6;13.4;1;0;0;0;0;0;0;0;0;0;0;0;0;0;0;0;0
135;2022-05-02 00:35:08.479;5.17457317692836;52.3693951674889;29;0.06;0.0;9.57231045;-0.32562137;-1.84838021;-0.06;9.80392075;5.09803868;29.41176414;49.80392075;2003.5;135;13.5;0.013633990246727658;-0.1321549523409699;0.07051529118564812;9.775764059096096;-1.3148587230073256;-1.2002334126525391;26.50022618573517;6;13.5;1;0;0;0;0;0;0;0;0;0;0;0;0;0;0;0;0
136;2022-05-02 00:35:08.579;5.174555105220905;52.36932247618803;29;-0.01;-0.1;9.52681923;-0.95292139;-1.89865994;-0.11;9.80392075;5.09803868;29.41176414;49.80392075;2003.5;136;13.600000000000001;0.011485441093757947;-0.12923176861724225;0.074104817828957;9.753132662700192;-1.2819552588803285;-1.2637268688179335;26.72747883563411;6;13.600000000000001;1;0;0;0;0;0;0;0;0;0;0;0;0;0;0;0;0
137;2022-05-02 00:35:08.681;5.174555105220905;52.36932247618803;29;-0.01;-0.08;9.60822487;-0.76377368;-1.54909575;-0.1;9.80392075;5.09803868;29.41176414;49.80392075;2003.5;137;13.700000000000001;0.009532215386818373;-0.12475614460553716;0.07645892986611033;9.739959201443206;-1.2348477512282914;-1.2896695447096251;26.934072069556276;6;13.700000000000001;1;0;0;0;0;0;0;0;0;0;0;0;0;0;0;0;0
138;2022-05-02 00:35:08.780;5.174555105220905;52.36932247618803;29;-0.05;-0.03;9.64653301;-0.86193895;-1.34318817;-0.08;9.80392075;5.09803868;29.41176414;51.37254715;2003.5;138;13.8;0.00412018626117752;-0.11614193444879313;0.07678084590058049;9.731465896332637;-1.2009468913267767;-1.294534882862317;27.121884030834508;6;13.8;1;0;0;0;0;0;0;0;0;0;0;0;0;0;0;0;0
139;2022-05-02 00:35:08.882;5.174555105220905;52.36932247618803;31;0.04;-0.03;9.62259007;-0.65842557;-1.32882249;-0.09;9.80392075;5.09803868;29.41176414;51.37254715;2107.25;139;13.9;0.0073819927399275224;-0.10831083694303577;0.07798258910914196;9.721568078069248;-1.1516266921293947;-1.2976519430543414;27.474440593297395;6;13.9;1;0;0;0;0;0;0;0;0;0;0;0;0;0;0;0;0
140;2022-05-02 00:35:08.979;5.174555105220905;52.36932247618803;31;-0.02;-0.04;9.87159538;-0.79729348;-1.17080033;-0.09;9.80392075;5.09803868;31.76470566;51.37254715;2107.25;140;14.0;0.0048927170443513355;-0.10210075180563036;0.07907508260070384;9.735206943579009;-1.1194145349841262;-1.2861199614224728;27.794946461068584;6;14.0;1;0;0;0;0;0;0;0;0;0;0;0;0;0;0;0;0
141;2022-05-02 00:35:09.081;5.174555105220905;52.36932247618803;31;0.08;-0.04;10.59945488;-0.40463245;-1.32882249;-0.08;9.80392075;5.09803868;31.76470566;51.37254715;2107.25;141;14.100000000000001;0.011720660906002415;-0.09645522143348845;0.07915916611205635;9.813775041907302;-1.0544342593367235;-1.2900020146189661;28.086315350691876;6;14.100000000000001;1;0;0;0;0;0;0;0;0;0;0;0;0;0;0;0;0
142;2022-05-02 00:35:09.181;5.174555105220905;52.36932247618803;31;-0.01;-0.1;9.72554398;-0.71588814;-1.15882897;-0.06;9.80392075;5.09803868;31.76470566;51.37254715;2107.25;142;14.200000000000001;0.009746052990463083;-0.09677747441863281;0.07741742164011237;9.80575402661718;-1.0236573023228288;-1.2780771780161155;28.351196092433916;6;14.200000000000001;1;0;0;0;0;0;0;0;0;0;0;0;0;0;0;0;0
143;2022-05-02 00:35:09.283;5.174555105220905;52.36932247618803;31;-0.02;0.01;9.86441231;-0.48124924;-1.45571911;-0.04;9.80392075;5.09803868;31.76470566;52.54901886;2107.25;143;14.3;0.007041863393611424;-0.08707042065948242;0.07401583412957292;9.8110866036735;-0.9743474244761067;-1.2942264622451682;28.59199671136769;6;14.3;1;0;0;0;0;0;0;0;0;0;0;0;0;0;0;0;0
144;2022-05-02 00:35:09.379;5.174555105220905;52.36932247618803;31;0.04;-0.05;9.99849129;-0.39266106;-1.24502289;-0.07;9.80392075;5.09803868;31.76470566;52.54901886;2172.5;144;14.4;0.01003806061340333;-0.08370037906268511;0.07365075793616217;9.828123410300444;-0.9214667932423511;-1.2897534057697537;28.810906319177597;6;14.4;1;0;0;0;0;0;0;0;0;0;0;0;0;0;0;0;0
145;2022-05-02 00:35:09.480;5.174555105220905;52.36932247618803;32;-0.04;-0.03;9.3592205;-0.30167863;-1.34558249;-0.08;9.80392075;5.09803868;31.37254906;52.54901886;2172.5;145;14.5;0.00548914189522962;-0.07881852200234496;0.07422796228254068;9.785495834420725;-0.8651223637717886;-1.2948287816568327;29.100824188912476;6;14.5;1;0;0;0;0;0;0;0;0;0;0;0;0;0;0;0;0
146;2022-05-02 00:35:09.582;5.17452650749477;52.36924366922083;32;0.03;-0.03;10.16848469;-0.93855572;-1.17558897;-0.1;9.80392075;5.09803868;31.37254906;52.54901886;2172.5;146;14.600000000000001;0.0077174035562694995;-0.07438047089611764;0.07657087672997537;9.820313031756086;-0.8717981289214781;-1.2839887898601838;29.364385843133114;6;14.600000000000001;1;0;0;0;0;0;0;0;0;0;0;0;0;0;0;0;0
147;2022-05-02 00:35:09.679;5.17452650749477;52.36924366922083;32;0.03;-0.01;9.60583019;-0.35674694;-1.18037748;-0.06;9.80392075;5.09803868;31.37254906;52.54901886;2172.5;147;14.700000000000001;0.00974309565721458;-0.06852769643696864;0.07506443226411554;9.800814577012236;-0.8249752585430054;-1.2745695728276285;29.603987309335068;6;14.700000000000001;1;0;0;0;0;0;0;0;0;0;0;0;0;0;0;0;0
148;2022-05-02 00:35:09.783;5.17452650749477;52.36924366922083;32;0.04;-0.04;9.75427532;0.09337672;-1.36713088;-0.03;10.588233950000003;5.09803868;31.37254906;52.54901886;2172.5;148;14.8;0.012493725195086779;-0.06593426772469894;0.0709676629089692;9.796583732588822;-0.7414886582706913;-1.2829842428377511;29.82180679296083;6;14.8;1;0;0;0;0;0;0;0;0;0;0;0;0;0;0;0;0
149;2022-05-02 00:35:09.884;5.17452650749477;52.36924366922083;32;0.04;0.0;10.22594738;0.01675992;-2.00879645;-0.15000001;10.588233950000003;5.09803868;31.37254906;57.25490189;2172.5;149;14.9;0.014994297177637577;-0.05994023968085291;0.07815242617672226;9.83561681557287;-0.6725569267265132;-1.348967211549279;30.019824479642697;6;14.9;1;0;0;0;0;0;0;0;0;0;0;0;0;0;0;0;0
150;2022-05-02 00:35:09.979;5.17452650749477;52.36924366922083;32;0.0;-0.01;9.67765903;-0.54828894;-1.11812639;-0.09;10.588233950000003;5.09803868;31.37254906;57.25490189;2172.5;150;15.0;0.01363117848638114;-0.055400215340377444;0.07922947894773415;9.821257008814806;-0.6612598306755995;-1.327981670524515;30.199840537200437;6;15.0;1;0;0;0;0;0;0;0;0;0;0;0;0;0;0;0;0
151;2022-05-02 00:35:10.080;5.17452650749477;52.36924366922083;34;0.0;0.03;9.23232365;-0.18435916;-1.21150303;-0.04;10.588233950000003;5.09803868;31.37254906;57.25490189;1801.75;151;15.100000000000001;0.012391979809093122;-0.0476365554341089;0.07566316085782729;9.767717585207137;-0.6179052021018916;-1.3173926977944979;30.545309755763576;6;15.100000000000001;1;0;0;0;0;0;0;0;0;0;0;0;0;0;0;0;0
152;2022-05-02 00:35:10.179;5.17452650749477;52.36924366922083;34;0.03;0.01;9.3687973;-0.80687064;-1.18037748;-0.14;10.588233950000003;5.09803868;38.4313736;57.25490189;1801.75;152;15.200000000000001;0.013992709660782475;-0.04239686614299987;0.08151196713256088;9.731452087891018;-0.635083886252723;-1.3049367631191937;30.85937265109948;6;15.200000000000001;1;0;0;0;0;0;0;0;0;0;0;0;0;0;0;0;0
153;2022-05-02 00:35:10.285;5.17452650749477;52.36924366922083;34;0.0;0.05;9.80694962;0.6440599;-2.06147051;-0.16;10.588233950000003;5.09803868;38.4313736;57.25490189;1801.75;153;15.3;0.012720644609089811;-0.03399714749266215;0.08864724586035458;9.738315502798715;-0.5187980384056571;-1.373712587327881;31.144884348817587;6;15.3;1;0;0;0;0;0;0;0;0;0;0;0;0;0;0;0;0
154;2022-05-02 00:35:10.383;5.17452650749477;52.36924366922083;34;-0.01;-0.03;9.31612301;0.13168511;-1.35994804;-0.16;10.588233950000003;5.09803868;38.4313736;57.25490189;1801.75;154;15.4;0.010655130670012041;-0.03363377030840126;0.09513386236277831;9.699934352358078;-0.4596631840349517;-1.3724612643632388;31.40444041673113;6;15.4;1;0;0;0;0;0;0;0;0;0;0;0;0;0;0;0;0
155;2022-05-02 00:35:10.478;5.174488242761203;52.36915878342073;34;-0.07;-0.05;9.76864147;0.35435268;-1.60655844;-0.07;10.19607735;5.09803868;38.4313736;57.25490189;1801.75;155;15.5;0.0033228435051758233;-0.03512160989042909;0.09284896498706953;9.706180456141357;-0.38566171602845706;-1.3937428332105883;31.640400461180555;6;15.5;1;0;0;0;0;0;0;0;0;0;0;0;0;0;0;0;0
156;2022-05-02 00:35:10.579;5.174488242761203;52.36915878342073;34;-0.01;0.01;10.20679379;0.68955112;-1.71430075;-0.1;10.19607735;5.09803868;38.4313736;60.0;1880.5;156;15.600000000000001;0.0021116755296002286;-0.031019644053746277;0.09349905928537128;9.751690773655795;-0.2879150635649975;-1.422884471253678;31.854909578208822;6;15.600000000000001;1;0;0;0;0;0;0;0;0;0;0;0;0;0;0;0;0
157;2022-05-02 00:35:10.681;5.174488242761203;52.36915878342073;36;0.01;-0.03;9.89553738;-0.26815879;-1.17558897;-0.07;10.19607735;5.09803868;36.07843018;60.0;1880.5;157;15.700000000000001;0.002828796142798978;-0.03092694911303855;0.09136278055247261;9.764767741639957;-0.28611903817752565;-1.4004030555657476;32.231736088856714;6;15.700000000000001;1;0;0;0;0;0;0;0;0;0;0;0;0;0;0;0;0
158;2022-05-02 00:35:10.785;5.174488242761203;52.36915878342073;36;-0.01;-0.03;9.5483675;-0.01197137;-1.32642829;-0.07;10.19607735;5.09803868;36.07843018;60.0;1880.5;158;15.8;0.0016625416422561623;-0.03084268098976167;0.08942070908402741;9.745094987242592;-0.26119651635502206;-1.3936780751149453;32.574305625131615;6;15.8;1;0;0;0;0;0;0;0;0;0;0;0;0;0;0;0;0
159;2022-05-02 00:35:10.881;5.174488242761203;52.36915878342073;36;0.0;0.01;10.16848469;0.55547178;-1.55627859;-0.13;10.19607735;5.09803868;36.07843018;60.0;1880.5;159;15.9;0.0015114014569395987;-0.027129709105796828;0.093109736410123;9.78358496939368;-0.18695392626521418;-1.4084599436273908;32.88573246070422;6;15.9;1;0;0;0;0;0;0;0;0;0;0;0;0;0;0;0;0
