;device_time;lon;lat;raw_speed_kph;raw_g_x;raw_g_y;raw_roll;raw_yaw;raw_pitch;raw_g_z;apps_d;apps_e;engine_load;engine_load_abs;engine_rpm;num_samples;cumulative_time;g_x;g_y;g_z;roll;yaw;pitch;speed_kph;sample_nr;cu mulative_time;roundabout_1;roundabout_2;roundabout_3;roundabout_4;turning_right_1;turning_right_2;turning_right_3;turning_left_1;turning_left_2;road_50km_1;road_50km_2;road_100km;entering_highway;exiting_highway;speed_bumps;road_50km_3;road_50km_4
0;2022-04-12 20:59:32.551;5.173745437069235;52.36974879403777;0;0.04;0.01;9.82610416;-0.25379312;-0.39505535;0.03;0.0;0.0;0.0;0.0;0.0;0;0.0;0.04;0.01;0.04048952;9.82610416;-0.25379312;-0.39505535;0.0;7;0.0;0;0;0;0;0;0;0;0;0;0;0;0;0;0;0;0;0
1;2022-04-12 20:59:32.700;5.173745437069235;52.36974879403777;0;0.04;0.01;9.83568096;-0.24900457;-0.37111259;0.03;0.0;0.0;0.0;0.0;0.0;1;0.1;0.04;0.01;0.04048952;9.831120579047617;-0.2512848319047619;-0.3825139042857143;0.0;7;0.1;0;0;0;0;0;0;0;0;0;0;0;0;0;0;0;0;0
2;2022-04-12 20:59:32.751;5.173745437069235;52.36974879403777;0;0.04;0.01;9.82610416;-0.24900457;-0.41420954;0.02;0.0;0.0;0.0;0.0;0.0;2;0.2;0.04;0.01;0.04414510912386707;9.829286782356494;-0.25045126184290034;-0.39410052640483384;0.0;7;0.2;0;0;0;0;0;0;0;0;0;0;0;0;0;0;0;0;0
3;2022-04-12 20:59:32.849;5.173745437069235;52.36974879403777;0;0.04;0.01;9.87638378;-0.22745611;-0.38787252;0.02;0.0;0.0;0.0;0.0;0.0;3;0.30000000000000004;0.04;0.01;0.045964633122171944;9.842793807537168;-0.24385644453996985;-0.39231438623572507;0.0;7;0.30000000000000004;0;0;0;0;0;0;0;0;0;0;0;0;0;0;0;0;0
4;2022-04-12 20:59:32.960;5.173745437069235;52.36974879403777;0;0.04;0.01;9.85004616;-0.22745611;-0.35195839;0.03;0.0;0.0;0.0;0.0;0.0;4;0.4;0.04;0.01;0.04465161398699448;9.844533036909468;-0.23992338368921065;-0.38263637701577363;0.0;7;0.4;0;0;0;0;0;0;0;0;0;0;0;0;0;0;0;0;0
5;2022-04-12 20:59:33.057;5.173745437069235;52.36974879403777;0;0.04;0.0;9.83807564;-0.27294734;-0.25858167;0.03;0.0;0.0;0.0;0.0;0.0;5;0.5;0.04;0.007912660178521205;0.04378284353501538;9.843185158738244;-0.24681660559623927;-0.35674194401618264;0.0;7;0.5;0;0;0;0;0;0;0;0;0;0;0;0;0;0;0;0;0
6;2022-04-12 20:59:33.154;5.173745437069235;52.36974879403777;0;0.05;0.02;9.73751545;-0.22506183;-0.60575151;0.01;0.0;0.0;0.0;0.0;0.0;6;0.6000000000000001;0.04186732272455087;0.010169756611322805;0.04690251919649388;9.823453213895883;-0.24275428691240303;-0.4032400661353958;0.0;7;0.6000000000000001;0;0;0;0;0;0;0;0;0;0;0;0;0;0;0;0;0
7;2022-04-12 20:59:33.253;5.173745437069235;52.36974879403777;0;0.04;0.02;10.26425648;-0.41420954;-0.4764607;0.03;0.0;0.0;0.0;0.0;0.0;7;0.7000000000000001;0.04154912411218854;0.011844865988151806;0.04580972071095309;9.898567700403751;-0.27197088825153537;-0.4157171295726284;0.0;7;0.7000000000000001;0;0;0;0;0;0;0;0;0;0;0;0;0;0;0;0;0
8;2022-04-12 20:59:33.350;5.173745437069235;52.36974879403777;0;-0.04;0.0;9.71117878;-0.23463893;-0.72546524;0.05;0.0;0.0;0.0;0.0;0.0;8;0.8;0.028676184228660393;0.009975094246837228;0.041812799528298125;9.868987415716964;-0.26607785065562856;-0.464612428547054;0.0;7;0.8;0;0;0;0;0;0;0;0;0;0;0;0;0;0;0;0;0
9;2022-04-12 20:59:33.452;5.173745437069235;52.36974879403777;0;0.04;0.02;9.87159538;-0.08858817;-0.52913475;0.01;0.0;0.0;0.0;0.0;0.0;9;0.9;0.03035154683709992;0.011458282651799444;0.044576027026732135;9.869373264968857;-0.23981818868665478;-0.4741585291685049;0.0;7;0.9;0;0;0;0;0;0;0;0;0;0;0;0;0;0;0;0;0
10;2022-04-12 20:59:33.552;5.173745437069235;52.36974879403777;0;0.03;0.01;9.86920071;-0.32322711;0.06225114;0.05;0.0;0.0;0.0;0.0;0.0;10;1.0;0.030302342059273814;0.011254171943589417;0.041204723115610645;9.869349113055058;-0.2514926428669152;-0.3990791490979894;0.0;7;1.0;0;0;0;0;0;0;0;0;0;0;0;0;0;0;0;0;0
11;2022-04-12 20:59:33.651;5.173745437069235;52.36974879403777;0;0.03;0.01;9.71117878;-0.17478207;-0.54589468;-0.01;0.0;0.0;0.0;0.0;0.0;11;1.1;0.03026200322026175;0.01108683882345582;0.04644614768269648;9.848245838118988;-0.24125782652401465;-0.4186674527556146;0.0;7;1.1;0;0;0;0;0;0;0;0;0;0;0;0;0;0;0;0;0
12;2022-04-12 20:59:33.751;5.173745437069235;52.36974879403777;0;0.03;0.0;9.7662468;-0.2753416;-0.25858167;0.01;0.0;0.0;0.0;0.0;0.0;12;1.2000000000000002;0.03022847192337927;0.009667939911808435;0.0482434251586461;9.837751562176507;-0.24561988408253133;-0.39817959805337055;0.0;7;1.2000000000000002;0;0;0;0;0;0;0;0;0;0;0;0;0;0;0;0;0
13;2022-04-12 20:59:33.850;5.173745437069235;52.36974879403777;0;0.05;0.01;9.90750885;-0.23224466;-0.44294083;0.02;0.0;0.0;0.0;28.23529434;0.0;13;1.3;0.032668390345106324;0.009708918005315377;0.04852060596931121;9.846360006144554;-0.24396930576065215;-0.40370338731146643;0.0;7;1.3;0;0;0;0;0;0;0;0;0;0;0;0;0;0;0;0;0
14;2022-04-12 20:59:33.949;5.173745437069235;52.36974879403777;0;0.02;0.0;10.05356026;-0.19154198;-0.40223816;0.02;0.0;0.0;0.0;28.23529434;0.0;14;1.4000000000000001;0.031154243867147546;0.008548492441998444;0.04875593375474866;9.871124915186734;-0.23770310709714523;-0.4035282609763418;0.0;7;1.4000000000000001;0;0;0;0;0;0;0;0;0;0;0;0;0;0;0;0;0
15;2022-04-12 20:59:34.052;5.173745437069235;52.36974879403777;0;0.03;0.01;9.84286404;-0.30407289;-0.45251793;0.03;0.0;0.0;0.0;28.23529434;0.0;15;1.5;0.031020124275723662;0.008717153161079367;0.04779540187159684;9.867841088309929;-0.24541507197664758;-0.4092207100163197;0.0;7;1.5;0;0;0;0;0;0;0;0;0;0;0;0;0;0;0;0;0
16;2022-04-12 20:59:34.150;5.173745437069235;52.36974879403777;0;0.04;0.02;9.60343647;-0.23942748;-0.39266106;0.03;0.0;0.0;0.0;28.23529434;0.0;16;1.6;0.03203782285219668;0.0099958498289509;0.046967418744780984;9.837875840245363;-0.24473649200313388;-0.40734398780256564;0.0;7;1.6;0;0;0;0;0;0;0;0;0;0;0;0;0;0;0;0;0
17;2022-04-12 20:59:34.250;5.173745437069235;52.36974879403777;0;0.05;0.01;9.90032673;-0.21548474;-0.57702023;0.01;0.0;0.0;0.0;28.23529434;0.0;17;1.7000000000000002;0.03402885217149414;0.009996309857385697;0.04846628493656344;9.844798250123327;-0.24149406234664983;-0.42615186227253893;0.0;7;1.7000000000000002;0;0;0;0;0;0;0;0;0;0;0;0;0;0;0;0;0
18;2022-04-12 20:59:34.354;5.173745437069235;52.36974879403777;0;0.01;0.01;10.06313705;-0.14605077;-0.56265455;-0.03;0.0;0.0;0.0;28.23529434;0.0;18;1.8;0.03141742124024356;0.009996710898288314;0.05412011659771724;9.868527086250026;-0.23112138353388012;-0.44098683393020355;0.0;7;1.8;0;0;0;0;0;0;0;0;0;0;0;0;0;0;0;0;0
19;2022-04-12 20:59:34.453;5.173745437069235;52.36974879403777;0;0.04;0.02;9.77821827;0.02394275;-0.69673395;-0.03;0.0;0.0;0.0;28.23529434;0.0;19;1.9000000000000001;0.032333881677245206;0.011064876884086815;0.05907150998367991;9.85888377745877;-0.2038852586085855;-0.46829588873949357;0.0;7;1.9000000000000001;0;0;0;0;0;0;0;0;0;0;0;0;0;0;0;0;0
20;2022-04-12 20:59:34.556;5.173745437069235;52.36974879403777;0;0.06;0.01;9.9170866;-0.21548474;-0.84757328;0.0;0.0;0.0;0.0;28.23529434;0.0;20;2.0;0.0352419526312764;0.010952944393229032;0.060271692202736926;9.865001655496457;-0.20510451584310885;-0.5081629041327674;0.0;7;2.0;0;0;0;0;0;0;0;0;0;0;0;0;0;0;0;0;0
21;2022-04-12 20:59:34.653;5.173745437069235;52.36974879403777;0;0.02;0.01;9.66329288;-0.27055305;-0.85954463;-0.01;0.0;0.0;0.0;28.23529434;0.0;21;2.1;0.03366226193198832;0.010854180315466866;0.06236708741250868;9.844096363089058;-0.21188766516726612;-0.5445804457483511;0.0;7;2.1;0;0;0;0;0;0;0;0;0;0;0;0;0;0;0;0;0
22;2022-04-12 20:59:34.749;5.173745437069235;52.36974879403777;0;0.05;0.03;9.66089916;-0.2849187;-0.74222517;-0.02;0.0;0.0;0.0;28.23529434;0.0;22;2.2;0.03533423355838201;0.012813525430643204;0.06524508124223698;9.82534832561138;-0.21936151605030704;-0.5648070138130072;0.0;7;2.2;0;0;0;0;0;0;0;0;0;0;0;0;0;0;0;0;0
23;2022-04-12 20:59:34.849;5.173745437069235;52.36974879403777;0;0.04;0.01;9.77582359;-0.31843856;-0.47167215;0.02;0.0;0.0;0.0;28.23529434;0.0;23;2.3000000000000003;0.03580632334152439;0.012528848384109057;0.06375208972751893;9.820337332886496;-0.2293862913531144;-0.5553834778922441;0.0;7;2.3000000000000003;0;0;0;0;0;0;0;0;0;0;0;0;0;0;0;0;0
24;2022-04-12 20:59:34.951;5.173745437069235;52.36974879403777;0;0.02;0.0;9.83807564;-0.31365001;-0.29689008;0.01;0.0;0.0;0.0;28.23529434;0.0;24;2.4000000000000004;0.034223275913389965;0.011274049226619646;0.06342533425727685;9.82211387388523;-0.23782553811574136;-0.5294946421471199;0.0;7;2.4000000000000004;0;0;0;0;0;0;0;0;0;0;0;0;0;0;0;0;0
25;2022-04-12 20:59:35.050;5.173745437069235;52.36974879403777;0;0.04;0.02;9.83568096;-0.16759923;-0.2753416;0.04;0.0;0.0;0.0;28.23529434;0.0;25;2.5;0.03479653195645022;0.012139973223904078;0.06015693260384529;9.823460210318373;-0.23085659604657205;-0.5042736405744996;0.0;7;2.5;0;0;0;0;0;0;0;0;0;0;0;0;0;0;0;0;0
26;2022-04-12 20:59:35.150;5.173745437069235;52.36974879403777;0;0.03;0.01;9.96736622;-0.22027329;-0.43096948;0.03;0.0;0.0;0.0;28.23529434;0.0;26;2.6;0.03432447628307964;0.01192936553685498;0.058221343769149767;9.837622869697924;-0.22981502899194559;-0.497059335490109;0.0;7;2.6;0;0;0;0;0;0;0;0;0;0;0;0;0;0;0;0;0
27;2022-04-12 20:59:35.250;5.173745437069235;52.36974879403777;0;0.04;0.01;9.94581795;-0.11253092;-0.52195191;0.0;0.0;0.0;0.0;28.23529434;0.0;27;2.7;0.03487887698634429;0.011740899826228477;0.05941973282880267;9.848191661513633;-0.21835839595682122;-0.49949091035485815;0.0;7;2.7;0;0;0;0;0;0;0;0;0;0;0;0;0;0;0;0;0
28;2022-04-12 20:59:35.349;5.173745437069235;52.36974879403777;0;0.05;0.0;9.91948032;-0.0383084;-0.67997402;0.04;0.0;0.0;0.0;28.23529434;0.0;28;2.8000000000000003;0.036346011847040914;0.010601732886349031;0.05661276381398954;9.855108480849287;-0.20088895102882331;-0.5170023783647533;0.0;7;2.8000000000000003;0;0;0;0;0;0;0;0;0;0;0;0;0;0;0;0;0
29;2022-04-12 20:59:35.449;5.173745437069235;52.36974879403777;0;0.04;0.01;9.84286404;-0.26337022;-0.98165268;-0.02;0.0;0.0;37.25490189;28.23529434;852.0;29;2.9000000000000004;0.036698386680122666;0.010543704366137401;0.05987969184076204;9.853927679866954;-0.20691437470367152;-0.5618112462718684;0.0;7;2.9000000000000004;0;0;0;0;0;0;0;0;0;0;0;0;0;0;0;0;0
30;2022-04-12 20:59:35.550;5.173745437069235;52.36974879403777;0;0.03;0.02;9.96497154;-0.22745611;-0.82363051;-0.03;0.0;0.0;37.25490189;28.23529434;852.0;30;3.0;0.03605597355768555;0.011450616536924004;0.06377440376995346;9.864577413350874;-0.2088844431607749;-0.5869211927049243;0.0;7;3.0;0;0;0;0;0;0;0;0;0;0;0;0;0;0;0;0;0
31;2022-04-12 20:59:35.648;5.173745437069235;52.36974879403777;0;0.04;0.01;9.39034557;-0.28013015;-1.20671451;-0.05;0.0;0.0;37.25490189;28.23529434;852.0;31;3.1;0.036432347399876414;0.011312185893130624;0.06918666114652365;9.819322021790546;-0.21568333784743113;-0.6460673459081164;0.0;7;3.1;0;0;0;0;0;0;0;0;0;0;0;0;0;0;0;0;0
32;2022-04-12 20:59:35.750;5.173745437069235;52.36974879403777;0;0.02;0.01;9.73272705;-0.19633053;-0.99601829;-0.07;0.0;0.0;37.25490189;28.23529434;852.0;32;3.2;0.03487128326575007;0.011187528941495814;0.075960394254045;9.811095546207458;-0.21384483154701717;-0.6793124967214205;0.0;7;3.2;0;0;0;0;0;0;0;0;0;0;0;0;0;0;0;0;0
33;2022-04-12 20:59:35.850;5.173761673536108;52.36978307128378;0;0.06;0.03;10.00088596;-0.05267405;-1.06305802;-0.03;5.882352830000002;0.0;37.25490189;28.23529434;852.0;33;3.3000000000000003;0.037248772981924534;0.01296742311398502;0.07828115519160105;9.829052084211058;-0.19859606736505775;-0.715619604834876;0.0;7;3.3000000000000003;0;0;0;0;0;0;0;0;0;0;0;0;0;0;0;0;0
34;2022-04-12 20:59:35.951;5.173761673536108;52.36978307128378;0;0.0;0.0;10.03919411;-0.12450229;-1.02474964;-0.05;5.882352830000002;3.5294113200000012;37.25490189;36.47058868;852.0;34;3.4000000000000004;0.03373757817594839;0.01174507013320861;0.08225985782848827;9.84886077938138;-0.19161173834123763;-0.744759243189399;0.0;7;3.4000000000000004;0;0;0;0;0;0;0;0;0;0;0;0;0;0;0;0;0
35;2022-04-12 20:59:36.049;5.173761673536108;52.36978307128378;0;0.11;0.05;9.9362402;-0.22506183;-1.49642181;-0.06;5.882352830000002;3.5294113200000012;37.25490189;36.47058868;1338.75;35;3.5;0.040902298471863545;0.015339053459200627;0.08679094969733292;9.857069922146291;-0.19475431557489392;-0.8153766182910265;0.0;7;3.5;0;0;0;0;0;0;0;0;0;0;0;0;0;0;0;0;0
36;2022-04-12 20:59:36.152;5.173761673536108;52.36978307128378;2;0.0;0.0;9.62019634;-0.35435268;-1.66641521;-0.08;5.882352830000002;3.5294113200000012;39.60784149;36.47058868;1338.75;36;3.6;0.03707124267434256;0.013902342763742305;0.09275718597668774;9.834883493899836;-0.2097028701097025;-0.8950879414315477;0.1873271645189499;7;3.6;0;0;0;0;0;0;0;0;0;0;0;0;0;0;0;0;0
37;2022-04-12 20:59:36.253;5.173761673536108;52.36978307128378;2;0.01;0.01;9.5866766;-0.19393626;-1.71669507;-0.1;5.882352830000002;3.5294113200000012;39.60784149;36.47058868;1338.75;37;3.7;0.03454261818353636;0.013537839382696138;0.10001787533267234;9.811699407441298;-0.20823016946791884;-0.9718312196072547;0.3566422189017577;7;3.7;0;0;0;0;0;0;0;0;0;0;0;0;0;0;0;0;0
38;2022-04-12 20:59:36.351;5.173761673536108;52.36978307128378;2;0.05;0.03;10.04637718;0.11253092;-1.42938209;-0.1;5.882352830000002;3.5294113200000012;39.60784149;36.47058868;1338.75;38;3.8000000000000003;0.03598283843149801;0.015071678510677394;0.1065839737031572;9.8335651854753;-0.1783436970177206;-1.0144628913765474;0.5097598153411591;7;3.8000000000000003;0;0;0;0;0;0;0;0;0;0;0;0;0;0;0;0;0
39;2022-04-12 20:59:36.453;5.173761673536108;52.36978307128378;2;0.01;0.0;9.76864147;-0.18914771;-1.75979197;-0.1;7.450979240000002;3.9215688699999998;39.60784149;39.2156868;1338.75;39;3.9000000000000004;0.033567393119836045;0.013670568493637842;0.11252483165056221;9.827529675360655;-0.17934807160035074;-1.0837509960365799;0.6482971686320455;7;3.9000000000000004;0;0;0;0;0;0;0;0;0;0;0;0;0;0;0;0;0
40;2022-04-12 20:59:36.550;5.173761673536108;52.36978307128378;2;0.02;0.02;9.74230385;0.03351985;-1.32163966;-0.12;7.450979240000002;3.9215688699999998;39.60784149;39.2156868;1338.75;40;4.0;0.032308711490610764;0.014257765981772098;0.11975781444150366;9.819623058387924;-0.15959977212946713;-1.1058205335289322;0.7736980844149883;7;4.0;0;0;0;0;0;0;0;0;0;0;0;0;0;0;0;0;0
41;2022-04-12 20:59:36.650;5.173761673536108;52.36978307128378;4;0.04;-0.01;9.83568096;-0.53631759;-1.70711792;-0.1;7.450979240000002;3.9215688699999998;39.60784149;39.2156868;1508.5;41;4.1000000000000005;0.033020924744079555;0.012011497048982519;0.1244555699639664;9.821110019946714;-0.19448383900300875;-1.1615006666299135;1.072453615580711;7;4.1000000000000005;0;0;0;0;0;0;0;0;0;0;0;0;0;0;0;0;0
42;2022-04-12 20:59:36.751;5.173761673536108;52.36978307128378;4;0.05;0.02;10.59466648;0.33759275;-1.5371244;-0.1;7.450979240000002;3.9215688699999998;32.15686417;39.2156868;1508.5;42;4.2;0.03459053292281938;0.012749983649625395;0.12871111765353;9.892620424848966;-0.14529672172912186;-1.196224706375299;1.3430867731210456;7;4.2;0;0;0;0;0;0;0;0;0;0;0;0;0;0;0;0;0
43;2022-04-12 20:59:36.849;5.173774533530996;52.36978163287378;4;0.08;0.03;10.37199879;0.57941449;-1.4341706;-0.09;7.450979240000002;3.9215688699999998;32.15686417;39.2156868;1508.5;43;4.3;0.038781919060059386;0.014342195231303633;0.13164432880159838;9.936868022619091;-0.07840440341186299;-1.218187596145766;1.5883252659679759;7;4.3;0;0;0;0;0;0;0;0;0;0;0;0;0;0;0;0;0
44;2022-04-12 20:59:36.950;5.173774533530996;52.36978163287378;4;-0.01;0.02;9.9362402;-0.0670397;-2.06386495;-0.09;7.450979240000002;3.9215688699999998;32.15686417;39.2156868;1508.5;44;4.4;0.0342855119834917;0.014863695694794699;0.13430309508895488;9.93681015392262;-0.07735687732373842;-1.296136756646845;1.8106181062133606;7;4.4;0;0;0;0;0;0;0;0;0;0;0;0;0;0;0;0;0
45;2022-04-12 20:59:37.050;5.173774533530996;52.36978163287378;4;0.06;0.03;10.03919411;0.00718282;-2.29610944;-0.16;8.62745095;4.313725470000001;32.15686417;45.09803772;1508.5;45;4.5;0.03665271651302711;0.01625710193678192;0.1431577508994485;9.946235337283165;-0.06957438698981341;-1.388191471635749;2.0121665380750926;7;4.5;0;0;0;0;0;0;0;0;0;0;0;0;0;0;0;0;0
46;2022-04-12 20:59:37.151;5.173774533530996;52.36978163287378;4;0.01;0.04;10.04398251;-0.00239427;-1.84598589;-0.11;8.62745095;4.313725470000001;32.15686417;45.09803772;1508.5;46;4.6000000000000005;0.03420195508151876;0.018440300741944176;0.14659046890539315;9.955223351725007;-0.06339706395400276;-1.4302864267049078;2.194951117589384;7;4.6000000000000005;0;0;0;0;0;0;0;0;0;0;0;0;0;0;0;0;0
47;2022-04-12 20:59:37.252;5.173774533530996;52.36978163287378;4;0.07;0.01;9.47175121;-0.88827598;-1.28811979;-0.08;8.62745095;4.313725470000001;32.15686417;45.09803772;1689.25;47;4.7;0.037490216380601626;0.017665009400041114;0.14694861971633097;9.910813587548242;-0.13916705145583833;-1.4172275836713828;2.360755490328168;7;4.7;0;0;0;0;0;0;0;0;0;0;0;0;0;0;0;0;0
48;2022-04-12 20:59:37.351;5.173774533530996;52.36978163287378;7;0.08;0.01;8.80374813;-0.48124924;-1.47966182;-0.08;8.62745095;4.313725470000001;30.98039246;45.09803772;1689.25;48;4.800000000000001;0.041391296873833056;0.01696159912351148;0.14727356460781227;9.809219293400837;-0.1705595931060052;-1.4229571113404023;2.7864943372263005;7;4.800000000000001;0;0;0;0;0;0;0;0;0;0;0;0;0;0;0;0;0
49;2022-04-12 20:59:37.451;5.173774533530996;52.36978163287378;7;-0.04;0.0;8.94979954;-0.44054657;-1.46290195;-0.07;8.62745095;4.313725470000001;30.98039246;45.09803772;1689.25;49;4.9;0.03392851598543547;0.01540638741614897;0.14665153448432502;9.730418960230901;-0.19531474173576627;-1.4266196599173229;3.1728313381226685;7;4.9;0;0;0;0;0;0;0;0;0;0;0;0;0;0;0;0;0
50;2022-04-12 20:59:37.550;5.173774533530996;52.36978163287378;7;0.08;0.04;9.42625999;-0.74701375;-1.52994156;-0.15000001;8.62745095;4.313725470000001;30.98039246;45.09803772;1689.25;50;5.0;0.038149520755472774;0.01765961971915157;0.15341646810754256;9.702552341830062;-0.24586063135312705;-1.4360858675385149;3.5234711649711934;7;5.0;0;0;0;0;0;0;0;0;0;0;0;0;0;0;0;0;0
51;2022-04-12 20:59:37.652;5.173774533530996;52.36978163287378;7;0.06;0.01;10.05834866;-0.48124924;-1.3072741;-0.1;7.84313775;4.313725470000001;30.98039246;45.09803772;1689.25;51;5.1000000000000005;0.040150011665638405;0.016958353652993044;0.15497956815388142;9.735126789850357;-0.26741131528481;-1.4242926813479782;3.8417600343169664;7;5.1000000000000005;0;0;0;0;0;0;0;0;0;0;0;0;0;0;0;0;0
52;2022-04-12 20:59:37.750;5.173774533530996;52.36978163287378;7;0.16;0.03;10.91789341;-0.51476908;-1.01277828;-0.09;7.84313775;3.9215688699999998;30.98039246;39.2156868;1689.25;52;5.2;0.05111564645959963;0.01815159474496798;0.15548369936420986;9.843343628110409;-0.290043231641365;-1.3866413081576165;4.130722148845964;7;5.2;0;0;0;0;0;0;0;0;0;0;0;0;0;0;0;0;0
53;2022-04-12 20:59:37.850;5.173804916772306;52.36977711188105;7;0.03;-0.03;9.72554398;-0.70870537;-1.69035804;-0.1;7.84313775;3.9215688699999998;30.98039246;39.2156868;1700.75;53;5.300000000000001;0.04918480806766821;0.013748558922967826;0.15685584843108571;9.832571896183433;-0.32832616707209433;-1.4144135067135652;4.393092133242443;7;5.300000000000001;0;0;0;0;0;0;0;0;0;0;0;0;0;0;0;0;0
54;2022-04-12 20:59:37.950;5.173804916772306;52.36977711188105;10;-0.01;-0.05;10.52044392;-0.62969428;-1.16361761;-0.05;7.84313775;3.9215688699999998;28.62745094;39.2156868;1700.75;54;5.4;0.0437757606248069;0.007922418889969352;0.15353223883888234;9.895438238627035;-0.35586895167872606;-1.3914926432675334;4.905521448285059;7;5.4;0;0;0;0;0;0;0;0;0;0;0;0;0;0;0;0;0
55;2022-04-12 20:59:38.050;5.173804916772306;52.36977711188105;10;0.0;-0.06;9.29457474;-1.62810683;-1.09897208;-0.04;7.84313775;3.9215688699999998;28.62745094;39.2156868;1700.75;55;5.5;0.03977691758532007;0.0017178187156586054;0.14960035794925786;9.840550355815358;-0.47208576919790657;-1.3647713755697592;5.370893604144204;7;5.5;0;0;0;0;0;0;0;0;0;0;0;0;0;0;0;0;0
56;2022-04-12 20:59:38.150;5.173804916772306;52.36977711188105;10;-0.03;-0.08;9.44780827;-1.50121033;-1.85556293;-0.09;7.84313775;3.9215688699999998;28.62745094;39.2156868;1700.75;56;5.6000000000000005;0.03340571057787813;-0.005743690867327166;0.15059462808849164;9.804689770168183;-0.5660533137701584;-1.4095846848844877;5.793569126768258;7;5.6000000000000005;0;0;0;0;0;0;0;0;0;0;0;0;0;0;0;0;0
57;2022-04-12 20:59:38.251;5.173804916772306;52.36977711188105;10;0.09;-0.1;10.37199879;-1.36234236;-0.12689656;0.05;7.0588226400000025;3.9215688699999998;28.62745094;39.2156868;1700.75;57;5.7;0.03857117335872967;-0.014346634055707321;0.13871970041836748;9.856469086722994;-0.6387320499659738;-1.292511428268226;6.177497652733815;7;5.7;0;0;0;0;0;0;0;0;0;0;0;0;0;0;0;0;0
58;2022-04-12 20:59:38.349;5.173804916772306;52.36977711188105;10;0.18000001;-0.13;9.81173801;-1.59698129;0.2753416;0.0;7.0588226400000025;3.5294113200000012;28.62745094;31.37254906;1700.75;58;5.800000000000001;0.05147495779342904;-0.024898697826675708;0.13249446685944033;9.852387881041938;-0.7261614732841977;-1.1494625424644087;6.526257831079663;7;5.800000000000001;0;0;0;0;0;0;0;0;0;0;0;0;0;0;0;0;0
59;2022-04-12 20:59:38.449;5.173804916772306;52.36977711188105;10;0.1;-0.27000001;10.53241444;-3.01918054;0.19633053;0.07;7.0588226400000025;3.5294113200000012;28.62745094;31.37254906;1766.75;59;5.9;0.055900861129549166;-0.04725405633656363;0.12045447455603453;9.91441218187882;-0.9353046347463067;-1.0267145802103745;6.843093146519404;7;5.9;0;0;0;0;0;0;0;0;0;0;0;0;0;0;0;0;0
60;2022-04-12 20:59:38.548;5.173804916772306;52.36977711188105;11;0.17;-0.30000001;10.16609097;-3.06227756;-0.16281068;0.13;7.0588226400000025;3.5294113200000012;25.49019623;31.37254906;1766.75;60;6.0;0.0663045724814174;-0.07029976880467091;0.10404503046041436;9.937360588772352;-1.1292448571409999;-0.9479426727050362;7.222125446397831;7;6.0;0;0;0;0;0;0;0;0;0;0;0;0;0;0;0;0;0
61;2022-04-12 20:59:38.648;5.173804916772306;52.36977711188105;11;-0.06;-0.14;8.72234344;-1.82443738;-1.21629155;-0.05;7.0588226400000025;3.5294113200000012;25.49019623;31.37254906;1766.75;61;6.1000000000000005;0.054791087879541324;-0.07665339894527956;0.10554405281075394;9.826603860345406;-1.192616184481141;-0.9724044210484769;7.566503323193364;7;6.1000000000000005;0;0;0;0;0;0;0;0;0;0;0;0;0;0;0;0;0
62;2022-04-12 20:59:38.751;5.173804916772306;52.36977711188105;11;-0.01;-0.28999999;7.4126749;-4.0654788;-1.16361761;0.02;7.0588226400000025;3.5294113200000012;25.49019623;31.37254906;1766.75;62;6.2;0.04888641908791187;-0.09609651989338634;0.10052671489647505;9.606612940855648;-1.4544315480390284;-0.9898304372846777;7.87941149215938;7;6.2;0;0;0;0;0;0;0;0;0;0;0;0;0;0;0;0;0
63;2022-04-12 20:59:38.848;5.17384837510874;52.369766867689954;11;0.02;-0.23;10.771842;-2.77257013;-0.06464542;0.14;6.666666030000002;3.5294113200000012;25.49019623;34.11764526;1766.75;63;6.300000000000001;0.04625447701446371;-0.10829693151246465;0.08503403489563634;9.712781011623886;-1.5745317370565783;-0.905533613739166;8.16373916055984;7;6.300000000000001;0;0;0;0;0;0;0;0;0;0;0;0;0;0;0;0;0
64;2022-04-12 20:59:38.949;5.17384837510874;52.369766867689954;11;0.09;-0.23;9.61061954;-2.370332;-0.28731298;0.0;6.666666030000002;3.5294113200000012;25.49019623;34.11764526;1766.75;64;6.4;0.05023946922923745;-0.1193834552830744;0.0837091043731247;9.703474626849252;-1.6470250491926102;-0.8492168927508807;8.4221079396455;7;6.4;0;0;0;0;0;0;0;0;0;0;0;0;0;0;0;0;0
65;2022-04-12 20:59:39.050;5.17384837510874;52.369766867689954;12;0.07;-0.13;10.16848469;-1.68556952;-0.85475612;-0.01;6.666666030000002;3.5294113200000012;25.49019623;34.11764526;1874.0;65;6.5;0.05203921764399415;-0.1203503882944463;0.08341587126421043;9.745826784982562;-1.6505356001508809;-0.8497213941519933;8.747974974215294;7;6.5;0;0;0;0;0;0;0;0;0;0;0;0;0;0;0;0;0
66;2022-04-12 20:59:39.149;5.17384837510874;52.369766867689954;12;0.0;-0.15000001;10.46537495;-1.4940275;-0.59856868;-0.05;6.666666030000002;3.5294113200000012;21.96078491;34.11764526;1874.0;66;6.6000000000000005;0.04730039309861263;-0.12305035884474859;0.08679189274512308;9.811350685232096;-1.6362835713901906;-0.8268507842476569;9.044112708641094;7;6.6000000000000005;0;0;0;0;0;0;0;0;0;0;0;0;0;0;0;0;0
67;2022-04-12 20:59:39.250;5.17384837510874;52.369766867689954;12;0.06;-0.12;10.26904488;-1.50360453;-1.04629815;-0.06;6.666666030000002;3.5294113200000012;21.96078491;34.11764526;1874.0;67;6.7;0.04845667439750041;-0.12277262797366985;0.09077050008257251;9.853023096207416;-1.6242033317807996;-0.8468311574261291;9.31324207801118;7;6.7;0;0;0;0;0;0;0;0;0;0;0;0;0;0;0;0;0
68;2022-04-12 20:59:39.351;5.17384837510874;52.369766867689954;12;0.13;-0.13;9.21795845;-2.01597929;-0.32562137;-0.04;6.666666030000002;3.5294113200000012;21.96078491;34.11764526;1874.0;68;6.800000000000001;0.05588004364652734;-0.12343057822103984;0.09256563861775502;9.795209420704637;-1.6598690049583884;-0.7993823603641611;9.557833477617525;7;6.800000000000001;0;0;0;0;0;0;0;0;0;0;0;0;0;0;0;0;0
69;2022-04-12 20:59:39.451;5.17384837510874;52.369766867689954;12;0.03;0.06;9.75667;0.30167863;-0.55307746;0.01;7.450979240000002;3.9215688699999998;21.96078491;34.11764526;1874.0;69;6.9;0.053524329533898365;-0.10673392933957707;0.08964593081748065;9.791701395042608;-1.4813204093927266;-0.7769626172709;9.780130094298014;7;6.9;0;0;0;0;0;0;0;0;0;0;0;0;0;0;0;0;0
70;2022-04-12 20:59:39.550;5.17384837510874;52.369766867689954;12;0.07;-0.08;9.83807564;-1.09418356;-2.23146415;0.06;7.450979240000002;3.9215688699999998;21.96078491;37.25490189;1874.0;70;7.0;0.05502384387408517;-0.10430077127801493;0.08244160044544849;9.795922094010338;-1.4460855909691892;-0.9093424139315831;9.982169019742537;7;7.0;0;0;0;0;0;0;0;0;0;0;0;0;0;0;0;0;0
71;2022-04-12 20:59:39.649;5.17384837510874;52.369766867689954;13;0.03;-0.17;9.00486755;-2.94735217;-1.3072741;-0.13;7.450979240000002;3.9215688699999998;21.96078491;37.25490189;1519.5;71;7.1000000000000005;0.052746565873957686;-0.11027968518695531;0.09318447158527363;9.723932709843774;-1.5827073414067405;-0.9455559180917378;10.256804688587986;7;7.1000000000000005;0;0;0;0;0;0;0;0;0;0;0;0;0;0;0;0;0
72;2022-04-12 20:59:39.749;5.17384837510874;52.369766867689954;13;-0.08;-0.22;9.39274025;-1.98485386;-0.33519846;0.0;7.450979240000002;3.9215688699999998;32.15686417;37.25490189;1519.5;72;7.2;0.04066720471654971;-0.12026375746939524;0.0911193295242074;9.69379563391473;-1.6193009286253706;-0.8900160393546263;10.506423551974;7;7.2;0;0;0;0;0;0;0;0;0;0;0;0;0;0;0;0;0
73;2022-04-12 20:59:39.849;5.173885302201176;52.36974232420778;13;0.04;0.1;9.84525776;0.67997402;-2.0351336;-0.13;7.450979240000002;3.9215688699999998;32.15686417;37.25490189;1519.5;73;7.300000000000001;0.040606497239394815;-0.10022244676977762;0.10107068054892727;9.707576836791564;-1.4100950013377138;-0.9942077460800094;10.733308541689485;7;7.300000000000001;0;0;0;0;0;0;0;0;0;0;0;0;0;0;0;0;0
74;2022-04-12 20:59:39.952;5.173885302201176;52.36974232420778;13;0.06;0.19;9.09584999;1.56824994;-0.87151605;-0.02;8.23529435;3.9215688699999998;32.15686417;37.25490189;1519.5;74;7.4;0.04237093019183689;-0.07381782791674783;0.10010799997605356;9.651921547507515;-1.1391233247352646;-0.9830451792024919;10.93953354144488;7;7.4;0;0;0;0;0;0;0;0;0;0;0;0;0;0;0;0;0
75;2022-04-12 20:59:40.050;5.173885302201176;52.36974232420778;13;0.0;0.1;9.45020294;-0.40463245;-1.34318817;0.0;8.23529435;3.9215688699999998;32.15686417;46.27450943;1519.5;75;7.5;0.038516272319219697;-0.05800490486438597;0.09741348497490201;9.633570375726253;-1.07230366748806;-1.0158088690355975;11.12698265383806;7;7.5;0;0;0;0;0;0;0;0;0;0;0;0;0;0;0;0;0
76;2022-04-12 20:59:40.150;5.173885302201176;52.36974232420778;14;0.06;0.08;10.04398251;-0.79729348;-1.2665714;-0.04;8.23529435;3.9215688699999998;32.15686417;46.27450943;1458.0;76;7.6000000000000005;0.040470608351429335;-0.04545084710468824;0.09860298834171512;9.670904828759038;-1.0472864858043867;-1.038620285055837;11.388335869825372;7;7.6000000000000005;0;0;0;0;0;0;0;0;0;0;0;0;0;0;0;0;0
77;2022-04-12 20:59:40.248;5.173885302201176;52.36974232420778;14;-0.04;0.06;8.94740486;0.28970724;-0.66321415;0.0;8.23529435;3.9215688699999998;39.2156868;46.27450943;1458.0;77;7.7;0.033150774639815694;-0.03585874035455451;0.09604570789443223;9.605093229093411;-0.9256697620483143;-1.004472283204929;11.625900212075369;7;7.7;0;0;0;0;0;0;0;0;0;0;0;0;0;0;0;0;0
78;2022-04-12 20:59:40.349;5.173885302201176;52.36974232420778;14;0.13;-0.01;10.23073673;-0.16759923;-1.00080693;0.0;8.23529435;3.9215688699999998;39.2156868;46.27450943;1458.0;78;7.800000000000001;0.04195998025504442;-0.033506682711481904;0.09372116979858056;9.662000470434997;-0.8567172313200219;-1.0041388902437094;11.841843427987728;7;7.800000000000001;0;0;0;0;0;0;0;0;0;0;0;0;0;0;0;0;0
79;2022-04-12 20:59:40.449;5.173885302201176;52.36974232420778;14;0.11;0.12;9.66089916;0.32083282;-1.38149655;-0.02;8.23529435;3.9215688699999998;39.2156868;46.27450943;1458.0;79;7.9;0.048148457722627956;-0.01954471370200155;0.09342723996086738;9.661900302403927;-0.7496149408318411;-1.0384608875531678;12.03813530690661;7;7.9;0;0;0;0;0;0;0;0;0;0;0;0;0;0;0;0;0
80;2022-04-12 20:59:40.549;5.173885302201176;52.36974232420778;14;0.02;0.01;9.48372269;0.45730647;-1.14925194;0.0;8.23529435;4.313725470000001;39.2156868;46.66666794;1458.0;80;8.0;0.045588370840397414;-0.016857638099740464;0.09134106683697049;9.645695145705208;-0.6398460965775453;-1.048537273365583;12.216565831057926;7;8.0;0;0;0;0;0;0;0;0;0;0;0;0;0;0;0;0;0
81;2022-04-12 20:59:40.649;5.173885302201176;52.36974232420778;14;-0.05;0.06;8.90909672;0.26097596;-1.07263517;-0.03;8.23529435;4.313725470000001;39.2156868;46.66666794;1458.0;81;8.1;0.03689501152845592;-0.009867759958770672;0.09217308008079357;9.578704624505116;-0.5579201285429369;-1.0507288754638633;12.378761649477031;7;8.1;0;0;0;0;0;0;0;0;0;0;0;0;0;0;0;0;0
82;2022-04-12 20:59:40.749;5.173885302201176;52.36974232420778;14;0.09;0.04;9.62977314;-0.36632404;-1.02714384;-0.08;8.23529435;4.313725470000001;39.2156868;46.66666794;1534.75;82;8.200000000000001;0.04172450912232896;-0.005332663847003854;0.09747651982118563;9.58334892026346;-0.5404959114355474;-1.0485839946287008;12.526201032071773;7;8.200000000000001;0;0;0;0;0;0;0;0;0;0;0;0;0;0;0;0;0
83;2022-04-12 20:59:40.848;5.173923284614803;52.36971155034828;16;0.06;0.06;10.70959091;1.32882249;-0.73983091;0.0;8.23529435;4.313725470000001;38.4313736;46.66666794;1534.75;83;8.3;0.04338647154453772;0.0006086502869536048;0.09502233788477787;9.6857687062919;-0.3705011923265223;-1.0205061701900209;12.842106272902166;7;8.3;0;0;0;0;0;0;0;0;0;0;0;0;0;0;0;0;0
84;2022-04-12 20:59:40.948;5.173923284614803;52.36971155034828;16;0.04;-0.06;10.96338463;-0.12210801;-1.12770343;-0.13;8.23529435;4.313725470000001;38.4313736;46.66666794;1534.75;84;8.4;0.04307851714635614;-0.004902897699865426;0.10461317075286691;9.801950826152718;-0.34791314693185343;-1.0302543305384355;13.129274568710942;7;8.4;0;0;0;0;0;0;0;0;0;0;0;0;0;0;0;0;0
85;2022-04-12 20:59:41.050;5.173923284614803;52.36971155034828;16;0.0;0.05;9.46696281;0.14365649;-1.07263517;-0.03;8.23529435;4.313725470000001;38.4313736;46.66666794;1534.75;85;8.5;0.03916120882932474;8.965060578114101e-05;0.10423819007895332;9.771488975822015;-0.3032126800933347;-1.0341081961285978;13.39032154416036;7;8.5;0;0;0;0;0;0;0;0;0;0;0;0;0;0;0;0;0
86;2022-04-12 20:59:41.150;5.173923284614803;52.36971155034828;16;0.31999999;0.15000001;7.61858225;-0.39505535;-0.2466103;-0.05;7.84313775;3.9215688699999998;38.4313736;46.66666794;1534.75;86;8.6;0.0646984046072953;0.013721280044699384;0.10571595391241029;9.575721139486001;-0.3115641058914429;-0.9624995391463056;13.627624488456458;7;8.6;0;0;0;0;0;0;0;0;0;0;0;0;0;0;0;0;0
87;2022-04-12 20:59:41.249;5.173923284614803;52.36971155034828;16;0.13;0.13;9.63216782;1.68556952;-0.78532213;0.11;7.84313775;3.9215688699999998;38.4313736;43.52941132;1534.75;87;8.700000000000001;0.07063626558148636;0.024294480732972388;0.09251054339887518;9.58085382482594;-0.12996514577246385;-0.9463888328618515;13.843344117990881;7;8.700000000000001;0;0;0;0;0;0;0;0;0;0;0;0;0;0;0;0;0
88;2022-04-12 20:59:41.349;5.173923284614803;52.36971155034828;18;-0.12;0.02;9.921875;1.85795724;-0.38308397;0.01;7.84313775;3.9215688699999998;38.4313736;43.52941132;1588.25;88;8.8;0.05330210714576512;0.023903992547540134;0.08959893845751221;9.611862169761633;0.050792494898836325;-0.8951686953362041;14.22130017688525;7;8.8;0;0;0;0;0;0;0;0;0;0;0;0;0;0;0;0;0
89;2022-04-12 20:59:41.450;5.173923284614803;52.36971155034828;18;-0.02;0.15000001;9.12458134;1.11333776;-0.57941449;0.01;7.84313775;3.9215688699999998;32.15686417;43.52941132;1588.25;89;8.9;0.04663702474308469;0.03536942484813164;0.08695212951479502;9.567555573265718;0.14740570322577218;-0.8664583638122588;14.564883010677072;7;8.9;0;0;0;0;0;0;0;0;0;0;0;0;0;0;0;0;0
90;2022-04-12 20:59:41.549;5.173923284614803;52.36971155034828;18;0.09;0.14;9.49329948;1.4772675;-0.76137936;0.02;7.84313775;3.9215688699999998;32.15686417;43.52941132;1588.25;90;9.0;0.05057978803389964;0.04488292313466475;0.08363677955482365;9.560803864073423;0.2683229198861409;-0.856904092307323;14.8772198160949;7;9.0;0;0;0;0;0;0;0;0;0;0;0;0;0;0;0;0;0
91;2022-04-12 20:59:41.661;5.173923284614803;52.36971155034828;18;-0.02;0.28999999;10.37199879;2.20991564;-1.41262209;-0.08;7.84313775;3.9215688699999998;32.15686417;43.52941132;1588.25;91;9.1;0.0441624454427609;0.06716975959065415;0.08971524692549804;9.634560330235718;0.4448588093315312;-0.9074317699130234;15.161153089843372;7;9.1;0;0;0;0;0;0;0;0;0;0;0;0;0;0;0;0;0
92;2022-04-12 20:59:41.749;5.173923284614803;52.36971155034828;18;0.16;0.27000001;9.81173801;1.88189995;-0.99601829;-0.02;7.84313775;3.9215688699999998;32.15686417;42.74509811;1588.25;92;9.200000000000001;0.054694621576260656;0.08561148110901981;0.08978564534186008;9.650669670055043;0.575517389465204;-0.9154862289023905;15.419266581517931;7;9.200000000000001;0;0;0;0;0;0;0;0;0;0;0;0;0;0;0;0;0
93;2022-04-12 20:59:41.850;5.173978771115042;52.36967963072095;19;0.08;0.17;10.2714386;1.35994804;-0.24421602;0.04;7.84313775;3.9215688699999998;32.15686417;42.74509811;1735.75;93;9.3;0.05699540630031533;0.0932841510015128;0.08439439542266511;9.707110464864309;0.646838435434531;-0.8544538184600816;15.744829654007965;7;9.3;0;0;0;0;0;0;0;0;0;0;0;0;0;0;0;0;0
94;2022-04-12 20:59:41.952;5.173978771115042;52.36967963072095;19;0.0;0.17;9.73991013;1.80049467;-0.29689008;0.01;7.84313775;3.9215688699999998;29.80392075;42.74509811;1735.75;94;9.4;0.05181340011783964;0.10025913424330841;0.08222097092633204;9.710092601119653;0.7517285332166184;-0.803760281430091;16.04078881901613;7;9.4;0;0;0;0;0;0;0;0;0;0;0;0;0;0;0;0;0
95;2022-04-12 20:59:42.050;5.173978771115042;52.36967963072095;19;0.01;0.15000001;10.44382668;1.69035804;-1.13488626;0.0;7.84313775;3.9215688699999998;29.80392075;42.74509811;1735.75;95;9.5;0.04801177802780662;0.10478151251250707;0.08115436206735398;9.77680278672093;0.8370675550920981;-0.8338658416372862;16.309836601855995;7;9.5;0;0;0;0;0;0;0;0;0;0;0;0;0;0;0;0;0
96;2022-04-12 20:59:42.149;5.173978771115042;52.36967963072095;19;0.13;0.14;9.1892271;2.09977889;-2.40624619;-0.05;7.84313775;3.9215688699999998;29.80392075;42.74509811;1735.75;96;9.600000000000001;0.05546597271570587;0.10798350245728416;0.08473063092958948;9.723381655522605;0.9518705828759294;-0.976823317213445;16.554420533909397;7;9.600000000000001;0;0;0;0;0;0;0;0;0;0;0;0;0;0;0;0;0
97;2022-04-12 20:59:42.249;5.173978771115042;52.36967963072095;19;0.06;0.12;10.07989693;0.83320761;-0.51237482;0.01;7.84313775;3.9215688699999998;29.80392075;44.31372452;1735.75;97;9.700000000000001;0.05587819320909908;0.10907600725165872;0.08252670005726999;9.75579498105692;0.9410820926090397;-0.934597018897981;16.776765462806555;7;9.700000000000001;0;0;0;0;0;0;0;0;0;0;0;0;0;0;0;0;0
98;2022-04-12 20:59:42.349;5.173978771115042;52.36967963072095;19;0.08;0.15000001;10.22594738;1.82204318;-0.6847626;-0.03;7.84313775;3.9215688699999998;29.80392075;44.31372452;1735.75;98;9.8;0.05807125979113581;0.11279666812953383;0.08415981404732169;9.798539520200455;1.02117585745756;-0.9118829859120935;16.978893827808967;7;9.8;0;0;0;0;0;0;0;0;0;0;0;0;0;0;0;0;0
99;2022-04-12 20:59:42.449;5.173978771115042;52.36967963072095;19;0.08;0.15000001;10.23552513;-0.45012367;-0.43096948;0.03;7.84313775;3.9215688699999998;29.80392075;44.31372452;1868.25;99;9.9;0.06006492630014277;0.1161790355616722;0.08018949920700824;9.838268367679946;0.8874116482658162;-0.8681604035232291;17.16264408652268;7;9.9;0;0;0;0;0;0;0;0;0;0;0;0;0;0;0;0;0
100;2022-04-12 20:59:42.549;5.173978771115042;52.36967963072095;21;0.04;-0.01;10.34087276;0.97207558;-0.1699935;0.02;7.84313775;3.9215688699999998;29.80392075;44.31372452;1868.25;100;10.0;0.05824072175039424;0.10470745738035359;0.07748932296980594;9.883962690473812;0.8951088771097616;-0.8046864977216487;17.511517638892514;7;10.0;1;0;0;0;0;0;0;0;0;0;0;0;0;0;0;0;0
101;2022-04-12 20:59:42.650;5.173978771115042;52.36967963072095;21;0.06;0.15000001;10.05595398;1.16361761;-1.05348086;-0.03;7.84313775;3.9215688699999998;29.80392075;44.31372452;1868.25;101;10.100000000000001;0.058400665728828904;0.1088252091123895;0.07958037537644744;9.899599199996446;0.9195202259072226;-0.8273055235203419;17.82867141923379;7;10.100000000000001;1;0;0;0;0;0;0;0;0;0;0;0;0;0;0;0;0
102;2022-04-12 20:59:42.749;5.173978771115042;52.36967963072095;21;0.02;0.11;10.20918751;0.83799618;-0.57941449;-0.01;7.84313775;3.9215688699999998;29.80392075;44.31372452;1868.25;102;10.200000000000001;0.05490950578013672;0.10893201410696635;0.07966302939395144;9.927745126322309;0.912108544923969;-0.8047687463202419;18.116989736512387;7;10.200000000000001;1;0;0;0;0;0;0;0;0;0;0;0;0;0;0;0;0
103;2022-04-12 20:59:42.849;5.174056257331776;52.36965775201362;21;0.06;0.06;10.63536835;0.33519846;-1.20192599;-0.02;8.62745095;3.9215688699999998;29.80392075;44.31372452;1868.25;103;10.3;0.05537230091962474;0.10448342870130967;0.08064730459666969;9.992077698831482;0.859659574019999;-0.8408757398750619;18.37909456944391;7;10.3;1;0;0;0;0;0;0;0;0;0;0;0;0;0;0;0;0
104;2022-04-12 20:59:42.949;5.174056257331776;52.36965775201362;21;0.04;0.08;9.68723583;0.37350687;-0.37111259;-0.03;8.62745095;4.313725470000001;29.80392075;47.05882263;1868.25;104;10.4;0.0539747560478224;0.10225756216353123;0.08245122364087212;9.964363552932074;0.8154618822126117;-0.7981680746724193;18.617369435588152;7;10.4;1;0;0;0;0;0;0;0;0;0;0;0;0;0;0;0;0
105;2022-04-12 20:59:43.054;5.174056257331776;52.36965775201362;21;0.0;0.04;9.37119198;0.07661679;-0.49800915;0.01;8.62745095;4.313725470000001;29.80392075;47.05882263;1821.5;105;10.5;0.0490677590457388;0.09659755194277532;0.08045462334441268;9.910436655559533;0.7482913951560474;-0.7708797819340287;18.83398108689942;7;10.5;1;0;0;0;0;0;0;0;0;0;0;0;0;0;0;0;0
106;2022-04-12 20:59:43.151;5.174056257331776;52.36965775201362;23;0.08;0.07;9.77103519;-0.18435916;-1.18995464;0.0;8.62745095;4.313725470000001;27.84313774;47.05882263;1821.5;106;10.600000000000001;0.051879885667760396;0.0941795026326888;0.07954867112299244;9.897763323128544;0.663501823683495;-0.808978915027226;19.212724182516027;7;10.600000000000001;1;0;0;0;0;0;0;0;0;0;0;0;0;0;0;0;0
107;2022-04-12 20:59:43.251;5.174056257331776;52.36965775201362;23;0.02;-0.04;10.21876526;-0.42618093;-0.61293435;-0.01;8.62745095;4.313725470000001;27.84313774;47.05882263;1821.5;107;10.700000000000001;0.048981616129917055;0.08198095307902561;0.07963420573463952;9.926946305304797;0.5644364015603551;-0.7911560784963924;19.55703363982142;7;10.700000000000001;1;0;0;0;0;0;0;0;0;0;0;0;0;0;0;0;0
108;2022-04-12 20:59:43.350;5.174056257331776;52.36965775201362;23;-0.02;0.0;9.73991013;-0.38547826;-0.55786604;-0.01;8.62745095;4.313725470000001;27.84313774;47.05882263;1821.5;108;10.8;0.042710367120748716;0.07452790979573637;0.0797119639699506;9.909942493349309;0.478077865557293;-0.7699472404776663;19.870040214416672;7;10.8;1;0;0;0;0;0;0;0;0;0;0;0;0;0;0;0;0
109;2022-04-12 20:59:43.449;5.174056257331776;52.36965775201362;23;0.02;0.0;9.63216782;-0.42857519;-0.05506832;0.06;0.0;4.313725470000001;27.84313774;47.05882263;1821.5;109;10.9;0.040645730528787664;0.06775245571044912;0.0734188384539496;9.884689543810108;0.3956525544751719;-0.7049564294444386;20.15458997401866;7;10.9;1;0;0;0;0;0;0;0;0;0;0;0;0;0;0;0;0
110;2022-04-12 20:59:43.550;5.174056257331776;52.36965775201362;23;0.09;0.04;9.77821827;-0.27055305;-0.02394275;0.08;0.0;0.0;27.84313774;21.1764698;1821.5;110;11.0;0.04513259641713028;0.0652294410213636;0.06587961775225196;9.875010090914435;0.33508686819577377;-0.6430445202918526;20.413270191975702;7;11.0;1;0;0;0;0;0;0;0;0;0;0;0;0;0;0;0;0
111;2022-04-12 20:59:43.650;5.174056257331776;52.36965775201362;23;0.04;0.0;9.98891449;-0.7589851;-0.33519846;0.05;0.0;0.0;27.84313774;21.1764698;1592.5;111;11.100000000000001;0.04466598595403098;0.05929935472408471;0.061753149818476114;9.885365275715051;0.23562348041800915;-0.6150578677125347;20.64843288460561;7;11.100000000000001;1;0;0;0;0;0;0;0;0;0;0;0;0;0;0;0;0
112;2022-04-12 20:59:43.750;5.174056257331776;52.36965775201362;24;0.02;0.0;9.74230385;-1.0175668;-0.07422252;0.09;0.0;0.0;14.50980377;21.1764698;1592.5;112;11.200000000000001;0.04242357645979185;0.053908390978165174;0.054365391819225936;9.872359418179874;0.12169469653988904;-0.565889984426178;20.953127208771146;7;11.200000000000001;1;0;0;0;0;0;0;0;0;0;0;0;0;0;0;0;0
113;2022-04-12 20:59:43.850;5.174137270041913;52.36963587272702;24;0.05;-0.01;9.91469193;-0.49800915;0.07901107;0.07;0.0;0.0;14.50980377;21.1764698;1592.5;113;11.3;0.043112355397927835;0.04809842623130113;0.04946749169710874;9.876207901885328;0.06535690666933942;-0.5072614955206807;21.23012093736098;7;11.3;1;0;0;0;0;0;0;0;0;0;0;0;0;0;0;0;0
114;2022-04-12 20:59:43.953;5.174137270041913;52.36963587272702;24;0.11;0.01;9.9266634;-0.60814577;-0.25858167;0.08;0.0;0.0;14.50980377;21.1764698;1592.5;114;11.4;0.04919315599532538;0.044634872769889145;0.04410576476438963;9.880794845033094;0.004128326966700464;-0.48465384592286503;21.481932499257308;7;11.4;1;0;0;0;0;0;0;0;0;0;0;0;0;0;0;0;0
115;2022-04-12 20:59:44.051;5.174137270041913;52.36963587272702;24;0.03;-0.02;9.84046936;-0.63927138;0.30646718;0.06;0.0;0.0;14.50980377;14.50980377;1592.5;115;11.5;0.0474482960765637;0.03875888244928173;0.041049694250350585;9.877128833953103;-0.054363479211638865;-0.4127326168473222;21.710851341778696;7;11.5;1;0;0;0;0;0;0;0;0;0;0;0;0;0;0;0;0
116;2022-04-12 20:59:44.148;5.174137270041913;52.36963587272702;24;0.05;-0.02;9.71117878;-0.72785956;0.11253092;0.1;0.0;0.0;14.50980377;14.50980377;1592.5;116;11.600000000000001;0.04768027249093753;0.033417089172245985;0.03463504086135304;9.86204224881773;-0.11559127467848693;-0.3649807006629915;21.918958752997362;7;11.600000000000001;1;0;0;0;0;0;0;0;0;0;0;0;0;0;0;0;0
117;2022-04-12 20:59:44.249;5.174137270041913;52.36963587272702;24;0.0;0.0;9.48372269;-0.4668836;0.48603779;0.11;0.0;0.0;14.50980377;14.50980377;1557.5;117;11.700000000000001;0.04334564569075219;0.03037913232462662;0.027894450989505964;9.82764911276765;-0.1475273574332044;-0.2876143735770417;22.108146790109846;7;11.700000000000001;1;0;0;0;0;0;0;0;0;0;0;0;0;0;0;0;0
118;2022-04-12 20:59:44.350;5.174137270041913;52.36963587272702;23;0.11;0.0;10.0487709;-0.22985038;0.01436565;0.06;0.0;0.0;10.5882349;14.50980377;1557.5;118;11.8;0.049405204343252664;0.02761736025375671;0.026312165761982552;9.847751331939461;-0.15501135737385652;-0.26016131842840495;22.189225316648066;7;11.8;1;0;0;0;0;0;0;0;0;0;0;0;0;0;0;0;0
119;2022-04-12 20:59:44.450;5.174137270041913;52.36963587272702;23;0.02;-0.02;10.06074238;-0.51955765;0.27055305;0.1;0.0;0.0;10.5882349;14.50980377;1557.5;119;11.9;0.046731975113808125;0.02328846262824024;0.021237325044199833;9.867114363348426;-0.18815228690313765;-0.21191403724620328;22.26293290108549;7;11.9;1;0;0;0;0;0;0;0;0;0;0;0;0;0;0;0;0
120;2022-04-12 20:59:44.551;5.174137270041913;52.36963587272702;23;0.07;-0.03;9.59385872;-0.38308397;-0.33998701;0.09;0.0;0.0;10.5882349;14.50980377;1557.5;120;12.0;0.04884727084572744;0.018444009430798842;0.017532942806486713;9.842272697632279;-0.2058735227745733;-0.22355714893984316;22.329939658044793;7;12.0;1;0;0;0;0;0;0;0;0;0;0;0;0;0;0;0;0
121;2022-04-12 20:59:44.649;5.174137270041913;52.36963587272702;23;0.05;-0.03;9.91469193;-0.71109962;0.10295381;0.08;0.0;0.0;10.5882349;14.50980377;1557.5;121;12.100000000000001;0.048952065339387424;0.014039969314051772;0.015074427907878829;9.848856322900271;-0.2518035774160403;-0.19387406988374795;22.390854777608286;7;12.100000000000001;1;0;0;0;0;0;0;0;0;0;0;0;0;0;0;0;0
122;2022-04-12 20:59:44.750;5.174137270041913;52.36963587272702;23;0.02;0.0;9.83328629;-0.28252444;0.08619389;0.03;0.0;0.0;10.5882349;14.50980377;1557.5;122;12.200000000000001;0.04632003806947972;0.012763598123600681;0.017384909549500248;9.847440853892914;-0.25459640573858716;-0.16841313992243698;22.44623206478537;7;12.200000000000001;1;0;0;0;0;0;0;0;0;0;0;0;0;0;0;0;0
123;2022-04-12 20:59:44.850;5.174236580919645;52.36961873521937;23;0.06;0.01;10.22355366;-0.63208854;0.26337022;0.09;0.0;0.0;10.5882349;14.50980377;1557.5;123;12.3;0.04756368013451075;0.012512360079605635;0.014030758515856293;9.881633179079731;-0.2889141253177949;-0.12915981801209225;22.496574975240538;7;12.3;1;0;0;0;0;0;0;0;0;0;0;0;0;0;0;0;0
124;2022-04-12 20:59:44.949;5.174236580919645;52.36961873521937;23;0.09;0.0;10.16369629;-0.67757976;0.42378664;0.11;0.0;0.0;10.5882349;14.50980377;1557.5;124;12.4;0.051421553233212;0.011374865181240758;0.009163340596578903;9.90727545181225;-0.32424760148120546;-0.07889162152029924;22.542341193102704;7;12.4;1;0;0;0;0;0;0;0;0;0;0;0;0;0;0;0;0
125;2022-04-12 20:59:45.050;5.174236580919645;52.36961873521937;23;-0.04;-0.06;8.94501114;-1.03432667;-0.4668836;0.02;0.0;0.0;10.5882349;18.8235302;1557.5;125;12.5;0.043110452335822225;0.004886201566593452;0.012920288871667802;9.819796345380665;-0.38880063711526114;-0.1141638343243934;22.583946792506595;7;12.5;1;0;0;0;0;0;0;0;0;0;0;0;0;0;0;0;0
126;2022-04-12 20:59:45.150;5.174236580919645;52.36961873521937;23;0.01;0.0;9.49090576;-0.64645422;-0.09098244;0.03;0.0;0.0;10.5882349;18.8235302;1557.5;126;12.600000000000001;0.04010039455327822;0.004441998965450156;0.015426596483382585;9.789897035758143;-0.41222381975548994;-0.11205642317553181;22.621770020726675;7;12.600000000000001;1;0;0;0;0;0;0;0;0;0;0;0;0;0;0;0;0
127;2022-04-12 20:59:45.249;5.174236580919645;52.36961873521937;23;0.03;0.01;8.82769108;0.37590113;-0.45491222;0.06;0.0;0.0;10.5882349;18.8235302;1408.0;127;12.700000000000001;0.039182172246168004;0.004947274329293135;0.014977769090052703;9.702423326889544;-0.34057573652088735;-0.1432252888179234;22.656154737319145;7;12.700000000000001;1;0;0;0;0;0;0;0;0;0;0;0;0;0;0;0;0
128;2022-04-12 20:59:45.350;5.174236580919645;52.36961873521937;23;0.28;-0.19;10.79099655;-1.38628507;-0.55786604;0.31999999;0.0;0.0;14.50980377;18.8235302;1408.0;128;12.8;0.0610748021898026;-0.012775286227038093;-0.009066726273309927;9.801384981690568;-0.43564065625708287;-0.18092007499654106;22.687413540556246;7;12.8;1;0;0;0;0;0;0;0;0;0;0;0;0;0;0;0;0
129;2022-04-12 20:59:45.451;5.174236580919645;52.36961873521937;23;-0.1;0.02;8.3584137;-0.17478207;-1.2665714;-0.05;0.0;0.0;14.50980377;18.8235302;1408.0;129;12.9;0.046431577458521577;-0.00979570236084749;0.0027111632769487998;9.670205228735282;-0.411926140704578;-0.27961606043755316;22.715830609591023;7;12.9;1;0;0;0;0;0;0;0;0;0;0;0;0;0;0;0;0
130;2022-04-12 20:59:45.553;5.174236580919645;52.36961873521937;23;0.03;-0.15000001;8.97853088;0.21787901;-0.04549122;0.05;0.0;0.0;14.50980377;18.8235302;1408.0;130;13.0;0.04493779204219225;-0.02254159669671368;0.0043273836347466205;9.607325504764896;-0.35467091054627764;-0.25833190356771635;22.74166428820354;7;13.0;1;0;0;0;0;0;0;0;0;0;0;0;0;0;0;0;0
131;2022-04-12 20:59:45.652;5.174236580919645;52.36961873521937;23;-0.05;-0.28999999;11.63378143;0.7589851;0.72546524;0.07;0.0;0.0;14.50980377;14.90196037;1408.0;131;13.100000000000001;0.036307054011828;-0.046856079654110754;0.0039784857415552655;9.79154940385253;-0.25342910708518745;-0.16889549222395897;22.765149433628157;7;13.100000000000001;1;0;0;0;0;0;0;0;0;0;0;0;0;0;0;0;0
132;2022-04-12 20:59:45.749;5.174236580919645;52.36961873521937;23;0.1;0.07;9.48132801;-0.12210801;1.03193247;0.19;0.0;0.0;14.50980377;14.90196037;1412.25;132;13.200000000000001;0.042097339920363984;-0.036232766493598315;-0.007247818947284129;9.763347370841146;-0.24149078823136882;-0.059728972755184725;22.786499551823777;7;13.200000000000001;1;0;0;0;0;0;0;0;0;0;0;0;0;0;0;0;0
133;2022-04-12 20:59:45.850;5.174331831606411;52.369603484524326;22;0.01;-0.05;9.5866766;-0.87151605;-0.62251145;0.0;0.0;0.0;12.94117641;14.90196037;1412.25;133;13.3;0.03917939163945025;-0.03748433673096418;-0.00018076806061168016;9.747286346053963;-0.2987659747132133;-0.11089116146238699;22.71499938947769;7;13.3;1;0;0;0;0;0;0;0;0;0;0;0;0;0;0;0;0
134;2022-04-12 20:59:45.950;5.174331831606411;52.369603484524326;22;0.02;-0.11;10.56832886;-1.36234236;-0.37350687;0.01;0.0;0.0;12.94117641;14.90196037;1412.25;134;13.4;0.037435806079056375;-0.04407668677809526;0.005334726914204502;9.821926767329954;-0.39545498668101453;-0.13476537843165437;22.649999277137344;7;13.4;1;0;0;0;0;0;0;0;0;0;0;0;0;0;0;0;0
135;2022-04-12 20:59:46.052;5.174331831606411;52.369603484524326;22;0.09;-0.16;8.66966915;-0.86433321;0.07422252;0.04;0.0;0.0;12.94117641;14.90196037;1412.25;135;13.5;0.0422143803802032;-0.05461519453680118;0.007621531653781308;9.71717582894869;-0.4380803797706392;-0.11576643397531643;22.590908295048585;7;13.5;1;0;0;0;0;0;0;0;0;0;0;0;0;0;0;0;0
136;2022-04-12 20:59:46.150;5.174331831606411;52.369603484524326;22;0.08;-0.08;9.82370949;-2.33920646;-0.62730002;-0.04;0.0;0.0;12.94117641;14.90196037;1412.25;136;13.600000000000001;0.04564944403983176;-0.05692290904911499;0.016973186914770004;9.726860727894024;-0.6109103922536552;-0.1622695864897788;22.537189244496584;7;13.600000000000001;1;0;0;0;0;0;0;0;0;0;0;0;0;0;0;0;0
137;2022-04-12 20:59:46.250;5.174331831606411;52.369603484524326;22;-0.12;-0.19;8.135746;-2.33920646;-0.69194543;0.0;0.0;0.0;12.94117641;14.90196037;1412.25;137;13.700000000000001;0.03059037445746013;-0.06902084987870867;0.021838317542857526;9.582213653828802;-0.7680285214088196;-0.2104220293171982;22.488353763890743;7;13.700000000000001;1;0;0;0;0;0;0;0;0;0;0;0;0;0;0;0;0
138;2022-04-12 20:59:46.350;5.174331831606411;52.369603484524326;22;0.1;-0.16;11.09506989;-1.49642181;0.58180881;0.12;0.0;0.0;12.94117641;14.90196037;1412.25;138;13.8;0.03690035154457566;-0.07729169629494172;0.015352051781162113;9.719746281497128;-0.8342462098849256;-0.1384009169034154;22.443957888873832;7;13.8;1;0;0;0;0;0;0;0;0;0;0;0;0;0;0;0;0
139;2022-04-12 20:59:46.452;5.174331831606411;52.369603484524326;22;0.13;-0.14;9.9266634;-2.55708551;0.02394275;0.08;0.0;0.0;12.94117641;14.90196037;1378.0;139;13.9;0.045363969519623064;-0.08299246031745011;0.013091817995327978;9.738556958793557;-0.990868215558272;-0.12364237806750641;22.403598016084025;7;13.9;1;0;0;0;0;0;0;0;0;0;0;0;0;0;0;0;0
140;2022-04-12 20:59:46.549;5.174331831606411;52.369603484524326;22;0.04;-0.23;10.09905148;-2.89228392;-0.15083931;0.06;0.0;0.0;13.33333302;14.90196037;1378.0;140;14.0;0.0448763352161657;-0.09635680158632418;0.012855245105475054;9.771329235762247;-1.16372444064053;-0.126114830028794;22.366907233869487;7;14.0;1;0;0;0;0;0;0;0;0;0;0;0;0;0;0;0;0
141;2022-04-12 20:59:46.650;5.174331831606411;52.369603484524326;22;-0.04;-0.23;8.95458794;-2.63849092;0.32083282;0.1;0.0;0.0;13.33333302;14.90196037;1378.0;141;14.100000000000001;0.03716029451767745;-0.10850619935909299;0.009003810447012678;9.697079928671084;-1.2977942982341997;-0.08548317164094436;22.333551986592415;7;14.100000000000001;1;0;0;0;0;0;0;0;0;0;0;0;0;0;0;0;0
142;2022-04-12 20:59:46.750;5.174331831606411;52.369603484524326;22;0.12;-0.22;9.34964275;-3.35437894;-1.1827718;0.05;0.0;0.0;13.33333302;14.90196037;1378.0;142;14.200000000000001;0.04469118590603008;-0.11864201162704566;0.010047967118720906;9.665494692562223;-1.4847567636113534;-0.18523680347404967;22.30322904219309;7;14.200000000000001;1;0;0;0;0;0;0;0;0;0;0;0;0;0;0;0;0
143;2022-04-12 20:59:46.849;5.174421077795323;52.36958543530261;22;0.01;-0.11;9.00726223;-1.97288239;-1.03911531;0.07;0.0;0.0;13.33333302;14.90196037;1378.0;143;14.3;0.0415374382790891;-0.11785637334605356;0.009179016429068432;9.6056553122538;-1.5291318691509044;-0.26286220725662923;22.27566273544225;7;14.3;1;0;0;0;0;0;0;0;0;0;0;0;0;0;0;0;0
144;2022-04-12 20:59:46.954;5.174421077795323;52.36958543530261;22;0.06;-0.36000001;8.97374153;-4.64728737;0.16041641;0.0;0.0;0.0;13.33333302;14.90196037;1378.0;144;14.4;0.04321585465192818;-0.1398694531386843;0.014752704120734199;9.548208547585375;-1.8126008332522283;-0.22438229465210893;22.250602461817067;7;14.4;1;0;0;0;0;0;0;0;0;0;0;0;0;0;0;0;0
145;2022-04-12 20:59:47.049;5.174421077795323;52.36958543530261;22;0.06;-0.25;10.06792545;-2.84918714;0.36871833;0.1;0.0;0.0;13.33333302;14.90196037;1372.25;145;14.5;0.04474168742814775;-0.14988133009632068;0.0107287746497578;9.595455581474452;-1.9068360373341475;-0.17046400724914326;22.22782039921501;7;14.5;1;0;0;0;0;0;0;0;0;0;0;0;0;0;0;0;0
146;2022-04-12 20:59:47.149;5.174421077795323;52.36958543530261;22;0.05;-0.18000001;10.06553173;-2.10456753;-0.18914771;0.04;0.0;0.0;13.33333302;14.90196037;1372.25;146;14.600000000000001;0.045219716237075575;-0.15261939415852663;0.012525207523274663;9.638189811955144;-1.9248116423661783;-0.1721625270785203;22.20710943679159;7;14.600000000000001;1;0;0;0;0;0;0;0;0;0;0;0;0;0;0;0;0
147;2022-04-12 20:59:47.250;5.174421077795323;52.36958543530261;22;0.0;-0.09;9.88356686;-2.3679378;0.3423813;0.06;0.0;0.0;13.33333302;14.90196037;1372.25;147;14.700000000000001;0.04110882986798751;-0.14692671770436125;0.012340144882737991;9.660496833007779;-1.9650958686459905;-0.12538578053845195;22.188281292091336;7;14.700000000000001;1;0;0;0;0;0;0;0;0;0;0;0;0;0;0;0;0
148;2022-04-12 20:59:47.350;5.174421077795323;52.36958543530261;22;0.23;-0.15000001;10.43903828;-4.01998758;-0.22266756;0.30000001;0.0;0.0;13.33333302;15.68627453;1372.25;148;14.8;0.05828076610184895;-0.14720610810303286;-0.009646291420360761;9.731273376314833;-2.1519043330660077;-0.13422958468484364;22.171164799353416;7;14.8;1;0;0;0;0;0;0;0;0;0;0;0;0;0;0;0;0
149;2022-04-12 20:59:47.449;5.174421077795323;52.36958543530261;22;-0.04;-0.19;8.94740486;-2.31526375;-1.32163966;-0.06;0.0;0.0;13.33333302;15.68627453;1372.25;149;14.9;0.04934614547870248;-0.1510964643166903;0.0030933356747333274;9.660012558054179;-2.166755198331049;-0.24217602189564497;22.155604353429798;7;14.9;1;0;0;0;0;0;0;0;0;0;0;0;0;0;0;0;0
150;2022-04-12 20:59:47.550;5.174421077795323;52.36958543530261;21;0.07;-0.14;10.30016994;-1.53233588;0.07901107;0.03;0.0;0.0;14.50980377;15.68627453;1340.5;150;15.0;0.05122376967214986;-0.15008769426646754;0.006492990705678464;9.718208716389466;-2.109080682435702;-0.21297717895112805;22.050549353172315;7;15.0;1;0;0;0;0;0;0;0;0;0;0;0;0;0;0;0;0
151;2022-04-12 20:59:47.651;5.174421077795323;52.36958543530261;21;0.08;-0.14;9.78779507;-2.16681862;-0.00239427;0.07;0.0;0.0;14.50980377;15.68627453;1340.5;151;15.100000000000001;0.0538397919474971;-0.1491706306828323;0.005947220362707256;9.72453475176767;-2.1143295885321556;-0.19383326835730672;21.95504481772972;7;15.100000000000001;1;0;0;0;0;0;0;0;0;0;0;0;0;0;0;0;0
152;2022-04-12 20:59:47.749;5.174421077795323;52.36958543530261;21;0.05;-0.22;11.42069054;-1.61374128;-0.16281068;0.06;0.0;0.0;14.50980377;15.68627453;1340.5;152;15.200000000000001;0.05349071979015092;-0.15560966724759448;0.006360156885149862;9.878730804129155;-2.0688215393485274;-0.1910130317422978;21.868222521249695;7;15.200000000000001;1;0;0;0;0;0;0;0;0;0;0;0;0;0;0;0;0
153;2022-04-12 20:59:47.849;5.174506684053869;52.36956835999327;21;0.12;-0.14;10.67128277;-1.79091752;-0.06225114;0.06;0.0;0.0;14.50980377;15.68627453;1340.5;153;15.3;0.059537020543843;-0.1541906059895832;0.006735553690449966;9.950781013264864;-2.0435575269229016;-0.17930740027805916;21.78929316781148;7;15.3;1;0;0;0;0;0;0;0;0;0;0;0;0;0;0;0;0
154;2022-04-12 20:59:47.950;5.174506684053869;52.36956835999327;21;-0.04;-0.25999999;10.72635078;-2.31047511;0.36632404;0.12;0.0;0.0;14.50980377;18.03921509;1340.5;154;15.4;0.0504881970212337;-0.1638096445916532;0.0016222759378027723;10.021287382757473;-2.0678227710617114;-0.12970452303211474;21.717539215923985;7;15.4;1;0;0;0;0;0;0;0;0;0;0;0;0;0;0;0;0
155;2022-04-12 20:59:48.065;5.174506684053869;52.36956835999327;21;0.08;-0.09;9.45020294;-2.07344198;-0.19393626;0.04;0.0;0.0;14.50980377;18.03921509;1340.5;155;15.5;0.05317108913726914;-0.15709967456017795;0.004246571768249427;9.969370597118624;-2.0683336084161668;-0.13554377388488;21.65230835535156;7;15.5;1;0;0;0;0;0;0;0;0;0;0;0;0;0;0;0;0
156;2022-04-12 20:59:48.152;5.174506684053869;52.36956835999327;21;-0.02;-0.20999999;10.07750225;-2.74623322;0.0287313;0.05;0.0;0.0;14.50980377;18.03921509;1314.75;156;15.600000000000001;0.04651916983290904;-0.16190879567112312;0.005723203894085455;9.979200750498801;-2.1299608653817312;-0.1206096715217182;21.593007576963277;7;15.600000000000001;1;0;0;0;0;0;0;0;0;0;0;0;0;0;0;0;0
157;2022-04-12 20:59:48.250;5.174506684053869;52.36956835999327;21;0.01;-0.20999999;9.51963711;-2.46370888;0.32801566;0.1;0.0;0.0;15.29411793;18.03921509;1314.75;157;15.700000000000001;0.043199244345265175;-0.1662807236890431;0.002520140798216511;9.937422225678354;-2.1603016027328645;-0.0798255387132154;21.539097781693172;7;15.700000000000001;1;0;0;0;0;0;0;0;0;0;0;0;0;0;0;0;0
158;2022-04-12 20:59:48.349;5.174506684053869;52.36956835999327;21;0.03;-0.19;9.97215462;-2.11175036;-0.19633053;0.11;0.0;0.0;15.29411793;18.03921509;1314.75;158;15.8;0.04199931272657853;-0.16843702210078454;-0.0013008257305908988;9.940579716898993;-2.155887852236413;-0.09041690433407942;21.490088879600265;7;15.8;1;0;0;0;0;0;0;0;0;0;0;0;0;0;0;0;0
159;2022-04-12 20:59:48.453;5.174506684053869;52.36956835999327;21;0.01;-0.23;9.42386532;-2.16442442;-0.0095771;0.05;0.0;0.0;15.29411793;18.03921509;1314.75;159;15.9;0.03909028360359398;-0.17403365778907925;0.0006801152624805046;9.893605669622158;-2.1566639040362374;-0.08306782946132808;21.445535334472908;7;15.9;1;0;0;0;0;0;0;0;0;0;0;0;0;0;0;0;0
160;2022-04-12 20:59:48.550;5.174506684053869;52.36956835999327;21;0.02;-0.17;9.79497814;-2.48525715;-0.0191542;0.07;0.0;0.0;15.29411793;18.03921509;1314.75;160;16.0;0.03735480289998619;-0.17366696154698746;0.0006627884166827969;9.884639528622998;-2.186536023777748;-0.07725749825143494;21.40503211347269;7;16.0;1;0;0;0;0;0;0;0;0;0;0;0;0;0;0;0;0
161;2022-04-12 20:59:48.651;5.174506684053869;52.36956835999327;21;0.02;-0.17;9.68484116;-2.14048171;-0.35914123;0.03;2.7450981200000015;1.9607839600000005;15.29411793;16.07843208;1314.75;161;16.1;0.03577709323469131;-0.17333360134069256;0.004283401091929859;9.866476036988823;-2.1823492671551343;-0.10288329709409737;21.368211004995498;7;16.1;1;0;0;0;0;0;0;0;0;0;0;0;0;0;0;0;0
162;2022-04-12 20:59:48.751;5.174506684053869;52.36956835999327;21;0.03;-0.2;9.68005276;-2.43737173;0.18675344;0.03;2.7450981200000015;1.9607839600000005;15.29411793;16.07843208;1314.75;162;16.2;0.03525190284658923;-0.1757578198347039;0.007574867036570357;9.849528463318887;-2.2055331315650015;-0.07655267991630527;21.334737271274914;7;16.2;1;0;0;0;0;0;0;0;0;0;0;0;0;0;0;0;0
163;2022-04-12 20:59:48.850;5.174565611497184;52.3695247481273;20;0.01;-0.17;9.40710545;-2.50441146;-0.2370332;0.07;2.7450981200000015;1.9607839600000005;23.52941132;16.07843208;1422.75;163;16.3;0.03295627494140002;-0.17523438158270763;0.006930744473850392;9.809308182833771;-2.2327038931182983;-0.09114182048054464;21.213397499589206;7;16.3;1;0;0;0;0;0;0;0;0;0;0;0;0;0;0;0;0
164;2022-04-12 20:59:48.949;5.174565611497184;52.3695247481273;20;0.02;-0.19;9.97694302;-2.00161386;-0.12450229;0.06;2.7450981200000015;1.9607839600000005;23.52941132;16.07843208;1422.75;164;16.400000000000002;0.03177843159061028;-0.17657671072837386;0.007254269569557839;9.824547715740412;-2.211695705180542;-0.09417459088565219;21.103088619666533;7;16.400000000000002;1;0;0;0;0;0;0;0;0;0;0;0;0;0;0;0;0
165;2022-04-12 20:59:49.050;5.174565611497184;52.3695247481273;20;0.03;-0.19;9.73512173;-2.25061822;-0.05027977;0.06;2.7450981200000015;1.9607839600000005;23.52941132;16.07843208;1422.75;165;16.5;0.03161675596971392;-0.17779700991723216;0.0075483832846192506;9.816418079579433;-2.215234116094692;-0.09018415208649248;21.00280782256986;7;16.5;1;0;0;0;0;0;0;0;0;0;0;0;0;0;0;0;0
