;device_time;lon;lat;raw_speed_kph;raw_g_x;raw_g_y;raw_roll;raw_yaw;raw_pitch;raw_g_z;apps_d;apps_e;engine_load;engine_load_abs;engine_rpm;num_samples;cumulative_time;g_x;g_y;g_z;roll;yaw;pitch;speed_kph;sample_nr;roundabout_1;roundabout_2;roundabout_3;roundabout_4;turning_right_1;turning_right_2;turning_right_3;turning_left_1;turning_left_2;road_50km_1;road_50km_2;road_100km;entering_highway;exiting_highway;speed_bumps;road_50km_3;road_50km_4
0;2022-05-02 00:00:17.495;5.173781014943433;52.36974466005098;0;0.0;0.01;9.82849789;0.20111908;-0.57702023;0.0;0.0;0.0;0.0;0.0;0.0;0;0.0;0.0;0.01;0.0308033;9.82849789;0.20111908;-0.57702023;0.0;8;0;0;0;0;0;0;0;0;0;0;0;0;0;0;0;0;0
1;2022-05-02 00:00:17.595;5.173781014943433;52.36974466005098;0;0.0;0.0;9.84765244;0.10055954;-0.62011719;0.0;0.0;0.0;0.0;0.0;0.0;1;0.1;0.0;0.0047619047619047615;0.0308033;9.838531225714284;0.14844503523809524;-0.599594828095238;0.0;8;0;0;0;0;0;0;0;0;0;0;0;0;0;0;0;0;0
2;2022-05-02 00:00:17.697;5.173781014943433;52.36974466005098;0;0.0;0.0;10.00567436;0.13647367;-0.67279124;0.0;0.0;0.0;0.0;0.0;238.75;2;0.2;0.0;0.003021148036253776;0.0308033;9.899631888096676;0.1440687959818731;-0.6263524288217522;0.0;8;0;0;0;0;0;0;0;0;0;0;0;0;0;0;0;0;0
3;2022-05-02 00:00:17.796;5.173781014943433;52.36974466005098;0;0.04;0.04;10.2570734;0.58659732;-0.68955112;-0.01;0.0;0.0;47.05882263;0.0;238.75;3;0.30000000000000004;0.011471665589312648;0.013626373626373627;0.03367121639732816;10.00214312540401;0.27098227701357464;-0.6444772850937297;0.0;8;0;0;0;0;0;0;0;0;0;0;0;0;0;0;0;0;0
4;2022-05-02 00:00:17.898;5.173781014943433;52.36974466005098;0;0.0;0.01;9.39274025;0.62251145;-1.60895264;-0.07;0.0;0.0;47.05882263;0.0;238.75;4;0.4;0.008720577877512244;0.012756711601775566;0.049770556883589126;9.855998631476144;0.35528455906782846;-0.875773802287268;0.0;8;0;0;0;0;0;0;0;0;0;0;0;0;0;0;0;0;0
5;2022-05-02 00:00:17.994;5.173781014943433;52.36974466005098;0;-0.02;-0.01;9.61540794;0.1053481;-1.15404046;-0.06;0.0;0.0;47.05882263;0.0;238.75;5;0.5;0.002725617287550822;0.008006612568546102;0.05833548475272855;9.805779178376618;0.30311432668266014;-0.9338575098506275;0.0;8;0;0;0;0;0;0;0;0;0;0;0;0;0;0;0;0;0
6;2022-05-02 00:00:18.096;5.173781014943433;52.36974466005098;0;-0.01;0.0;9.95060635;0.2466103;-0.86912173;-0.04;0.0;0.0;47.05882263;0.0;238.75;6;0.6000000000000001;0.00034933385305271723;0.006511519608954027;0.060663628226401735;9.832823085247094;0.29256320137734415;-0.9217692505699676;0.0;8;0;0;0;0;0;0;0;0;0;0;0;0;0;0;0;0;0
7;2022-05-02 00:00:18.195;5.173781014943433;52.36974466005098;0;0.01;0.0;9.96497154;0.19872481;-1.02235532;-0.04;0.0;0.0;25.49019623;0.0;898.75;7;0.7000000000000001;0.001993842612013666;0.0054019328852999175;0.062391465330159185;9.855341664588174;0.27657279675686497;-0.9389094841754443;0.0;8;0;0;0;0;0;0;0;0;0;0;0;0;0;0;0;0;0
8;2022-05-02 00:00:18.297;5.173781014943433;52.36974466005098;0;0.0;0.0;9.81173801;0.26337022;-1.21868587;-0.02;0.0;0.0;25.49019623;0.0;898.75;8;0.8;0.0016791045156687113;0.004549210577802734;0.06056221508033058;9.848458608144263;0.2744887035339264;-0.9830735954980327;0.0;8;0;0;0;0;0;0;0;0;0;0;0;0;0;0;0;0;0
9;2022-05-02 00:00:18.395;5.173781014943433;52.36974466005098;0;0.0;0.0;9.90272045;0.13168511;-1.03911531;-0.04;0.0;0.0;25.49019623;0.0;898.75;9;0.9;0.0014306803998036996;0.0038761532397225476;0.06207738727058234;9.856486667125958;0.25336086060636226;-0.9913649872766833;0.0;8;0;0;0;0;0;0;0;0;0;0;0;0;0;0;0;0;0
10;2022-05-02 00:00:18.494;5.173781014943433;52.36974466005098;0;0.0;0.0;9.90990353;0.25139886;-0.96010423;-0.04;5.490196230000002;3.5294113200000012;25.49019623;27.05882263;898.75;10;1.0;0.0012304330819975092;0.0033336216653983906;0.06329872267135846;9.863963238076128;0.25308624626271703;-0.9869895287199678;0.0;8;0;0;0;0;0;0;0;0;0;0;0;0;0;0;0;0;0
11;2022-05-02 00:00:18.595;5.173781014943433;52.36974466005098;0;0.01;0.01;9.90032673;0.23942748;-1.38149655;-0.08;5.490196230000002;3.5294113200000012;25.49019623;27.05882263;1064.75;11;1.1;0.0024004791846155595;0.004223057832760994;0.06963684017243972;9.868814898642828;0.25126387733826583;-1.0396251271503287;0.0;8;0;0;0;0;0;0;0;0;0;0;0;0;0;0;0;0;0
12;2022-05-02 00:00:18.695;5.173781014943433;52.36974466005098;0;0.02;0.02;9.05993557;-0.1699935;-1.83162022;-0.08;5.490196230000002;3.5294113200000012;49.01960754;27.05882263;1064.75;12;1.2000000000000002;0.004652874238617131;0.006242198403548275;0.07490534330266689;9.765294137013532;0.1973511576039327;-1.1409850362433507;0.0;8;0;0;0;0;0;0;0;0;0;0;0;0;0;0;0;0;0
13;2022-05-02 00:00:18.804;5.173781014943433;52.36974466005098;0;-0.06;-0.03;9.71117878;0.16041641;-2.22188711;-0.18000001;5.490196230000002;3.5294113200000012;49.01960754;27.05882263;1064.75;13;1.3;-0.0033256562149261443;0.0017697060809509202;0.09167592123347218;9.758615995801382;0.19279320079192303;-1.2743744673293762;0.0;8;0;0;0;0;0;0;0;0;0;0;0;0;0;0;0;0;0
14;2022-05-02 00:00:18.894;5.173781014943433;52.36974466005098;0;0.04;0.0;10.33368969;0.36632404;-2.80130148;-0.20999999;5.490196230000002;3.5294113200000012;49.01960754;27.05882263;1064.75;14;1.4000000000000001;0.00185269620207403;0.0015581879514571318;0.1094998652416643;9.827349732678531;0.21353388700748774;-1.4568752504086118;0.0;8;0;0;0;0;0;0;0;0;0;0;0;0;0;0;0;0;0
15;2022-05-02 00:00:18.998;5.173781014943433;52.36974466005098;0;0.02;0.01;10.05356026;0.29210153;-3.04551744;-0.25;10.58823395;5.09803868;49.01960754;51.76470566;1064.75;15;1.5;0.003961357153279951;0.0025391005775088566;0.1294047981013675;9.853634701014652;0.22266320575650944;-1.641470592390625;0.0;8;0;0;0;0;0;0;0;0;0;0;0;0;0;0;0;0;0
16;2022-05-02 00:00:19.095;5.173781014943433;52.36974466005098;0;-0.04;-0.04;9.51484776;-0.28970724;-2.78933024;-0.22;10.58823395;5.09803868;49.01960754;51.76470566;1064.75;16;1.6;-0.0010208287887555029;-0.0022818995600695675;0.14316301551569055;9.815239627609998;0.16459573474868902;-1.7715587100028565;0.0;8;0;0;0;0;0;0;0;0;0;0;0;0;0;0;0;0;0
17;2022-05-02 00:00:19.194;5.173781014943433;52.36974466005098;0;0.02;-0.01;10.12059975;0.07901107;-3.13171148;-0.23999999;10.58823395;5.09803868;28.23529434;51.76470566;1876.25;17;1.7000000000000002;0.001309238779889013;-0.0031374174707735803;0.15731138554512844;9.849087470865296;0.15510904639266632;-1.9223257368228288;0.0;8;0;0;0;0;0;0;0;0;0;0;0;0;0;0;0;0;0
18;2022-05-02 00:00:19.298;5.173781014943433;52.36974466005098;0;0.0;-0.03;9.48372269;-0.74461949;-3.24184799;-0.28;10.58823395;5.09803868;28.23529434;51.76470566;1876.25;18;1.8;0.0011669520563371099;-0.006056815301740852;0.17399272888369355;9.80938000239649;0.05732747476803553;-2.065730057671254;0.0;8;0;0;0;0;0;0;0;0;0;0;0;0;0;0;0;0;0
19;2022-05-02 00:00:19.395;5.173781014943433;52.36974466005098;0;-0.04;-0.12;9.39274025;-1.15882897;-2.54511404;-0.2;10.58823395;5.09803868;28.23529434;51.76470566;1876.25;19;1.9000000000000001;-0.0032289158905417443;-0.018223836865419396;0.180059045580453;9.7648905942312;-0.07253550674757063;-2.116919387386075;0.0;8;0;0;0;0;0;0;0;0;0;0;0;0;0;0;0;0;0
20;2022-05-02 00:00:19.494;5.173781014943433;52.36974466005098;0;0.08;-0.08;9.55555058;-0.95531565;-2.43497753;-0.18000001;10.58823395;5.09803868;28.23529434;51.76470566;1876.25;20;2.0;0.005519531940599072;-0.024717319744635174;0.18329066995646834;9.74288622022397;-0.16532724801893017;-2.150351458898179;0.0;8;0;0;0;0;0;0;0;0;0;0;0;0;0;0;0;0;0
21;2022-05-02 00:00:19.595;5.173781014943433;52.36974466005098;0;0.0;-0.05;9.90511513;-0.409421;-2.82045579;-0.20999999;10.58823395;5.09803868;28.23529434;51.37254715;1876.25;21;2.1;0.004947482316648909;-0.02733764115742582;0.18925133347329548;9.759699781197973;-0.19062536034658525;-2.2198017193078625;0.0;8;0;0;0;0;0;0;0;0;0;0;0;0;0;0;0;0;0
22;2022-05-02 00:00:19.694;5.173781014943433;52.36974466005098;0;0.02;-0.05;9.83089256;-0.73264807;-2.77975297;-0.2;10.58823395;5.09803868;28.23529434;51.37254715;1876.25;22;2.2;0.006487927044528868;-0.029656861897420672;0.19350367910182137;9.766985508614193;-0.24609488664385834;-2.2771060168442507;0.0;8;0;0;0;0;0;0;0;0;0;0;0;0;0;0;0;0;0
23;2022-05-02 00:00:19.795;5.173781014943433;52.36974466005098;0;0.0;-0.12;9.84765244;-1.13967478;-2.51877713;-0.2;10.58823395;5.09803868;28.23529434;51.37254715;1903.0;23;2.3000000000000003;0.005831468109041921;-0.038797926502544655;0.19727771497812382;9.775147518997953;-0.3365087432638675;-2.301558690339393;0.0;8;0;0;0;0;0;0;0;0;0;0;0;0;0;0;0;0;0
24;2022-05-02 00:00:19.895;5.173781014943433;52.36974466005098;8;-0.08;-0.20999999;9.12218666;-2.26977253;-1.71190643;-0.18000001;10.58823395;5.09803868;30.98039246;51.37254715;1903.0;24;2.4000000000000004;-0.0027647931407875363;-0.05594429131206119;0.19863234109519934;9.709751665314911;-0.5301305109179578;-2.242503369626594;0.8012223432001516;8;0;0;0;0;0;0;0;0;0;0;0;0;0;0;0;0;0
25;2022-05-02 00:00:19.997;5.173781014943433;52.36974466005098;8;-0.08;-0.2;9.1988039;-1.73345494;-1.70951223;-0.22;10.58823395;5.09803868;30.98039246;51.37254715;1903.0;25;2.5;-0.010429266708372267;-0.07023973009441614;0.2038095517453926;9.6590475136602;-0.6495429997941783;-2.189611732929467;1.5155965685458153;8;0;0;0;0;0;0;0;0;0;0;0;0;0;0;0;0;0
26;2022-05-02 00:00:20.096;5.173781014943433;52.36974466005098;8;0.03;-0.12;10.50128937;-0.98404694;-1.53951871;-0.18000001;10.58823395;5.09803868;30.98039246;51.37254715;1903.0;26;2.6;-0.006450378442187577;-0.07513693872987502;0.20449784972656834;9.741937620563524;-0.6824635524294272;-2.1256321529998874;2.153765865870168;8;0;0;0;0;0;0;0;0;0;0;0;0;0;0;0;0;0
27;2022-05-02 00:00:20.194;5.173781014943433;52.36974466005098;8;0.07;-0.07;11.15732098;-0.67997402;-1.53951871;-0.11;10.980390550000003;5.09803868;30.98039246;51.37254715;1903.0;27;2.7;0.0010175039396334456;-0.07463514848345607;0.19827599163490747;9.880196144181577;-0.6822203680823052;-2.068378986384927;2.724842030303862;8;0;0;0;0;0;0;0;0;0;0;0;0;0;0;0;0;0
28;2022-05-02 00:00:20.295;5.173781014943433;52.36974466005098;8;0.09;-0.09;11.04478931;-0.79489923;-1.00320113;-0.06;10.980390550000003;5.4901962300000005;30.98039246;61.5686264;1903.0;28;2.8000000000000003;0.009651077110360706;-0.07612593122948567;0.18784839757803248;9.993191404557294;-0.6931530935309229;-1.965029548348273;3.236666988412697;8;0;0;0;0;0;0;0;0;0;0;0;0;0;0;0;0;0
29;2022-05-02 00:00:20.397;5.173781014943433;52.36974466005098;8;-0.04;-0.13;9.34724903;-1.1827718;-1.89147711;-0.13;10.980390550000003;5.4901962300000005;30.98039246;61.5686264;2115.0;29;2.9000000000000004;0.004862941715087412;-0.08132131369811009;0.18524028519621719;9.930899512277696;-0.7403698065424381;-1.9579364689236067;3.696022247545548;8;0;0;0;0;0;0;0;0;0;0;0;0;0;0;0;0;0
30;2022-05-02 00:00:20.494;5.173842228201453;52.36974749616831;12;-0.08;0.04;8.37996197;0.22506183;-2.55229688;-0.2;10.980390550000003;5.4901962300000005;37.25490189;61.5686264;2115.0;30;3.0;-0.0032758937940906923;-0.06968591435900413;0.18961003570563545;9.782155840581915;-0.6477794587843357;-2.0149389899434293;4.492420623953536;8;0;0;0;0;0;0;0;0;0;0;0;0;0;0;0;0;0
31;2022-05-02 00:00:20.594;5.173842228201453;52.36974749616831;12;-0.04;-0.2;7.85322142;-3.39508176;-1.96569967;-0.17;10.980390550000003;5.4901962300000005;37.25490189;61.5686264;2115.0;31;3.1;-0.006780432406066252;-0.08212163552407564;0.19067819585890655;9.598079879168584;-0.9099513123182511;-2.0102401390850413;5.208860165281095;8;0;0;0;0;0;0;0;0;0;0;0;0;0;0;0;0;0
32;2022-05-02 00:00:20.694;5.173842228201453;52.36974749616831;12;0.04;-0.17;10.24031353;-2.14287591;-1.68556952;-0.12;12.15686226;5.4901962300000005;37.25490189;61.5686264;2115.0;32;3.2;-0.002336316575811765;-0.09047003271960233;0.186890102273578;9.659091729371402;-1.0270784836643005;-1.9793966055030978;5.854014784267311;8;0;0;0;0;0;0;0;0;0;0;0;0;0;0;0;0;0
33;2022-05-02 00:00:20.797;5.173842228201453;52.36974749616831;12;-0.04;-0.14;9.34724903;-1.35755384;-2.41582322;-0.19;12.15686226;5.88235283;37.25490189;60.39215851;2115.0;33;3.3000000000000003;-0.005899770331180419;-0.09515618478605874;0.19009871334949754;9.629587524335374;-1.0583455702189561;-2.0206880012717083;6.4355015669269635;8;0;0;0;0;0;0;0;0;0;0;0;0;0;0;0;0;0
34;2022-05-02 00:00:20.893;5.173842228201453;52.36974749616831;15;0.0;-0.12;10.61142635;-0.41899809;-2.26737833;-0.23999999;12.15686226;5.88235283;37.25490189;60.39215851;2379.5;34;3.4000000000000004;-0.005343638107621131;-0.09749804648931945;0.19770619858105823;9.72213895916122;-0.9980785232252717;-2.0439418625824057;7.242820036949843;8;0;0;0;0;0;0;0;0;0;0;0;0;0;0;0;0;0
35;2022-05-02 00:00:20.995;5.173842228201453;52.36974749616831;15;0.08;-0.04;10.71437931;-0.0287313;-2.32005239;-0.23999999;12.15686226;5.88235283;33.33333206;60.39215851;2379.5;35;3.5;0.002674246473695278;-0.09209620622770351;0.2045735416569175;9.815358193615673;-0.9070100578144243;-2.0698819606331704;7.971593440560842;8;0;0;0;0;0;0;0;0;0;0;0;0;0;0;0;0;0
36;2022-05-02 00:00:21.095;5.173842228201453;52.36974749616831;15;0.02;-0.01;9.48372269;0.74940801;-1.45332479;-0.16;12.15686226;5.88235283;33.33333206;60.39215851;2379.5;36;3.6;0.004297038614313709;-0.08440678146250417;0.20328377149475194;9.784296024342606;-0.7518640078636074;-2.0121330073639014;8.629899176493906;8;0;0;0;0;0;0;0;0;0;0;0;0;0;0;0;0;0
37;2022-05-02 00:00:21.197;5.173842228201453;52.36974749616831;15;-0.04;0.12;9.40471172;1.34797668;-1.55149007;-0.1;12.15686226;5.88235283;33.33333206;60.39215851;2379.5;37;3.7;0.0001594163389793633;-0.06531390124600665;0.19651363916165018;9.748840460671861;-0.5557256682241175;-1.9691060570702887;9.224906695911868;8;0;0;0;0;0;0;0;0;0;0;0;0;0;0;0;0;0
38;2022-05-02 00:00:21.297;5.173842228201453;52.36974749616831;15;-0.09;-0.20999999;8.81811428;-1.99203658;-1.42698777;-0.1;11.76470566;5.88235283;33.33333206;60.39215851;2379.5;38;3.8000000000000003;-0.008241063024058706;-0.07879482816468655;0.1903911688698031;9.662121331479884;-0.6895519579586844;-1.918594932799727;9.76299305550199;8;0;0;0;0;0;0;0;0;0;0;0;0;0;0;0;0;0
39;2022-05-02 00:00:21.395;5.173842228201453;52.36974749616831;15;-0.02;-0.13;10.19242764;-1.10615492;-1.76697481;-0.22;11.76470566;5.88235283;33.33333206;56.47058868;2379.5;39;3.9000000000000004;-0.009334210305236191;-0.08355501988001957;0.1960072680997104;9.711420251997625;-0.7282806624510815;-1.9044998555534227;10.249841476800492;8;0;0;0;0;0;0;0;0;0;0;0;0;0;0;0;0;0
40;2022-05-02 00:00:21.495;5.173883085282005;52.36973515196927;15;0.07;0.0;10.41509533;1.01517248;-1.98245955;-0.20999999;11.76470566;5.88235283;33.33333206;56.47058868;2379.5;40;4.0;-0.0019741734729355536;-0.07580340778891179;0.20016310919093908;9.776701981936615;-0.5665360721355046;-1.9117323750472717;10.690525786324748;8;0;0;0;0;0;0;0;0;0;0;0;0;0;0;0;0;0
41;2022-05-02 00:00:21.594;5.173883085282005;52.36973515196927;15;-0.07;0.08;9.05754185;0.96010423;-2.38469768;-0.18000001;11.76470566;5.88235283;33.33333206;56.47058868;2177.0;41;4.1000000000000005;-0.00827336445655289;-0.061376013493742165;0.20114839169939414;9.710107759563297;-0.4251691925634821;-1.9555289584425017;11.089583063491594;8;0;0;0;0;0;0;0;0;0;0;0;0;0;0;0;0;0
42;2022-05-02 00:00:21.697;5.173883085282005;52.36973515196927;18;0.0;0.02;9.0431757;0.12689656;-2.33202362;-0.22;11.76470566;5.88235283;32.54901886;56.47058868;2177.0;42;4.2;-0.007508544210398866;-0.05385331544288795;0.205738674091601;9.648454106488797;-0.37413420347456533;-1.9903335099934747;11.728407426924676;8;0;0;0;0;0;0;0;0;0;0;0;0;0;0;0;0;0
43;2022-05-02 00:00:21.797;5.173883085282005;52.36973515196927;18;-0.01;0.0;10.67607117;0.39744961;-2.48286295;-0.15000001;11.76470566;5.88235283;32.54901886;56.47058868;2177.0;43;4.3;-0.007738510645378858;-0.04888254493355589;0.20343708928764523;9.743305250790304;-0.30291544871535686;-2.0357949787113787;12.307288172750805;8;0;0;0;0;0;0;0;0;0;0;0;0;0;0;0;0;0
44;2022-05-02 00:00:21.896;5.173883085282005;52.36973515196927;18;-0.03;-0.08;10.76226521;0.36871833;-0.22745611;-0.25;11.76470566;5.88235283;32.54901886;56.47058868;2177.0;44;4.4;-0.00979043316498735;-0.0517507540540965;0.21056821459056674;9.837226499884434;-0.2410085181626755;-1.8691138016938145;12.832006146912288;8;0;0;0;0;0;0;0;0;0;0;0;0;0;0;0;0;0
45;2022-05-02 00:00:21.996;5.173883085282005;52.36973515196927;18;-0.11;0.09;8.66009235;1.06784654;-2.71750188;-0.22;12.15686226;5.88235283;32.54901886;58.4313736;2177.0;45;4.5;-0.01901544827562591;-0.03870157233029562;0.21427214508944772;9.728862791079951;-0.12051894745067307;-1.9472140578793915;13.307757344050124;8;0;0;0;0;0;0;0;0;0;0;0;0;0;0;0;0;0
46;2022-05-02 00:00:22.095;5.173883085282005;52.36973515196927;18;0.04;0.23;8.37996197;-0.20351335;-2.26737833;-0.16;12.15686226;5.88235283;32.54901886;58.4313736;2177.0;46;4.6000000000000005;-0.013588880052218467;-0.013994017671434838;0.2121141459091709;9.604829126233184;-0.12815042023880527;-1.9766536930278995;13.739216828596833;8;0;0;0;0;0;0;0;0;0;0;0;0;0;0;0;0;0
47;2022-05-02 00:00:22.197;5.173883085282005;52.36973515196927;20;-0.15000001;0.0;11.07831001;1.25699425;-0.8930645;-0.19;12.15686226;5.88235283;32.54901886;58.4313736;2172.5;47;4.7;-0.026119045886495065;-0.012708584714622596;0.21291229589707403;9.740177025149514;-0.0009167228916712293;-1.8771196426167123;14.314306642896884;8;0;0;0;0;0;0;0;0;0;0;0;0;0;0;0;0;0
48;2022-05-02 00:00:22.295;5.173883085282005;52.36973515196927;20;0.06;0.15000001;9.61540794;0.05506832;-0.74701375;-0.22;12.15686226;5.88235283;32.54901886;58.4313736;2172.5;48;4.800000000000001;-0.018215986839866524;0.002223020927158732;0.2163895155954454;9.728727090504044;0.004220968720519441;-1.773410950696644;14.836077058020075;8;0;0;0;0;0;0;0;0;0;0;0;0;0;0;0;0;0
49;2022-05-02 00:00:22.397;5.173883085282005;52.36973515196927;20;0.20999999;0.17;11.92827702;1.8675344;-1.64726102;-0.11;12.15686226;5.88235283;32.54901886;58.4313736;2172.5;49;4.9;0.002709172185767458;0.017606518684649575;0.20945900352796487;9.930404171560557;0.175068472054965;-1.761844243591154;15.309557969625443;8;0;0;0;0;0;0;0;0;0;0;0;0;0;0;0;0;0
50;2022-05-02 00:00:22.495;5.173940055195723;52.36969821792009;20;-0.02;0.33000001;11.58110714;3.36635041;-2.04231644;-0.03;12.15686226;5.88235283;32.54901886;58.4313736;2172.5;50;5.0;0.0006285896699227291;0.04622757236188403;0.195839376396214;10.081639263130322;0.4674492488135667;-1.7875407129848973;15.739289692127276;8;0;0;0;0;0;0;0;0;0;0;0;0;0;0;0;0;0
51;2022-05-02 00:00:22.595;5.173940055195723;52.36969821792009;20;0.01;0.08;11.35843945;2.06386495;-1.58500993;-0.17;12.15686226;5.88235283;32.54901886;58.4313736;2172.5;51;5.1000000000000005;0.0014865763973967942;0.049319561043148274;0.19629384167072816;10.198534967766655;0.6136069171799959;-1.768998282594429;16.129373229717565;8;0;0;0;0;0;0;0;0;0;0;0;0;0;0;0;0;0
52;2022-05-02 00:00:22.697;5.173940055195723;52.36969821792009;20;0.09;0.27000001;10.36481571;1.4341706;-1.75260913;-0.11;12.15686226;5.88235283;32.54901886;64.31372833;2172.5;52;5.2;0.009585082630718278;0.06951064527318687;0.19121675302902794;10.213748768935437;0.6886841182381143;-1.7674987625324694;16.483514937835512;8;0;0;0;0;0;0;0;0;0;0;0;0;0;0;0;0;0
53;2022-05-02 00:00:22.796;5.173940055195723;52.36969821792009;20;0.12;0.12;11.07112694;1.32163966;-1.3910737;-0.08;12.15686226;5.88235283;32.54901886;64.31372833;2172.5;53;5.300000000000001;0.019681546497285023;0.07412744848955517;0.18386365670619978;10.292148390385;0.7465622827905425;-1.7330780326811008;16.805066275402723;8;0;0;0;0;0;0;0;0;0;0;0;0;0;0;0;0;0
54;2022-05-02 00:00:22.897;5.173940055195723;52.36969821792009;24;-0.1;0.07;11.25548553;1.93457401;-3.63450909;-0.40000001;12.15686226;5.88235283;34.90196228;64.31372833;2295.25;54;5.4;0.008743551018805612;0.0737502306624323;0.20643208843386077;10.3801901778263;0.8551376419909046;-1.9068545664599839;17.462629240211083;8;0;0;0;0;0;0;0;0;0;0;0;0;0;0;0;0;0
55;2022-05-02 00:00:22.998;5.173940055195723;52.36969821792009;24;0.01;0.19;12.02644253;0.83799618;-2.44455457;-0.15000001;12.15686226;5.88235283;34.90196228;64.31372833;2295.25;55;5.5;0.008858325546791135;0.08436945404821744;0.20409094208282016;10.530572596447213;0.8535717979029753;-1.9559725688841283;18.05980720322545;8;0;0;0;0;0;0;0;0;0;0;0;0;0;0;0;0;0
56;2022-05-02 00:00:23.095;5.173940055195723;52.36969821792009;24;-0.01;0.15000001;8.69121742;-1.89865994;-3.98407316;-0.28999999;12.15686226;5.88235283;34.90196228;64.31372833;2295.25;56;5.6000000000000005;0.007136405174980176;0.09036206410398577;0.21474774027107058;10.36262432651933;0.6022703827438651;-2.141154849000111;18.6021957076487;8;0;0;0;0;0;0;0;0;0;0;0;0;0;0;0;0;0
57;2022-05-02 00:00:23.196;5.173940055195723;52.36969821792009;24;0.28;0.28999999;12.59867382;3.03594041;-0.92897862;-0.04;12.15686226;5.88235283;34.90196228;64.31372833;2295.25;57;5.7;0.03204115718635634;0.10858337735647038;0.20160967181358264;10.566712593244727;0.8243958317074788;-2.030517340186624;19.094863032482408;8;0;0;0;0;0;0;0;0;0;0;0;0;0;0;0;0;0
58;2022-05-02 00:00:23.297;5.173940055195723;52.36969821792009;24;-0.19;0.0;9.94342327;1.86035156;-1.05587518;0.02;12.15686226;5.88235283;34.90196228;61.5686264;2295.25;58;5.800000000000001;0.011782408716047167;0.0986763702151089;0.18420074482866605;10.509844480216264;0.9189150946756495;-1.941592248001089;19.542401395624484;8;0;0;0;0;0;0;0;0;0;0;0;0;0;0;0;0;0
59;2022-05-02 00:00:23.397;5.173940055195723;52.36969821792009;24;0.07;0.15000001;10.07989693;1.93217981;-1.22826302;-0.08;12.15686226;5.88235283;34.90196228;61.5686264;2295.25;59;5.9;0.017092356317692597;0.10335752984354953;0.1775062633576969;10.47062954684726;1.0113335961338423;-1.876530455854219;19.94897292317111;8;0;0;0;0;0;0;0;0;0;0;0;0;0;0;0;0;0
60;2022-05-02 00:00:23.494;5.174022249465512;52.36966317915466;27;-0.06;0.05;10.90352726;1.47247899;-0.44054657;-0.12;12.15686226;5.88235283;34.90196228;61.5686264;1901.75;60;6.0;0.010062972656214666;0.09849231925180907;0.1750714516162304;10.510101736533446;1.0533814469460587;-1.745595533800829;20.59189495718247;8;0;0;0;0;0;0;0;0;0;0;0;0;0;0;0;0;0
61;2022-05-02 00:00:23.596;5.174022249465512;52.36966317915466;27;-0.01;0.13;9.70160198;1.4772675;-2.0327394;-0.15000001;12.15686226;5.88235283;37.25490189;61.5686264;1901.75;61;6.1000000000000005;0.00823410199692659;0.10136444961105236;0.17559394784851348;10.43640171669578;1.0920214221180156;-1.7717705678241915;21.17603547789512;8;0;0;0;0;0;0;0;0;0;0;0;0;0;0;0;0;0
62;2022-05-02 00:00:23.695;5.174022249465512;52.36966317915466;27;0.03;0.09;10.19003391;1.05587518;-1.60895264;-0.06;12.15686226;5.88235283;37.25490189;61.5686264;1901.75;62;6.2;0.010217714602713987;0.10032876224804367;0.167866639841215;10.413949241408385;1.0887272717224281;-1.756932324346498;21.706796461892864;8;0;0;0;0;0;0;0;0;0;0;0;0;0;0;0;0;0
63;2022-05-02 00:00:23.797;5.174022249465512;52.36966317915466;27;0.03;0.09;10.03680038;0.76137936;-1.75979197;-0.11;12.15686226;5.88235283;37.25490189;61.5686264;1901.75;63;6.300000000000001;0.012020147402972855;0.09938767280928229;0.16540080485629205;10.37958589739981;1.0589014653843143;-1.757192876604211;22.189078639301925;8;0;0;0;0;0;0;0;0;0;0;0;0;0;0;0;0;0
64;2022-05-02 00:00:23.898;5.174022249465512;52.36966317915466;27;-0.02;0.05;9.22753525;1.1827718;-1.4341706;-0.09;12.15686226;5.88235283;37.25490189;61.5686264;1901.75;64;6.4;0.009103276614642284;0.09488870975617501;0.16133820147378322;10.274640006995638;1.070185415955625;-1.7277672081102748;22.627328838633392;8;0;0;0;0;0;0;0;0;0;0;0;0;0;0;0;0;0
65;2022-05-02 00:00:23.996;5.174022249465512;52.36966317915466;27;-0.01;0.12;9.62019634;1.34558249;-1.86035156;-0.13;12.15686226;5.88235283;37.25490189;66.27451324;1901.75;65;6.5;0.0073633895537779555;0.09717579431544647;0.1612894837500206;10.215034626660122;1.0952680138468391;-1.7398427176147127;23.02558271562772;8;0;0;0;0;0;0;0;0;0;0;0;0;0;0;0;0;0
66;2022-05-02 00:00:24.097;5.174022249465512;52.36966317915466;27;-0.02;0.15000001;10.16609097;1.69275224;-2.05189347;-0.13;12.15686226;5.88235283;37.25490189;66.27451324;1901.75;66;6.6000000000000005;0.004871609163277702;0.10198610279450525;0.16124521061155944;10.210577691832462;1.149676458949581;-1.7682588589741866;23.38750334075352;8;0;0;0;0;0;0;0;0;0;0;0;0;0;0;0;0;0
67;2022-05-02 00:00:24.197;5.174022249465512;52.36966317915466;30;0.04;0.09;9.14134121;0.87630457;-1.73345494;-0.14;12.15686226;5.88235283;37.25490189;66.27451324;2014.5;67;6.7;0.008069999609527312;0.10089478503833764;0.16211546117118458;10.113225218040823;1.124786333980477;-1.765090011233438;23.98956183637588;8;0;0;0;0;0;0;0;0;0;0;0;0;0;0;0;0;0
68;2022-05-02 00:00:24.297;5.174022249465512;52.36966317915466;30;-0.01;0.1;9.68005276;0.77095652;-0.45251793;-0.13;12.15686226;5.88235283;38.82352829;66.27451324;2014.5;68;6.800000000000001;0.006424981106293963;0.10081332748569301;0.16199600741067177;10.073790977644242;1.092575121829337;-1.6455988431584767;24.53672742604687;8;0;0;0;0;0;0;0;0;0;0;0;0;0;0;0;0;0
69;2022-05-02 00:00:24.396;5.174022249465512;52.36966317915466;30;0.06;0.11;10.39594078;1.21868587;-0.26815879;0.02;12.15686226;5.88235283;38.82352829;66.27451324;2014.5;69;6.9;0.011301612298112013;0.10164953836638671;0.14823378971743786;10.103114453529953;1.1040542705231102;-1.520218259692527;25.034018252885456;8;0;0;0;0;0;0;0;0;0;0;0;0;0;0;0;0;0
70;2022-05-02 00:00:24.494;5.174126427298053;52.36963700447078;30;-0.05;0.08;9.34246063;0.69912827;-0.54350036;0.0;12.15686226;5.88235283;38.82352829;66.27451324;2014.5;70;7.0;0.005722316031734319;0.09967913034532228;0.13754598774490176;10.033884414081916;1.0672003928160891;-1.43132339499373;25.4859914128382;8;0;0;0;0;0;0;0;0;0;0;0;0;0;0;0;0;0
71;2022-05-02 00:00:24.594;5.174126427298053;52.36963700447078;30;0.06;0.06;9.32809448;0.04549122;-1.01038396;-0.12;0.0;0.0;38.82352829;29.01960754;2014.5;71;7.1000000000000005;0.01066181997927973;0.09606815790422697;0.13875246048710987;9.969654478118294;0.9742204400362491;-1.3930160861917422;25.896785713652065;8;0;0;0;0;0;0;0;0;0;0;0;0;0;0;0;0;0
72;2022-05-02 00:00:24.699;5.174126427298053;52.36963700447078;30;0.02;0.04;9.69202423;-0.0095771;-0.73743665;-0.04;0.0;0.0;38.82352829;29.01960754;1753.25;72;7.2;0.01151155381819707;0.090966198962413;0.13256938189322892;9.9443913309087;0.8846991351826768;-1.3333612037848481;26.270160399051413;8;0;0;0;0;0;0;0;0;0;0;0;0;0;0;0;0;0
73;2022-05-02 00:00:24.796;5.174126427298053;52.36963700447078;30;0.0;0.02;9.85244083;0.34477556;-0.9337672;-0.04;0.0;0.0;12.54901981;29.01960754;1753.25;73;7.300000000000001;0.010464143071388609;0.084509141937159;0.12694942311225596;9.936024958797063;0.8355726867437508;-1.2970030317661534;26.609530230753002;8;0;0;0;0;0;0;0;0;0;0;0;0;0;0;0;0;0
74;2022-05-02 00:00:24.897;5.174126427298053;52.36963700447078;30;-0.04;0.0;10.0487709;0.51476908;-0.30167863;0.0;0.0;0.0;12.54901981;29.01960754;1753.25;74;7.4;0.005872883923877557;0.076820447601888;0.11820198898635786;9.946282654705232;0.806385774921367;-1.2064477981642432;26.91799728072141;8;0;0;0;0;0;0;0;0;0;0;0;0;0;0;0;0;0
75;2022-05-02 00:00:24.996;5.174126427298053;52.36963700447078;30;0.01;-0.01;9.75427532;0.19633053;-0.2466103;0.01;0.0;0.0;12.54901981;29.01960754;1753.25;75;7.5;0.00624834465608247;0.06892203422418873;0.10934122946127695;9.928814957371923;0.7508865389612227;-1.1191274312999633;27.198379750294468;8;1;0;0;0;0;0;0;0;0;0;0;0;0;0;0;0;0
76;2022-05-02 00:00:25.094;5.174126427298053;52.36963700447078;30;0.05;0.02;9.65132141;0.08619389;0.36392978;0.09;0.0;0.0;12.54901981;29.01960754;1753.25;76;7.6000000000000005;0.01022835398118344;0.06447168484004254;0.09400963741941501;9.903571868910147;0.6904206452619683;-0.9842163865809962;27.453238100945875;8;1;0;0;0;0;0;0;0;0;0;0;0;0;0;0;0;0
77;2022-05-02 00:00:25.196;5.174126427298053;52.36963700447078;30;0.0;0.02;9.81892109;0.40223816;0.12210801;0.06;0.0;0.0;12.54901981;15.29411793;1753.25;77;7.7;0.009297954027465999;0.060426414839314144;0.08280244114486292;9.895871795083504;0.6642067528367387;-0.8835819962119272;27.68489875302815;8;1;0;0;0;0;0;0;0;0;0;0;0;0;0;0;0;0
78;2022-05-02 00:00:25.296;5.174126427298053;52.36963700447078;30;0.01;-0.02;9.95778847;0.27294734;-0.10295381;0.02;0.0;0.0;12.54901981;15.29411793;1753.25;78;7.800000000000001;0.009361810679911025;0.0531109941678498;0.07625354789242683;9.901503608020802;0.6286186043125332;-0.8125776678261373;27.895475583444718;8;1;0;0;0;0;0;0;0;0;0;0;0;0;0;0;0;0
79;2022-05-02 00:00:25.395;5.174126427298053;52.36963700447078;30;0.07;0.0;9.83807564;-0.12210801;-0.35914123;0.06;0.0;0.0;12.54901981;15.29411793;1516.5;79;7.9;0.014877065814889975;0.04828036372534369;0.06666247949651027;9.895734612767967;0.5603373963645766;-0.7713360398991196;28.08688943048137;8;1;0;0;0;0;0;0;0;0;0;0;0;0;0;0;0;0
80;2022-05-02 00:00:25.494;5.174250154943716;52.36961569523926;30;0.02;-0.03;9.58907032;0.39505535;-0.1699935;0.04;0.0;0.0;7.84313726;15.29411793;1516.5;80;8.0;0.015342993885801215;0.04116080732604629;0.05976312848270074;9.867843662546115;0.5453050843659685;-0.7166442637708179;28.26088579367622;8;1;0;0;0;0;0;0;0;0;0;0;0;0;0;0;0;0
81;2022-05-02 00:00:25.595;5.174250154943716;52.36961569523926;30;-0.01;-0.04;9.61540794;-0.37590113;-0.38068968;0.01;0.0;0.0;7.84313726;15.29411793;1516.5;81;8.1;0.013038155442038379;0.03377957408679967;0.05621989634312134;9.844885697890277;0.46152526312340075;-0.6860906108155864;28.4190508983553;8;1;0;0;0;0;0;0;0;0;0;0;0;0;0;0;0;0
82;2022-05-02 00:00:25.694;5.174250154943716;52.36961569523926;30;0.17;-0.20999999;7.89871264;-1.74782062;0.55786604;0.04;0.0;0.0;7.84313726;15.29411793;1516.5;82;8.200000000000001;0.02731264965511487;0.011609664026024823;0.05027075100420922;9.667895957926808;0.260601942477258;-0.5729621491605121;28.562826278073537;8;1;0;0;0;0;0;0;0;0;0;0;0;0;0;0;0;0
83;2022-05-02 00:00:25.794;5.174250154943716;52.36961569523926;30;-0.02;-0.16;10.8149395;-0.78771639;-0.0670397;-0.03;0.0;0.0;7.84313726;15.29411793;1516.5;83;8.3;0.023010065043393074;-0.003996418174896643;0.05122857483275897;9.772207424925051;0.1652684881393253;-0.5269538583471631;28.693522013472137;8;1;0;0;0;0;0;0;0;0;0;0;0;0;0;0;0;0
84;2022-05-02 00:00:25.895;5.174250154943716;52.36961569523926;30;-0.02;-0.04;10.0966568;-2.13090467;0.64884847;0.03;0.0;0.0;7.84313726;15.29411793;1516.5;84;8.4;0.019098873550420732;-0.0072704635130938075;0.04664306895738538;9.801711766162692;-0.04353782065014571;-0.420030326392288;28.812328752813453;8;1;0;0;0;0;0;0;0;0;0;0;0;0;0;0;0;0
85;2022-05-02 00:00:25.997;5.174250154943716;52.36961569523926;30;-0.09;-0.28;8.86599922;-2.71271324;0.71588814;0.12;0.39215659999999986;0.0;7.84313726;15.29411793;1516.5;85;8.5;0.00917806027623471;-0.03207089194823658;0.034290595103363686;9.716623541631181;-0.2862570171886782;-0.31673654678630986;28.920328627523542;8;1;0;0;0;0;0;0;0;0;0;0;0;0;0;0;0;0
86;2022-05-02 00:00:26.095;5.174250154943716;52.36961569523926;30;0.05;-0.11;9.80216122;-1.09657788;-0.08140534;0.03;0.39215659999999986;0.0;7.84313726;12.54901981;1516.5;86;8.6;0.012890075626880881;-0.039157131536746465;0.03124553271004146;9.724401642753085;-0.35994100922968736;-0.29533743988477484;29.018505165321734;8;1;0;0;0;0;0;0;0;0;0;0;0;0;0;0;0;0
87;2022-05-02 00:00:26.196;5.174250154943716;52.36961569523926;30;-0.06;-0.18000001;10.08947372;-1.77415764;0.38308397;0.0;0.39215659999999986;0.0;7.84313726;12.54901981;1516.5;87;8.700000000000001;0.006262195666706995;-0.051963946232319994;0.0312053205783979;9.757597573529585;-0.4885354438740994;-0.23364871712716026;29.10775229382079;8;1;0;0;0;0;0;0;0;0;0;0;0;0;0;0;0;0
88;2022-05-02 00:00:26.295;5.174250154943716;52.36961569523926;30;0.14;-0.13;10.57072353;-2.50441146;1.82204318;-0.01;0.39215659999999986;0.0;7.84313726;12.54901981;1460.5;88;8.8;0.018422695569952706;-0.05905960201209201;0.03207804484966583;9.831533422590953;-0.671834849911617;-0.046728935987200994;29.18888251873179;8;1;0;0;0;0;0;0;0;0;0;0;0;0;0;0;0;0
89;2022-05-02 00:00:26.394;5.174250154943716;52.36961569523926;28;-0.02;-0.19;9.5435791;-1.76936913;0.4668836;0.1;0.39215659999999986;0.0;7.84313726;12.54901981;1460.5;89;8.9;0.014929065685649522;-0.07096551544911928;0.022869516663822878;9.80535082889743;-0.7716294765791565;-2.809737969672351e-05;29.080781943414134;8;1;0;0;0;0;0;0;0;0;0;0;0;0;0;0;0;0
90;2022-05-02 00:00:26.494;5.17437233775308;52.36959149206037;28;0.19;-0.16;8.95458794;-1.92739117;0.43575802;0.22;0.39215659999999986;0.0;7.84313726;12.54901981;1460.5;90;9.0;0.030847328881697545;-0.07906094467702635;0.003587470417450774;9.727995512117188;-0.8767167025075274;0.03959560224127042;28.982512224912995;8;1;0;0;0;0;0;0;0;0;0;0;0;0;0;0;0;0
91;2022-05-02 00:00:26.594;5.17437233775308;52.36959149206037;28;-0.08;-0.23;10.68325424;-2.04710507;0.66800267;0.04;0.39215659999999986;0.0;7.84313726;12.54901981;1460.5;91;9.1;0.020768731246850292;-0.09278481174113727;0.002425092297628731;9.814850725072136;-0.9831321980496129;0.09673240518213201;28.893179035867142;8;1;0;0;0;0;0;0;0;0;0;0;0;0;0;0;0;0
92;2022-05-02 00:00:26.695;5.17437233775308;52.36959149206037;28;0.16;-0.27000001;9.38795185;-2.75102186;1.24502289;0.05;0.0;0.0;7.84313726;11.76470566;1460.5;92;9.200000000000001;0.03342790945035953;-0.10889756281508318;0.00045919681864528897;9.776036247671968;-1.1438721702928478;0.20113721314574956;28.811969457846796;8;1;0;0;0;0;0;0;0;0;0;0;0;0;0;0;0;0
93;2022-05-02 00:00:26.797;5.17437233775308;52.36959149206037;28;-0.05;-0.25999999;9.23950672;-2.50680566;-0.65603131;-0.01;0.0;0.0;7.84313726;11.76470566;1446.25;93;9.3;0.02584257891670772;-0.12263591323265692;0.0041273141157281805;9.727254564956095;-1.267791145164964;0.12320278312180916;28.738144562058622;8;1;0;0;0;0;0;0;0;0;0;0;0;0;0;0;0;0
94;2022-05-02 00:00:26.897;5.17437233775308;52.36959149206037;27;0.06;-0.17;9.91948032;-1.40304506;0.61054009;-0.05;0.0;0.0;10.1960783;11.76470566;1446.25;94;9.4;0.028948161957881104;-0.12694224257369943;0.011098673014480625;9.744731676108175;-1.2800883927569215;0.16751135290175403;28.58011295124485;8;1;0;0;0;0;0;0;0;0;0;0;0;0;0;0;0;0
95;2022-05-02 00:00:26.994;5.17437233775308;52.36959149206037;27;-0.07;-0.46000001;11.07831001;-4.067873;-0.11492519;0.03;0.0;0.0;10.1960783;11.76470566;1446.25;95;9.5;0.01995191871511368;-0.15722343860981652;0.010162630564771288;9.865978951828993;-1.5335502857214125;0.14183257534475346;28.43645105617603;8;1;0;0;0;0;0;0;0;0;0;0;0;0;0;0;0;0
96;2022-05-02 00:00:27.094;5.17437233775308;52.36959149206037;27;0.1;-0.33000001;10.58269501;-2.60257673;0.00718282;0.12;0.0;0.0;10.1960783;11.76470566;1446.25;96;9.600000000000001;0.027229719939937138;-0.17293191684815362;0.0011290916457258743;9.931141250815818;-1.6307438953702216;0.12959050609536538;28.305851982616343;8;1;0;0;0;0;0;0;0;0;0;0;0;0;0;0;0;0
97;2022-05-02 00:00:27.195;5.17437233775308;52.36959149206037;27;-0.1;-0.18000001;8.79656601;-1.69035804;0.600963;0.11;0.39215659999999986;0.0;10.1960783;11.76470566;1446.25;97;9.700000000000001;0.015662366097670907;-0.17357452719513938;-0.006173894284486829;9.827988989870917;-1.6361638389593625;0.1724463139292617;28.1871277414903;8;1;0;0;0;0;0;0;0;0;0;0;0;0;0;0;0;0
98;2022-05-02 00:00:27.296;5.17437233775308;52.36959149206037;27;0.13;-0.12;7.96096373;-3.76858854;-1.45332479;-0.18000001;0.39215659999999986;0.0;10.1960783;18.03921509;1446.25;98;9.8;0.026057526217887737;-0.16870372683351811;0.01355288074131937;9.658245871507749;-1.8300361052908365;0.02463714237859793;28.07919842255333;8;1;0;0;0;0;0;0;0;0;0;0;0;0;0;0;0;0
99;2022-05-02 00:00:27.395;5.17437233775308;52.36959149206037;27;-0.14;-0.38999999;9.15570641;-2.20752144;-1.05108666;-0.12;0.39215659999999986;0.0;10.1960783;18.03921509;1446.25;99;9.9;0.010960291929192737;-0.18882302891112063;0.026031097073718947;9.612557150481386;-1.8643554443081658;-0.07316302750425384;27.98108235518581;8;1;0;0;0;0;0;0;0;0;0;0;0;0;0;0;0;0
100;2022-05-02 00:00:27.494;5.174471254350964;52.36955657116403;27;0.12;-0.15000001;10.15890789;-2.7605989;-0.36871833;-0.02;0.39215659999999986;0.0;10.1960783;18.03921509;1762.5;100;10.0;0.020873646635339978;-0.18529343071209134;0.02828326409439194;9.662228676301106;-1.9458374973742543;-0.10003346397883019;27.891887166066414;8;1;0;0;0;0;0;0;0;0;0;0;0;0;0;0;0;0
101;2022-05-02 00:00:27.594;5.174471254350964;52.36955657116403;27;0.07;-0.25;10.52283764;-2.40864038;0.0574626;0.06;0.39215659999999986;0.0;7.84313726;18.03921509;1762.5;101;10.100000000000001;0.025339946610850518;-0.19117619890131043;0.02305749941526947;9.740470547114535;-1.9879130100424616;-0.08571478126549698;27.81080165177245;8;1;0;0;0;0;0;0;0;0;0;0;0;0;0;0;0;0
102;2022-05-02 00:00:27.694;5.174471254350964;52.36955657116403;27;-0.03;-0.23;8.37277889;-2.55947971;-0.34477556;0.05;0.39215659999999986;0.0;7.84313726;18.03921509;1762.5;102;10.200000000000001;0.020308768075174198;-0.1947058277991236;0.019215999121906188;9.616128162813263;-2.0398764521605983;-0.10926704521273162;27.73708839187768;8;1;0;0;0;0;0;0;0;0;0;0;0;0;0;0;0;0
103;2022-05-02 00:00:27.795;5.174471254350964;52.36955657116403;27;0.0;-0.28;9.67287064;-2.66003942;-0.00718282;0.06;0.39215659999999986;0.0;7.84313726;18.03921509;1762.5;103;10.3;0.018462424921005447;-0.20246022778786976;0.014814626509461488;9.621286825510897;-2.0962576982263785;-0.09998620111266271;27.670077034944406;8;1;0;0;0;0;0;0;0;0;0;0;0;0;0;0;0;0
104;2022-05-02 00:00:27.899;5.174471254350964;52.36955657116403;27;0.01;-0.17;9.5387907;-3.12213445;-0.09577099;0.03;0.39215659999999986;0.0;7.84313726;12.15686321;1762.5;104;10.4;0.017693078899664864;-0.1995091650211658;0.013540812159038004;9.61378683980582;-2.1895234234446606;-0.09960298283552468;27.60915819600185;8;1;0;0;0;0;0;0;0;0;0;0;0;0;0;0;0;0
105;2022-05-02 00:00:27.995;5.174471254350964;52.36955657116403;27;-0.01;-0.27000001;9.66329288;-2.57863402;-0.12929083;0.04;0.39215659999999986;0.0;7.84313726;12.15686321;1620.75;105;10.5;0.015175423145580125;-0.20591768615795444;0.01147368092642282;9.618287573270973;-2.2248985630577844;-0.1023019885874974;27.553777909726406;8;1;0;0;0;0;0;0;0;0;0;0;0;0;0;0;0;0
106;2022-05-02 00:00:28.097;5.174471254350964;52.36955657116403;26;-0.03;-0.23;9.63456154;-2.19554996;-0.06225114;0.03;0.39215659999999986;0.0;7.45098019;12.15686321;1620.75;106;10.600000000000001;0.011068413560447696;-0.20810706894387143;0.010503610173557713;9.619767079885195;-2.2222304088784615;-0.09866086676531846;27.41252011236502;8;1;0;0;0;0;0;0;0;0;0;0;0;0;0;0;0;0
107;2022-05-02 00:00:28.202;5.174471254350964;52.36955657116403;26;0.03;-0.25;9.93863487;-1.87711143;-0.04309694;-0.04;0.39215659999999986;0.0;7.45098019;12.15686321;1620.75;107;10.700000000000001;0.01278952513696412;-0.2119156461513404;0.015985585736039615;9.648756042151888;-2.1908548941153523;-0.09360942969226342;27.284104845888745;8;1;0;0;0;0;0;0;0;0;0;0;0;0;0;0;0;0
108;2022-05-02 00:00:28.296;5.174471254350964;52.36955657116403;26;-0.01;-0.2;10.0966568;-2.1189332;-0.57462597;0.05;0.39215659999999986;0.0;7.45098019;12.15686321;1620.75;108;10.8;0.010717686363783799;-0.21083237225443058;0.012787097690371365;9.689475546005937;-2.184316357063551;-0.13733955187608102;27.16736444903748;8;1;0;0;0;0;0;0;0;0;0;0;0;0;0;0;0;0
109;2022-05-02 00:00:28.394;5.174471254350964;52.36955657116403;26;0.01;-0.23;9.98651981;-2.24343538;0.1340794;0.06;10.19607735;0.0;7.45098019;12.15686321;1620.75;109;10.9;0.010652440323491224;-0.21257493261966726;0.008970282025518604;9.716480325524186;-2.1896909640607256;-0.11266441136357488;27.06123743907667;8;1;0;0;0;0;0;0;0;0;0;0;0;0;0;0;0;0
110;2022-05-02 00:00:28.495;5.174540433001252;52.369506296066334;26;-0.02;-0.27000001;10.06553173;-2.24104118;-0.1699935;0.01;10.19607735;4.705882070000001;7.45098019;24.70588303;1620.75;110;11.0;0.00786578396416345;-0.217795526979463;0.010046038292903216;9.748213078471409;-2.194359284243063;-0.11787627925197679;26.96475885443056;8;1;0;0;0;0;0;0;0;0;0;0;0;0;0;0;0;0
111;2022-05-02 00:00:28.595;5.174540433001252;52.369506296066334;26;0.0;-0.20999999;9.92905807;-1.89626563;-0.18675344;0.08;10.19607735;4.705882070000001;7.45098019;24.70588303;1839.75;111;11.100000000000001;0.007150696160667404;-0.2170868254131457;0.004660210282373973;9.764653912386327;-2.1672592345315587;-0.12413798410107331;26.877051476086425;8;1;0;0;0;0;0;0;0;0;0;0;0;0;0;0;0;0
112;2022-05-02 00:00:28.697;5.174540433001252;52.369506296066334;26;-0.01;-0.23;9.5483675;-2.66722202;-0.78771639;0.01;10.19607735;4.705882070000001;22.74509811;24.70588303;1839.75;112;11.200000000000001;0.005591509190595926;-0.21826077505165983;0.006127794741256829;9.744991097953777;-2.2127113522368904;-0.18446456177499942;26.797317847737737;8;1;0;0;0;0;0;0;0;0;0;0;0;0;0;0;0;0
113;2022-05-02 00:00:28.796;5.174540433001252;52.369506296066334;26;0.0;-0.28;9.73272705;-2.64806795;-1.04869235;-0.05;10.19607735;4.705882070000001;22.74509811;24.70588303;1839.75;113;11.3;0.005083180459706302;-0.2238735391184491;0.012916606763699868;9.743876163198346;-2.2522899810617427;-0.2630322256763335;26.72483302193475;8;1;0;0;0;0;0;0;0;0;0;0;0;0;0;0;0;0
114;2022-05-02 00:00:28.897;5.174540433001252;52.369506296066334;26;-0.03;-0.23;9.25866032;-2.15005875;-1.44374776;-0.14;10.19607735;4.705882070000001;22.74509811;24.70588303;1839.75;114;11.4;0.0018937450121411644;-0.22443049978300975;0.027270191857989068;9.699764865712236;-2.242996071332805;-0.37037186619119006;26.658937966143565;8;1;0;0;0;0;0;0;0;0;0;0;0;0;0;0;0;0
115;2022-05-02 00:00:28.998;5.174540433001252;52.369506296066334;26;0.0;-0.27000001;9.82849789;-2.75102186;-0.63927138;-0.15000001;10.19607735;4.705882070000001;22.74509811;24.70588303;1839.75;115;11.5;0.0017215836558303653;-0.22857324795400324;0.04122796847970482;9.71146805274179;-2.28918096330985;-0.3948176625955838;26.59903356864092;8;1;0;0;0;0;0;0;0;0;0;0;0;0;0;0;0;0
116;2022-05-02 00:00:29.095;5.174540433001252;52.369506296066334;26;-0.02;-0.28;9.40231705;-3.08622026;-1.18995464;-0.09;10.19607735;4.705882070000001;22.74509811;24.70588303;1839.75;116;11.600000000000001;-0.0002531341179366637;-0.23324847435192209;0.04846219338689074;9.683363012632146;-2.36164012146807;-0.46710388015405535;26.544575189646956;8;1;0;0;0;0;0;0;0;0;0;0;0;0;0;0;0;0
117;2022-05-02 00:00:29.196;5.174540433001252;52.369506296066334;26;-0.03;-0.40000001;9.46696281;-3.85478234;-1.8675344;-0.13;10.19607735;4.705882070000001;22.74509811;24.70588303;1839.75;117;11.700000000000001;-0.00295742994800807;-0.24840790271990384;0.05867515455610841;9.663690010174513;-2.4973820948002663;-0.5944174072375152;26.495067708073556;8;1;0;0;0;0;0;0;0;0;0;0;0;0;0;0;0;0
118;2022-05-02 00:00:29.299;5.174540433001252;52.369506296066334;26;-0.04;-0.31;9.39034557;-3.11495161;-1.08939505;-0.11;9.80392075;4.705882070000001;22.74509811;47.05882263;1839.75;118;11.8;-0.006324976272558694;-0.2540072507275024;0.066141438184473;9.638840220768593;-2.5535254441452597;-0.6394159086719454;26.450061018786425;8;1;0;0;0;0;0;0;0;0;0;0;0;0;0;0;0;0
119;2022-05-02 00:00:29.398;5.174540433001252;52.369506296066334;26;-0.09;-0.37;8.95219326;-3.29212785;0.04549122;-0.18000001;9.80392075;4.705882070000001;22.74509811;47.05882263;1839.75;119;11.9;-0.013931878662746894;-0.26455215985784897;0.07929265929517279;9.576417096466889;-2.6206718416747843;-0.5771509526305535;26.409145939387237;8;1;0;0;0;0;0;0;0;0;0;0;0;0;0;0;0;0
120;2022-05-02 00:00:29.495;5.174583212664713;52.3694444916816;26;0.0;-0.36000001;10.70959091;-3.63450909;-1.97767103;-0.02;9.80392075;4.705882070000001;22.74509811;47.05882263;2213.25;120;12.0;-0.012665331819296728;-0.27322932223042234;0.07670269214424555;9.679433907864224;-2.712839768034353;-0.7044722081568426;26.371950489255518;8;1;0;0;0;0;0;0;0;0;0;0;0;0;0;0;0;0
121;2022-05-02 00:00:29.595;5.174583212664713;52.3694444916816;28;0.0;-0.31;9.89553738;-2.96411228;-1.22347438;-0.07;9.80392075;4.705882070000001;24.31372643;47.05882263;2213.25;121;12.100000000000001;-0.011513927753459146;-0.2765721409178088;0.07889367602608857;9.699079853190318;-2.7356829273007897;-0.7516546443823414;26.519956309616266;8;1;0;0;0;0;0;0;0;0;0;0;0;0;0;0;0;0
122;2022-05-02 00:00:29.697;5.174583212664713;52.3694444916816;28;-0.05;-0.33000001;8.77741146;-2.93538094;-0.94573855;-0.05;9.80392075;4.705882070000001;24.31372643;47.05882263;2213.25;122;12.200000000000001;-0.015012689948041736;-0.28142925928739454;0.07906727961241948;9.61529113842154;-2.7538374392158906;-0.7692987787902904;26.65450682641291;8;1;0;0;0;0;0;0;0;0;0;0;0;0;0;0;0;0
123;2022-05-02 00:00:29.798;5.174583212664713;52.3694444916816;28;0.06;-0.37;9.69441891;-4.04393005;-0.33519846;-0.11;9.80392075;4.705882070000001;24.31372643;47.05882263;2213.25;123;12.3;-0.008193304257911631;-0.289481204127636;0.08467968645035928;9.622484625197815;-2.8711194496999504;-0.7298348227037948;26.77682528880218;8;1;0;0;0;0;0;0;0;0;0;0;0;0;0;0;0;0
124;2022-05-02 00:00:29.898;5.174583212664713;52.3694444916816;28;-0.01;-0.49000001;9.24908352;-3.79731989;-0.98404694;-0.07;9.80392075;4.705882070000001;24.31372643;47.05882263;2213.25;124;12.4;-0.008357550425417052;-0.30771030856955517;0.08614547931751126;9.5885388428271;-2.9553200536628927;-0.7529451699674009;26.888023734574556;8;1;0;0;0;0;0;0;0;0;0;0;0;0;0;0;0;0
125;2022-05-02 00:00:29.997;5.174583212664713;52.3694444916816;28;-0.02;-0.37;9.56512833;-3.52197814;-0.82602483;-0.02;9.80392075;4.705882070000001;24.31372643;45.49019623;2213.25;125;12.5;-0.009415961376500956;-0.3133730422689607;0.0829325343624832;9.586410601430137;-3.0068347388034486;-0.7595888158758062;26.98911310147558;8;1;0;0;0;0;0;0;0;0;0;0;0;0;0;0;0;0
126;2022-05-02 00:00:30.102;5.174583212664713;52.3694444916816;28;0.08;-0.36000001;10.36721039;-4.10618114;-1.42459357;-0.01;9.80392075;4.705882070000001;24.31372643;45.49019623;2249.0;126;12.600000000000001;-0.001287192621088931;-0.3176118809798229;0.07910258276655724;9.657392793287741;-3.10677587391906;-0.8200441281523663;27.081012419108376;8;1;0;0;0;0;0;0;0;0;0;0;0;0;0;0;0;0
127;2022-05-02 00:00:30.198;5.174583212664713;52.3694444916816;29;0.02;-0.41999999;9.87398911;-3.91463923;-0.63208854;-0.1;9.80392075;4.705882070000001;25.88235283;45.49019623;2249.0;127;12.700000000000001;0.0006480164459758485;-0.3269199377284224;0.08380267162020866;9.67708346661679;-3.180218366758083;-0.8029571705214381;27.25546671339832;8;1;0;0;0;0;0;0;0;0;0;0;0;0;0;0;0;0
128;2022-05-02 00:00:30.296;5.174583212664713;52.3694444916816;29;-0.05;-0.31999999;11.16929245;-3.39508176;-1.20671451;-0.09;9.80392075;4.705882070000001;25.88235283;45.49019623;2249.0;128;12.8;-0.003956369748240307;-0.3262908486935254;0.08716638049656623;9.812739449300805;-3.199751491861625;-0.8396625511100642;27.41406137403517;8;1;0;0;0;0;0;0;0;0;0;0;0;0;0;0;0;0
129;2022-05-02 00:00:30.395;5.174583212664713;52.3694444916816;29;-0.19;-0.31999999;7.88434696;-3.05509472;-1.25699425;-0.07;15.686273580000002;4.705882070000001;25.88235283;45.49019623;2249.0;129;12.9;-0.020869497379399613;-0.32571895007034113;0.08840610560698957;9.637430312135628;-3.186600821548988;-0.8776019542398699;27.558238212338264;8;1;0;0;0;0;0;0;0;0;0;0;0;0;0;0;0;0
130;2022-05-02 00:00:30.494;5.174588303215203;52.36936992502405;29;0.05;-0.22;9.14134121;-2.19315577;-1.39586222;-0.1;15.686273580000002;7.450980190000001;25.88235283;62.74509811;2249.0;130;13.0;-0.014426791442299539;-0.3161081000930114;0.09226041057785611;9.592331132349587;-3.096287293607165;-0.9247167019754229;27.689307961281514;8;1;0;0;0;0;0;0;0;0;0;0;0;0;0;0;0;0
131;2022-05-02 00:00:30.594;5.174588303215203;52.36936992502405;29;0.0;-0.22;9.82370949;-2.47568011;-2.65285659;-0.16;15.686273580000002;7.450980190000001;25.88235283;62.74509811;2257.25;131;13.100000000000001;-0.01311526043995801;-0.30737097005600605;0.10121888586006722;9.613365600792767;-3.0398682648278235;-1.0818208681091217;27.80846219250311;8;1;0;0;0;0;0;0;0;0;0;0;0;0;0;0;0;0
132;2022-05-02 00:00:30.694;5.174588303215203;52.36936992502405;31;-0.07;-0.25;9.44780827;-2.51638293;-2.09977889;-0.07;15.686273580000002;7.450980190000001;40.39215851;62.74509811;2257.25;132;13.200000000000001;-0.018286616557579214;-0.30215541102791493;0.10118110520929027;9.598314887331934;-2.9922785402429115;-1.1743627956049938;28.098602899713306;8;1;0;0;0;0;0;0;0;0;0;0;0;0;0;0;0;0
133;2022-05-02 00:00:30.798;5.174588303215203;52.36936992502405;31;0.01;-0.16;9.9170866;-1.48205614;-2.07104778;-0.15000001;15.686273580000002;7.450980190000001;40.39215851;62.74509811;2257.25;133;13.3;-0.015715098657284685;-0.28923215513628514;0.10841950802298292;9.627294216251139;-2.8549852047976785;-1.2558798439095653;28.362367021663438;8;1;0;0;0;0;0;0;0;0;0;0;0;0;0;0;0;0
134;2022-05-02 00:00:30.895;5.174588303215203;52.36936992502405;31;-0.01;-0.15000001;9.30175781;-1.25220573;-2.47328591;-0.15000001;15.294116980000002;7.450980190000001;40.39215851;62.74509811;2257.25;134;13.4;-0.015195542892305604;-0.27657465471260384;0.11499987064897674;9.597699921083064;-2.7092776035719592;-1.3665534084247761;28.60215245704642;8;1;0;0;0;0;0;0;0;0;0;0;0;0;0;0;0;0
135;2022-05-02 00:00:30.998;5.174588303215203;52.36936992502405;31;-0.01;-0.13;9.75906372;-0.84517902;-2.21230984;-0.15000001;15.294116980000002;7.450980190000001;40.39215851;78.03921509;2257.25;135;13.5;-0.014723219702435753;-0.2632496548227065;0.12098201554180624;9.612369391783968;-2.5398136981678667;-1.4434405372378503;28.820139109025888;8;1;0;0;0;0;0;0;0;0;0;0;0;0;0;0;0;0
136;2022-05-02 00:00:31.095;5.174588303215203;52.36936992502405;34;-0.04;-0.12;9.55555058;-0.90743017;-1.70472372;-0.17;15.294116980000002;7.450980190000001;40.39215851;78.03921509;2354.25;136;13.600000000000001;-0.01702111372418913;-0.25022693113874694;0.12823851143273401;9.607204034235085;-2.391414878918443;-1.4671936045425376;29.291036558572912;8;1;0;0;0;0;0;0;0;0;0;0;0;0;0;0;0;0
137;2022-05-02 00:00:31.195;5.174588303215203;52.36936992502405;34;-0.02;-0.02;9.56752205;-0.15802214;-2.02555656;-0.15000001;15.294116980000002;7.450980190000001;43.52941132;78.03921509;2354.25;137;13.700000000000001;-0.017291922092822234;-0.22929716952167442;0.13301713875500543;9.603596574124207;-2.1883787814833733;-1.517953971697351;29.71912497466348;8;1;0;0;0;0;0;0;0;0;0;0;0;0;0;0;0;0
138;2022-05-02 00:00:31.302;5.174588303215203;52.36936992502405;34;0.05;0.03;9.09824467;-0.22266756;-2.281744;-0.14;15.294116980000002;7.450980190000001;43.52941132;78.03921509;2354.25;138;13.8;-0.011174463840674822;-0.2057246579910812;0.13645225038112765;9.557655410906152;-2.0096774461787468;-1.587389551277063;30.10829611788083;8;1;0;0;0;0;0;0;0;0;0;0;0;0;0;0;0;0
139;2022-05-02 00:00:31.394;5.174588303215203;52.36936992502405;34;0.0;-0.01;9.63216782;0.43575802;-1.38628507;-0.22;15.294116980000002;7.450980190000001;43.52941132;78.03921509;2354.25;139;13.9;-0.010158601862756234;-0.187931478736205;0.14684781701404803;9.564429277139093;-1.787364774630061;-1.569107296393855;30.46208794713823;8;1;0;0;0;0;0;0;0;0;0;0;0;0;0;0;0;0
140;2022-05-02 00:00:31.494;5.174553429067139;52.36928601329591;34;0.02;-0.06;9.79258442;-0.01436565;-1.81725454;-0.18000001;14.901960380000002;7.058823590000001;43.52941132;78.03921509;2354.25;140;14.0;-0.007416906788093216;-0.1763013273538042;0.15266196121460432;9.585170683995;-1.626182801092252;-1.5916661696029726;30.78371678437888;8;1;0;0;0;0;0;0;0;0;0;0;0;0;0;0;0;0
141;2022-05-02 00:00:31.595;5.174553429067139;52.36928601329591;34;-0.02;0.01;9.51005936;0.22027329;-2.35596633;-0.18000001;14.901960380000002;7.058823590000001;43.52941132;75.68627167;2354.25;141;14.100000000000001;-0.008560825868584473;-0.1593648206068618;0.15794754538068018;9.578342372765649;-1.458322934021486;-1.6611480944347286;31.076106555053975;8;1;0;0;0;0;0;0;0;0;0;0;0;0;0;0;0;0
142;2022-05-02 00:00:31.694;5.174553429067139;52.36928601329591;34;-0.07;-0.01;9.90272045;0.30167863;-1.7023294;-0.16;14.901960380000002;7.058823590000001;43.52941132;75.68627167;2354.25;142;14.200000000000001;-0.014146212063282015;-0.14578618419474798;0.16093443576228905;9.607831324400513;-1.2983225990999072;-1.6648918539958824;31.3419153702447;8;1;0;0;0;0;0;0;0;0;0;0;0;0;0;0;0;0
143;2022-05-02 00:00:31.796;5.174553429067139;52.36928601329591;38;0.08;-0.01;9.40471172;-0.12689656;-1.76697481;-0.12;14.901960380000002;7.058823590000001;43.52941132;75.68627167;2541.75;143;14.3;-0.00558745613939048;-0.13344197211345618;0.16001342241166208;9.589365885597166;-1.1918292061973015;-1.6741721328863524;31.947196453974186;8;1;0;0;0;0;0;0;0;0;0;0;0;0;0;0;0;0
144;2022-05-02 00:00:31.899;5.174553429067139;52.36928601329591;38;-0.01;0.01;9.14612961;-0.03112557;-2.16921306;-0.1;14.901960380000002;7.058823590000001;41.5686264;75.68627167;2541.75;144;14.4;-0.005988596889708426;-0.12040177984832377;0.15735795409423792;9.549071638609982;-1.0863105887672555;-1.7191758983362964;32.497451869598436;8;1;0;0;0;0;0;0;0;0;0;0;0;0;0;0;0;0
145;2022-05-02 00:00:31.994;5.174553429067139;52.36928601329591;38;0.06;0.04;10.39833546;0.56265455;-1.97288239;-0.14;14.901960380000002;7.058823590000001;41.5686264;75.68627167;2541.75;145;14.5;1.0371893210548681e-05;-0.10581978666481955;0.15858025937372466;9.626277510428961;-0.9364045313901029;-1.742240145725254;32.99768397054702;8;1;0;0;0;0;0;0;0;0;0;0;0;0;0;0;0;0
146;2022-05-02 00:00:32.095;5.174553429067139;52.36928601329591;38;-0.05;-0.11;10.66409969;0.31365001;-1.36234236;-0.16;14.901960380000002;7.058823590000001;41.5686264;75.68627167;2541.75;146;14.600000000000001;-0.004536029292242007;-0.1061998063715934;0.161509629113566;9.720625058924822;-0.8227631159454825;-1.70770395497146;33.45244034738174;8;1;0;0;0;0;0;0;0;0;0;0;0;0;0;0;0;0
147;2022-05-02 00:00:32.197;5.174553429067139;52.36928601329591;38;0.08;0.06;9.96497154;-0.69194543;-2.08541346;-0.1;14.901960380000002;7.058823590000001;41.5686264;75.68627167;2541.75;147;14.700000000000001;0.0031490700279827857;-0.09109072176398407;0.15871814256075578;9.742838392001048;-0.8108705901461276;-1.7420412083844692;33.865855170476884;8;1;0;0;0;0;0;0;0;0;0;0;0;0;0;0;0;0
148;2022-05-02 00:00:32.295;5.174553429067139;52.36928601329591;38;-0.1;-0.05;9.11979294;0.27055305;-1.59698129;-0.1;14.901960380000002;7.058823590000001;41.5686264;75.68627167;2541.75;148;14.8;-0.006228124532592611;-0.08735519906357758;0.1561804278751166;9.68619785785071;-0.7125592832840795;-1.728853934109836;34.24168677416966;8;1;0;0;0;0;0;0;0;0;0;0;0;0;0;0;0;0
149;2022-05-02 00:00:32.398;5.174553429067139;52.36928601329591;38;0.05;-0.01;10.29777622;-0.0095771;-1.68078089;-0.11;14.901960380000002;7.058823590000001;41.5686264;74.90196228;2541.75;149;14.9;-0.0011164736880201007;-0.08032290389256917;0.15478250629506501;9.741795925141583;-0.6486517725717031;-1.724483654671069;34.58335182408339;8;1;0;0;0;0;0;0;0;0;0;0;0;0;0;0;0;0
150;2022-05-02 00:00:32.497;5.174505874966683;52.3691915500144;38;-0.08;-0.06;10.7670536;-0.0478855;-1.40543926;-0.04;14.901960380000002;7.058823590000001;41.5686264;74.90196228;2416.0;150;15.0;-0.00828770738268403;-0.07847536613682261;0.14714802870525115;9.835001220688072;-0.5940366261918998;-1.6954796024927963;34.893956378259155;8;1;0;0;0;0;0;0;0;0;0;0;0;0;0;0;0;0
151;2022-05-02 00:00:32.594;5.174505874966683;52.3691915500144;41;0.0;0.0;9.1892271;0.0670397;-1.99203658;-0.1;14.901960380000002;7.058823590000001;39.60784149;74.90196228;2416.0;151;15.100000000000001;-0.0075342790538984435;-0.07134123829794191;0.14566214351840434;9.776294452452074;-0.5339387476539664;-1.7224393414936918;35.44905153654528;8;1;0;0;0;0;0;0;0;0;0;0;0;0;0;0;0;0
152;2022-05-02 00:00:32.697;5.174505874966683;52.3691915500144;41;-0.05;0.03;9.60104179;0.29928434;-1.73106074;-0.15000001;14.901960380000002;7.058823590000001;39.60784149;74.90196228;2416.0;152;15.200000000000001;-0.011394800932845336;-0.06212839417396405;0.14885679650042016;9.760362384829847;-0.45819115905151464;-1.723223105358268;35.95368344940677;8;1;0;0;0;0;0;0;0;0;0;0;0;0;0;0;0;0
153;2022-05-02 00:00:32.797;5.174505874966683;52.3691915500144;41;0.03;0.02;10.18045616;0.33998701;-1.74782062;-0.12;14.901960380000002;7.058823590000001;39.60784149;74.90196228;2416.0;153;15.3;-0.007631635622838977;-0.054662173369487144;0.14903375143873013;9.79855274415141;-0.385629476683434;-1.7254592439970866;36.41243969315126;8;1;0;0;0;0;0;0;0;0;0;0;0;0;0;0;0;0
154;2022-05-02 00:00:32.895;5.174505874966683;52.3691915500144;41;0.04;0.05;9.95300007;0.42857519;-1.50599885;-0.08;14.901960380000002;7.058823590000001;39.60784149;74.90196228;2416.0;154;15.4;-0.0033014852678315797;-0.0451474266838952;0.14555825451940674;9.812593415526813;-0.3116108422110658;-1.7055082914305768;36.829490790212354;8;1;0;0;0;0;0;0;0;0;0;0;0;0;0;0;0;0
155;2022-05-02 00:00:32.995;5.174505874966683;52.3691915500144;41;0.11;0.09;10.49410629;0.46448931;-1.71430075;-0.17;14.901960380000002;7.058823590000001;39.60784149;74.90196228;2416.0;155;15.5;0.00699865335056733;-0.03286129269833085;0.15058053313371386;9.874549153006367;-0.24105625830038072;-1.7063076061248854;37.208628123395386;8;1;0;0;0;0;0;0;0;0;0;0;0;0;0;0;0;0
156;2022-05-02 00:00:33.094;5.174505874966683;52.3691915500144;41;-0.02;0.02;9.54597378;0.28731298;-1.77894616;-0.16;14.901960380000002;7.058823590000001;39.60784149;79.21568298;2416.0;156;15.600000000000001;0.004544229540126997;-0.02805571911046475;0.15423714946329564;9.844678655075988;-0.1930226759453769;-1.7129111131173291;37.55329840332906;8;1;0;0;0;0;0;0;0;0;0;0;0;0;0;0;0;0
157;2022-05-02 00:00:33.194;5.174505874966683;52.3691915500144;44;-0.06;0.02;9.2035923;0.34477556;-2.04949927;-0.15000001;14.901960380000002;7.058823590000001;39.60784149;79.21568298;2277.75;157;15.700000000000001;-0.0013234293828725259;-0.023687016113330447;0.1566522556630857;9.786398060535213;-0.14413191312425663;-1.7435100452942287;38.13936235385007;8;1;0;0;0;0;0;0;0;0;0;0;0;0;0;0;0;0
158;2022-05-02 00:00:33.294;5.174505874966683;52.3691915500144;44;0.03;0.08;10.26904488;0.5411061;-1.38867939;-0.1;14.901960380000002;7.058823590000001;43.52941132;79.21568298;2277.75;158;15.8;0.001524155852996678;-0.014260921268265453;0.15430234998675868;9.830275055625624;-0.08183753196381045;-1.7112527045382344;38.67214773408308;8;1;0;0;0;0;0;0;0;0;0;0;0;0;0;0;0;0
159;2022-05-02 00:00:33.394;5.174505874966683;52.3691915500144;44;0.01;-0.01;10.72156239;0.23942748;-0.45970076;-0.1;14.901960380000002;7.058823590000001;43.52941132;79.21568298;2277.75;159;15.9;0.0022946873227251284;-0.013873564697015311;0.15216607220610587;9.911301196242974;-0.05263161482476963;-1.597475227918693;39.15649805550853;8;1;0;0;0;0;0;0;0;0;0;0;0;0;0;0;0;0
160;2022-05-02 00:00:33.494;5.174457729890429;52.36908494535913;44;-0.01;0.0;9.62737942;0.15802214;-0.54589468;-0.11;0.39215659999999986;0.0;43.52941132;56.47058868;2277.75;160;16.0;0.001176988233044562;-0.012612331269483018;0.15113309269083688;9.885490120083217;-0.03348126932795946;-1.5018769755774537;39.59681650949783;8;1;0;0;0;0;0;0;0;0;0;0;0;0;0;0;0;0
161;2022-05-02 00:00:33.595;5.174457729890429;52.36908494535913;44;-0.04;0.02;9.34246063;0.32083282;-0.63208854;-0.01;0.39215659999999986;0.0;43.52941132;56.47058868;2277.75;161;16.1;-0.0025663750709005216;-0.009647573297400095;0.14110310956158728;9.836123793079578;-0.0012708912266143474;-1.4228052840416567;39.99710599656758;8;1;0;0;0;0;0;0;0;0;0;0;0;0;0;0;0;0
162;2022-05-02 00:00:33.696;5.174457729890429;52.36908494535913;44;0.02;0.02;10.13496494;0.29449579;-0.30407289;0.0;0.39215659999999986;0.0;43.52941132;56.47058868;2327.75;162;16.2;-0.0005148860607570558;-0.006952338878671095;0.13107585235144273;9.863291174936865;0.025616993699371322;-1.321102320918109;40.36100551658398;8;1;0;0;0;0;0;0;0;0;0;0;0;0;0;0;0;0
163;2022-05-02 00:00:33.799;5.174457729890429;52.36908494535913;45;-0.12;-0.04;10.63057995;-0.21069619;-0.30886146;0.02;0.39215659999999986;0.0;16.47058868;56.47058868;2327.75;163;16.3;-0.011377170914299769;-0.009956672196926603;0.12014198217604741;9.933044711297049;0.004133973502433795;-1.2290804094917298;40.78273235645209;8;1;0;0;0;0;0;0;0;0;0;0;0;0;0;0;0;0
164;2022-05-02 00:00:33.896;5.174457729890429;52.36908494535913;45;0.06;0.0;9.94581795;0.82123625;-0.87151605;0.01;0.39215659999999986;0.0;16.47058868;56.47058868;2327.75;164;16.400000000000002;-0.004888336234591534;-0.009051520045078558;0.11111119155092736;9.934205914987336;0.07841600963093127;-1.1965745538185852;41.16612038078163;8;1;0;0;0;0;0;0;0;0;0;0;0;0;0;0;0;0
165;2022-05-02 00:00:33.995;5.174457729890429;52.36908494535913;45;0.0;0.01;9.81652641;0.2083019;-0.68715686;-0.01;0.39215659999999986;0.0;16.47058868;56.47058868;2327.75;165;16.5;-0.00444394197166316;-0.007319563444346639;0.10471956418644163;9.923507776731102;0.09022381943478798;-1.1502638481504228;41.51465493850749;8;1;0;0;0;0;0;0;0;0;0;0;0;0;0;0;0;0
