;device_time;lon;lat;raw_speed_kph;raw_g_x;raw_g_y;raw_roll;raw_yaw;raw_pitch;raw_g_z;apps_d;apps_e;engine_load;engine_load_abs;engine_rpm;num_samples;cumulative_time;g_x;g_y;g_z;roll;yaw;pitch;speed_kph;sample_nr;roundabout_1;roundabout_2;roundabout_3;roundabout_4;turning_right_1;turning_right_2;turning_right_3;turning_left_1;turning_left_2;road_50km_1;road_50km_2;road_100km;entering_highway;exiting_highway;speed_bumps;road_50km_3;road_50km_4
0;2022-05-01 10:08:15.004;5.17375502704816;52.36976357673892;0;0.03;0.03;9.80934429;0.2370332;-0.96489275;-0.04;0.0;0.0;24.31372643;21.96078491;855.25;0;0.0;0.03;0.03;0.04;9.80934429;0.2370332;-0.96489275;0.0;4;0;0;0;0;0;0;0;0;0;0;0;0;0;0;0;0;0
1;2022-05-01 10:08:15.107;5.17375502704816;52.36976357673892;0;0.03;0.01;9.88596058;0.0670397;-1.00320113;-0.02;0.0;0.0;24.31372643;21.96078491;855.25;1;0.1;0.03;0.019523809523809523;0.029523809523809525;9.849476632380954;0.1479889857142857;-0.9849590442857143;0.0;4;0;0;0;0;0;0;0;0;0;0;0;0;0;0;0;0;0
2;2022-05-01 10:08:15.205;5.17375502704816;52.36976357673892;0;0.05;0.01;9.73991013;0.00718282;-0.82363051;-0.03;0.0;0.0;24.31372643;21.96078491;855.25;2;0.2;0.03731117824773414;0.016042296072507553;0.029697885196374625;9.809423620936558;0.09651603691842899;-0.925983960755287;0.0;4;0;0;0;0;0;0;0;0;0;0;0;0;0;0;0;0;0
3;2022-05-01 10:08:15.304;5.17375502704816;52.36976357673892;0;0.02;0.0;9.66329288;0.0191542;-0.8834874;-0.05;0.0;0.0;24.31372643;21.96078491;855.25;3;0.30000000000000004;0.03234647705235941;0.011441499676793794;0.03552036199095023;9.767514546127991;0.07432930885585001;-0.9137963024132729;0.0;4;0;0;0;0;0;0;0;0;0;0;0;0;0;0;0;0;0
4;2022-05-01 10:08:15.405;5.17375502704816;52.36976357673892;0;0.04;0.01;9.88117218;0.12689656;-0.89067024;-0.04;0.0;0.0;24.31372643;21.96078491;855.25;4;0.4;0.034181913482170645;0.011095805146516846;0.03659465037427724;9.794771452935743;0.08693577105960587;-0.908250305135706;0.0;4;0;0;0;0;0;0;0;0;0;0;0;0;0;0;0;0;0
5;2022-05-01 10:08:15.506;5.17375502704816;52.36976357673892;0;0.02;0.0;9.88356686;0.05267405;-0.77813929;-0.04;0.0;0.0;24.31372643;21.96078491;855.25;5;0.5;0.031221666206560462;0.00877973355314745;0.03730546256226014;9.813306071848707;0.07978418558759447;-0.881091714825127;0.0;4;0;0;0;0;0;0;0;0;0;0;0;0;0;0;0;0;0
6;2022-05-01 10:08:15.606;5.17375502704816;52.36976357673892;0;0.04;0.03;9.89074898;0.28013015;-1.19953167;-0.07;0.0;0.0;24.31372643;21.96078491;855.25;6;0.6000000000000001;0.03286086442417871;0.012742242128870658;0.04341058783487722;9.827767162073329;0.11719524279952893;-0.9405547312954271;0.0;4;0;0;0;0;0;0;0;0;0;0;0;0;0;0;0;0;0
7;2022-05-01 10:08:15.705;5.17375502704816;52.36976357673892;0;0.03;0.01;10.34326744;0.35435268;-1.76936913;-0.09;0.0;0.0;24.31372643;21.96078491;855.25;7;0.7000000000000001;0.03237336267744697;0.012274954054508454;0.05134959382822222;9.9156102922147;0.15760773627825875;-1.0817877319472802;0.0;4;0;0;0;0;0;0;0;0;0;0;0;0;0;0;0;0;0
8;2022-05-01 10:08:15.804;5.17375502704816;52.36976357673892;0;0.06;0.04;10.05834866;0.35195839;-2.31526375;-0.18000001;0.0;0.0;24.31372643;21.96078491;1579.75;8;0.8;0.03673436649335559;0.01665149216708672;0.07165770984295505;9.93814226233182;0.1882869656252535;-1.2764981325926883;0.0;4;0;0;0;0;0;0;0;0;0;0;0;0;0;0;0;0;0
9;2022-05-01 10:08:15.903;5.17375502704816;52.36976357673892;1;0.0;0.02;9.89074898;0.33519846;-2.7629931;-0.25;0.0;0.0;45.49019623;21.96078491;1579.75;9;0.9;0.03129950378361008;0.017146905103027316;0.09804351569373664;9.931130409197392;0.21002257395688803;-1.4964255966486604;0.14795035898410147;4;0;0;0;0;0;0;0;0;0;0;0;0;0;0;0;0;0
10;2022-05-01 10:08:16.005;5.17375502704816;52.36976357673892;1;0.03;0.04;9.92905807;0.35914123;-3.02396917;-0.22;0.0;0.0;45.49019623;21.96078491;1579.75;10;1.0;0.031117616796703277;0.0203455726442315;0.11511333707016201;9.930840351148145;0.2308941892467838;-1.7102305131329145;0.2672087588856949;4;0;0;0;0;0;0;0;0;0;0;0;0;0;0;0;0;0
11;2022-05-01 10:08:16.103;5.17375502704816;52.36976357673892;1;0.03;0.02;9.68244743;0.25858167;-2.7653873;-0.22;0.0;0.0;45.49019623;21.96078491;1579.75;11;1.1;0.030968503027525154;0.020299465928890238;0.1291074410350615;9.897699470643467;0.2345882860305269;-1.8510107931248971;0.3649786423605943;4;0;0;0;0;0;0;0;0;0;0;0;0;0;0;0;0;0
12;2022-05-01 10:08:16.204;5.17375502704816;52.36976357673892;1;0.0;0.03;9.48611641;0.23463893;-2.95692945;-0.25;0.0;0.0;45.49019623;21.96078491;1579.75;12;1.2000000000000002;0.027005139264344953;0.021540944898240464;0.14457932829463932;9.84502487456618;0.2345947674698543;-1.992546789417256;0.44624897807803393;4;0;0;0;0;0;0;0;0;0;0;0;0;0;0;0;0;0
13;2022-05-01 10:08:16.304;5.17375502704816;52.36976357673892;1;0.0;0.02;9.63456154;0.2466103;-2.57145119;-0.23;0.0;0.0;45.49019623;21.96078491;1579.75;13;1.3;0.02367255229802477;0.021350783579928954;0.15512072244902733;9.819052508388102;0.23607755216173804;-2.0639868675906223;0.5145849870198634;4;0;0;0;0;0;0;0;0;0;0;0;0;0;0;0;0;0
14;2022-05-01 10:08:16.408;5.17375502704816;52.36976357673892;1;0.02;0.0;9.51245403;-0.48124924;-2.40145755;-0.23999999;0.0;0.0;45.49019623;21.96078491;1579.75;14;1.4000000000000001;0.023233602914899572;0.018798903437421542;0.16526562961662747;9.782407362986643;0.15034149522718643;-2.104321908686185;0.5726025734874374;4;0;0;0;0;0;0;0;0;0;0;0;0;0;0;0;0;0
15;2022-05-01 10:08:16.506;5.17375502704816;52.36976357673892;1;0.0;-0.01;10.02482891;-0.17717634;-2.64806795;-0.18000001;0.0;0.0;45.49019623;21.96078491;1579.75;15;1.5;0.020533929631859477;0.01545255933075699;0.16697771935186312;9.810576002009284;0.11228492893737796;-2.1675035282511965;0.6222648414457191;4;0;0;0;0;0;0;0;0;0;0;0;0;0;0;0;0;0
16;2022-05-01 10:08:16.606;5.17375502704816;52.36976357673892;1;0.03;0.0;9.80216122;-0.10055954;-2.35117793;-0.18000001;0.0;0.0;45.49019623;21.96078491;1579.75;16;1.6;0.02160672914871764;0.013701304846102795;0.16845354898046241;9.809622346086293;0.08816304577343455;-2.188319537618559;0.6650739565101128;4;0;0;0;0;0;0;0;0;0;0;0;0;0;0;0;0;0
17;2022-05-01 10:08:16.705;5.17375502704816;52.36976357673892;1;0.04;-0.04;9.51484776;-0.93137288;-2.12372184;-0.17;9.01960755;0.0;45.49019623;21.96078491;1579.75;17;1.7000000000000002;0.023645543332618563;0.007748748452002376;0.16862496635906973;9.77694786355268;-0.024848083311228168;-2.181159163413398;0.7021990537016974;4;0;0;0;0;0;0;0;0;0;0;0;0;0;0;0;0;0
18;2022-05-01 10:08:16.804;5.173810733572983;52.36975874509124;1;0.15000001;-0.03;10.87479591;-0.8092649;-1.66880953;-0.1;9.01960755;4.313725470000001;45.49019623;41.5686264;1579.75;18;1.8;0.037377616766750985;0.0036462533090799243;0.16116687562185575;9.896260859689328;-0.11009769588008343;-2.125477532399084;0.7345637541446783;4;0;0;0;0;0;0;0;0;0;0;0;0;0;0;0;0;0
19;2022-05-01 10:08:16.904;5.173810733572983;52.36975874509124;1;0.07;-0.09;10.58030033;-0.65363705;-1.08221221;-0.08;9.01960755;4.313725470000001;45.49019623;41.5686264;1579.75;19;1.9000000000000001;0.040861083033808816;-0.006353431940955805;0.1524997567541257;9.969303604700512;-0.168137630956481;-2.014076120301625;0.7629074285439504;4;0;0;0;0;0;0;0;0;0;0;0;0;0;0;0;0;0
20;2022-05-01 10:08:17.011;5.173810733572983;52.36975874509124;1;0.01;-0.09;9.61780167;-1.02953815;-1.75500345;-0.12;9.01960755;4.313725470000001;45.49019623;41.5686264;1579.75;20;2.0;0.037617179493255035;-0.015145780478583197;0.14908360716902042;9.932356153140327;-0.25868209404285214;-1.9868441935564913;0.7878289593645866;4;0;0;0;0;0;0;0;0;0;0;0;0;0;0;0;0;0
21;2022-05-01 10:08:17.106;5.173810733572983;52.36975874509124;1;-0.07;-0.08;9.56752205;-0.08858817;-2.535537;-0.17;9.01960755;4.313725470000001;45.49019623;41.5686264;1579.75;21;2.1;0.026463631018089954;-0.021867334459622592;0.15125140233392292;9.894544394144877;-0.24105339539012538;-2.043711246228371;0.8098185710408676;4;0;0;0;0;0;0;0;0;0;0;0;0;0;0;0;0;0
22;2022-05-01 10:08:17.205;5.173810733572983;52.36975874509124;1;-0.17;-0.01;9.34724903;-2.29850388;-1.87232292;-0.20999999;9.01960755;4.313725470000001;45.49019623;41.5686264;1579.75;22;2.2;0.006357933686359997;-0.02065285504914274;0.15726361597448213;9.838535274871587;-0.45160878675809996;-2.026171705726739;0.8292813603060021;4;0;0;0;0;0;0;0;0;0;0;0;0;0;0;0;0;0
23;2022-05-01 10:08:17.305;5.173810733572983;52.36975874509124;1;-0.03;-0.25;12.98654652;1.36473668;-1.64007819;-0.14;9.01960755;4.313725470000001;45.49019623;41.5686264;1579.75;23;2.3000000000000003;0.0026791792428463553;-0.043858569539778375;0.15551685543178756;10.157056136264535;-0.26782801928013433;-1.9871061403168875;0.8465549479576708;4;0;0;0;0;0;0;0;0;0;0;0;0;0;0;0;0;0
24;2022-05-01 10:08:17.406;5.173810733572983;52.36975874509124;1;0.25999999;0.0;11.99771118;-0.12210801;-0.4836435;0.0;9.01960755;4.313725470000001;45.49019623;41.5686264;1579.75;24;2.4000000000000004;0.028450577111472534;-0.039466011307769874;0.13994140801726557;10.341402879660148;-0.25323375336931214;-1.8365301578683144;0.8619228984763989;4;0;0;0;0;0;0;0;0;0;0;0;0;0;0;0;0;0
25;2022-05-01 10:08:17.505;5.173810733572983;52.36975874509124;1;0.03;-0.07;10.95859623;-0.40463245;-1.2689656;-0.07;9.01960755;4.313725470000001;45.49019623;41.5686264;1579.75;25;2.5;0.02860433485042411;-0.04249606662530302;0.13300073814885763;10.40265036396341;-0.2682578771553453;-1.7802076110845775;0.8756250472496319;4;0;0;0;0;0;0;0;0;0;0;0;0;0;0;0;0;0
26;2022-05-01 10:08:17.607;5.173810733572983;52.36975874509124;1;0.03;-0.07;9.0431757;-1.43656492;-1.44853628;-0.07;9.01960755;4.313725470000001;45.49019623;41.5686264;1579.75;26;2.6;0.02874169068542422;-0.04520289478936282;0.12680045508189927;10.268856253186248;-0.38323802798535983;-1.7475658326174701;0.8878655373796008;4;0;0;0;0;0;0;0;0;0;0;0;0;0;0;0;0;0
27;2022-05-01 10:08:17.705;5.173810733572983;52.36975874509124;1;0.06;-0.04;10.03440571;-0.49082634;-1.76218629;-0.12;9.01960755;4.313725470000001;45.49019623;41.5686264;1579.75;27;2.7;0.03179508796314152;-0.044694661774383915;0.1261361680014516;10.245954481912573;-0.39374754901267006;-1.748993998943471;0.8988191388510586;4;0;0;0;0;0;0;0;0;0;0;0;0;0;0;0;0;0
28;2022-05-01 10:08:17.805;5.17384756810176;52.36974708811398;1;0.09;-0.03;10.46298122;-0.48843205;-1.9944309;-0.18000001;9.01960755;4.313725470000001;45.49019623;41.5686264;1579.75;28;2.8000000000000003;0.03744244996369778;-0.04326890453823981;0.13136233541347242;10.267011614564943;-0.4029343621905487;-1.7728076425013068;0.9086362647677552;4;0;0;0;0;0;0;0;0;0;0;0;0;0;0;0;0;0
29;2022-05-01 10:08:17.903;5.17384756810176;52.36974708811398;12;0.05;-0.04;9.02641582;-0.24421602;-1.20432019;-0.11;9.01960755;4.313725470000001;45.49019623;41.5686264;2000.25;29;2.9000000000000004;0.03865344584346666;-0.042953665505488806;0.12930224406657992;10.147373915226007;-0.387628250896478;-1.7179851683173126;1.978239471249539;4;0;0;0;0;0;0;0;0;0;0;0;0;0;0;0;0;0
30;2022-05-01 10:08:18.008;5.17384756810176;52.36974708811398;12;-0.03;0.04;8.67206383;-1.21629155;-0.98883551;-0.11;9.01960755;4.313725470000001;25.88235283;41.5686264;2000.25;30;3.0;0.03206919255733643;-0.03499794037049123;0.12745104982041142;10.005883343888067;-0.4671017424770483;-1.6480555970500115;2.9393829198200074;4;0;0;0;0;0;0;0;0;0;0;0;0;0;0;0;0;0
31;2022-05-01 10:08:18.111;5.17384756810176;52.36974708811398;12;-0.15000001;-0.31999999;7.93702078;-3.24663663;-1.28811979;-0.08;9.01960755;4.313725470000001;25.88235283;41.5686264;2000.25;31;3.1;0.014694540963743319;-0.062195353476165956;0.12292285149362275;9.808454203002677;-0.7323495141189323;-1.6137073428932807;3.804027037440672;4;0;0;0;0;0;0;0;0;0;0;0;0;0;0;0;0;0
32;2022-05-01 10:08:18.204;5.17384756810176;52.36974708811398;12;0.0;-0.22;9.84046936;-1.350371;-1.88908279;-0.13;9.01960755;4.313725470000001;25.88235283;41.5686264;2000.25;32;3.2;0.013298567503121216;-0.0771867097256508;0.12359517678205201;9.81149562563821;-0.7910612217192514;-1.6398678617428601;4.582640045355588;4;0;0;0;0;0;0;0;0;0;0;0;0;0;0;0;0;0
33;2022-05-01 10:08:18.306;5.17384756810176;52.36974708811398;12;0.06;0.0;9.66089916;-0.32801566;-1.87711143;-0.08;9.01960755;4.313725470000001;25.88235283;41.5686264;2000.25;33;3.3000000000000003;0.017717104934466068;-0.06988388521062266;0.11947052984642607;9.797247323501114;-0.7472513418614686;-1.6623140594426855;5.284414720116263;4;0;0;0;0;0;0;0;0;0;0;0;0;0;0;0;0;0
34;2022-05-01 10:08:18.409;5.17384756810176;52.36974708811398;12;0.1;-0.01;9.10063839;-0.64166564;-1.83880305;-0.1;9.01960755;4.313725470000001;25.88235283;41.5686264;2000.25;34;3.4000000000000004;0.025473367776063047;-0.0642390284843288;0.1176351721206951;9.731582619047828;-0.7372984779606567;-1.678950506158864;5.917448408642325;4;0;0;0;0;0;0;0;0;0;0;0;0;0;0;0;0;0
35;2022-05-01 10:08:18.508;5.17384756810176;52.36974708811398;12;-0.04;-0.13;8.99050236;-1.38389087;-1.76218629;-0.12;8.62745095;4.313725470000001;25.88235283;41.5686264;2000.25;35;3.5;0.019322260117439854;-0.07041715600805812;0.11785734353746825;9.661959433133903;-0.7980446950833809;-1.6867703615420158;6.488893424355257;4;0;0;0;0;0;0;0;0;0;0;0;0;0;0;0;0;0
36;2022-05-01 10:08:18.605;5.17384756810176;52.36974708811398;12;0.03;0.12;9.23232365;-0.09098244;-1.69514656;-0.06;8.62745095;3.9215688699999998;25.88235283;41.5686264;2000.25;36;3.6;0.020322375485275303;-0.0525820030526821;0.1124382174817319;9.621718206618727;-0.7318187113918089;-1.687554906295307;7.005083408443891;4;0;0;0;0;0;0;0;0;0;0;0;0;0;0;0;0;0
37;2022-05-01 10:08:18.704;5.17384756810176;52.36974708811398;12;0.01;0.0;10.30016994;1.1827718;-1.64486682;-0.19;8.62745095;3.9215688699999998;25.88235283;41.5686264;1667.0;37;3.7;0.01935820063119286;-0.04767051294141822;0.1196829762534509;9.685089869659663;-0.5529839044636831;-1.6835675702956094;7.4716400632262605;4;0;0;0;0;0;0;0;0;0;0;0;0;0;0;0;0;0
38;2022-05-01 10:08:18.804;5.173886665690951;52.36973458277719;14;0.08;0.08;10.05116558;0.1340794;-2.2841382;-0.12;8.62745095;3.9215688699999998;30.19607925;41.5686264;1667.0;38;3.8000000000000003;0.025008416713114386;-0.03577498884884278;0.11971251450412529;9.719198469458728;-0.48896772795531096;-1.7395249110342643;8.079911003192876;4;0;0;0;0;0;0;0;0;0;0;0;0;0;0;0;0;0
39;2022-05-01 10:08:18.909;5.173886665690951;52.36973458277719;14;0.03;0.08;9.81652641;0.73504239;-1.18995464;-0.07;8.62745095;3.9215688699999998;30.19607925;41.5686264;1667.0;39;3.9000000000000004;0.025472449789403;-0.025012186518376577;0.11509108484752738;9.728246376918644;-0.37517994804678967;-1.6884351527656185;8.630260852369648;4;0;0;0;0;0;0;0;0;0;0;0;0;0;0;0;0;0
40;2022-05-01 10:08:19.006;5.173886665690951;52.36973458277719;14;0.03;-0.01;9.56991673;-0.42139238;-1.64007819;-0.05;8.62745095;3.9215688699999998;30.19607925;41.5686264;1667.0;40;4.0;0.02589248215856474;-0.023619467724258495;0.10905241905519153;9.713557732152625;-0.3794671931076177;-1.6839489541170936;9.128425235103759;4;0;0;0;0;0;0;0;0;0;0;0;0;0;0;0;0;0
41;2022-05-01 10:08:19.106;5.173886665690951;52.36973458277719;14;-0.01;-0.01;9.45738506;-0.31604427;-1.13967478;-0.08;8.62745095;3.9215688699999998;30.19607925;45.88235474;1667.0;41;4.1000000000000005;0.022568838602349744;-0.02235830512366615;0.10636216528676544;9.689836144792991;-0.37359423094323724;-1.6335491700167104;9.579533018745948;4;0;0;0;0;0;0;0;0;0;0;0;0;0;0;0;0;0
42;2022-05-01 10:08:19.204;5.173886665690951;52.36973458277719;14;-0.03;-0.06;9.62977314;0.96010423;-2.52356553;-0.11;8.62745095;3.9215688699999998;30.19607925;45.88235474;1667.0;42;4.2;0.017709181773375472;-0.02583804187310549;0.10669846011040761;9.684283699672054;-0.25030223884612485;-1.7158255564974703;9.988177248366542;4;0;0;0;0;0;0;0;0;0;0;0;0;0;0;0;0;0
43;2022-05-01 10:08:19.304;5.173886665690951;52.36973458277719;16;0.08;-0.02;10.23313046;-0.26815879;-0.11492519;0.03;8.62745095;3.9215688699999998;30.19607925;45.88235474;1697.25;43;4.3;0.023458750944681896;-0.025299178738376973;0.09408091430844984;9.734943371559366;-0.25195043482336593;-1.568059197737187;10.543080711512516;4;0;0;0;0;0;0;0;0;0;0;0;0;0;0;0;0;0
44;2022-05-01 10:08:19.406;5.173886665690951;52.36973458277719;16;-0.13;-0.07;10.5970602;0.14126222;-1.56824994;-0.11;8.62745095;3.9215688699999998;29.01960754;45.88235474;1697.25;44;4.4;0.009313899183942972;-0.029419416173105395;0.09554823439210311;9.81440781828308;-0.21570659288744368;-1.5680767791459718;11.046064828943503;4;0;0;0;0;0;0;0;0;0;0;0;0;0;0;0;0;0
45;2022-05-01 10:08:19.504;5.173886665690951;52.36973458277719;16;0.20999999;0.0;10.6545229;0.4932206;-1.63768399;-0.05;8.62745095;3.9215688699999998;29.01960754;45.88235474;1697.25;45;4.5;0.027788504740528047;-0.026711146221296382;0.0913551901169806;9.891746485321466;-0.1504447194627573;-1.5744846261432055;11.502110376823794;4;0;0;0;0;0;0;0;0;0;0;0;0;0;0;0;0;0
46;2022-05-01 10:08:19.606;5.173886665690951;52.36973458277719;16;-0.03;-0.1;10.66649437;-0.39744961;-1.98964238;-0.1;8.62745095;3.9215688699999998;29.01960754;45.88235474;1697.25;46;4.6000000000000005;0.022474756007508635;-0.03345017772348909;0.09215009470517412;9.962985836626792;-0.17315722829189437;-1.6126590692866114;11.915698778076402;4;0;0;0;0;0;0;0;0;0;0;0;0;0;0;0;0;0
47;2022-05-01 10:08:19.708;5.173886665690951;52.36973458277719;16;0.14;0.01;10.80775642;0.12689656;-0.98165268;-0.04;8.62745095;3.9215688699999998;29.01960754;41.96078491;1697.25;47;4.7;0.03327014196687614;-0.0294590229503227;0.08735980130917921;10.040582990947241;-0.1455955203290647;-1.5546974154004805;12.290865904449683;4;0;0;0;0;0;0;0;0;0;0;0;0;0;0;0;0;0
48;2022-05-01 10:08:19.803;5.173937135972619;52.36970656195139;16;0.02;0.01;10.41509533;0.49082634;-1.32403398;-0.06;8.62745095;3.9215688699999998;29.01960754;41.96078491;1697.25;48;4.800000000000001;0.032052354258689145;-0.025837907724433114;0.08484901959969007;10.074951615201693;-0.08719172022920177;-1.5335296617276073;12.63124944524776;4;0;0;0;0;0;0;0;0;0;0;0;0;0;0;0;0;0
49;2022-05-01 10:08:19.905;5.173937135972619;52.36970656195139;19;0.0;0.07;9.7614584;1.5371244;-1.21868587;-0.16;8.62745095;3.9215688699999998;29.01960754;41.96078491;1766.75;49;4.9;0.029113468825266393;-0.01705051480134713;0.09173962488326406;10.04620737269778;0.06174208183999403;-1.504661584648339;13.21520119130056;4;0;0;0;0;0;0;0;0;0;0;0;0;0;0;0;0;0
50;2022-05-01 10:08:20.004;5.173937135972619;52.36970656195139;19;0.07;0.18000001;9.53639698;1.63289547;-1.41980493;-0.09;8.62745095;3.9215688699999998;28.23529434;41.96078491;1766.75;50;5.0;0.03285943548577751;0.001002978002615932;0.09158024289053268;9.999499259307907;0.20568895239851862;-1.496887136924302;13.745196347469335;4;0;0;0;0;0;0;0;0;0;0;0;0;0;0;0;0;0
51;2022-05-01 10:08:20.111;5.173937135972619;52.36970656195139;19;0.03;0.16;9.28499794;0.2849187;-1.67838669;-0.08;8.62745095;3.9215688699999998;28.23529434;41.96078491;1766.75;51;5.1000000000000005;0.032597643758763756;0.015559734112614656;0.09052002950204038;9.934084062754046;0.21294272418620966;-1.5135040816633059;14.22629274924394;4;0;0;0;0;0;0;0;0;0;0;0;0;0;0;0;0;0
52;2022-05-01 10:08:20.203;5.173937135972619;52.36970656195139;19;0.02;0.07;9.05993557;0.41181526;-1.32642829;-0.23999999;8.62745095;3.9215688699999998;28.23529434;41.96078491;1766.75;52;5.2;0.031445026535826384;0.02054072812107263;0.10419664873760875;9.854104137345207;0.23113850066137318;-1.496387644367977;14.663061505357934;4;0;0;0;0;0;0;0;0;0;0;0;0;0;0;0;0;0
53;2022-05-01 10:08:20.303;5.173937135972619;52.36970656195139;19;0.01;0.03;9.7087841;1.47247899;-1.62571263;-0.06;7.058822630000002;3.9215688699999998;28.23529434;41.96078491;1766.75;53;5.300000000000001;0.029484069260348918;0.021405694549568925;0.10015525761370657;9.840815910164482;0.3446480670798012;-1.5082132660827587;15.059636024869897;4;0;0;0;0;0;0;0;0;0;0;0;0;0;0;0;0;0
54;2022-05-01 10:08:20.405;5.173937135972619;52.36970656195139;19;0.09;0.08;10.15651417;-0.03112557;0.02394275;0.0;7.058822630000002;3.5294113200000012;28.23529434;38.4313736;1766.75;54;5.4;0.03501477132912016;0.026760774483266102;0.09100181844963699;9.869668362691263;0.3103051757686176;-1.3681857007085227;15.419755730914254;4;0;0;0;0;0;0;0;0;0;0;0;0;0;0;0;0;0
55;2022-05-01 10:08:20.507;5.173937135972619;52.36970656195139;20;0.13;0.20999999;10.71198559;2.02316213;0.0383084;0.05;7.058822630000002;3.5294113200000012;28.23529434;38.4313736;1773.75;55;5.5;0.043691514236686435;0.043499372535515245;0.07812153648046896;9.946612642662371;0.46677181418456587;-1.2397048002188042;15.838153438987517;4;0;0;0;0;0;0;0;0;0;0;0;0;0;0;0;0;0
56;2022-05-01 10:08:20.604;5.173937135972619;52.36970656195139;20;0.23999999;0.28;7.57069683;0.91221869;-2.56426835;0.0;7.058822630000002;3.5294113200000012;22.74509811;38.4313736;1773.75;56;5.6000000000000005;0.06161609416491475;0.06509382679216395;0.0709883970716108;9.72967196946314;0.5074447810459666;-1.3606483566584997;16.218164292017793;4;0;0;0;0;0;0;0;0;0;0;0;0;0;0;0;0;0
57;2022-05-01 10:08:20.703;5.173937135972619;52.36970656195139;20;-0.07;0.0;7.59463978;-0.56744313;-0.14126222;-0.07;7.058822630000002;3.5294113200000012;22.74509811;38.4313736;1773.75;57;5.7;0.04960325607273488;0.05915259591902416;0.07089818428975171;9.534803734112861;0.4093378244114887;-1.249352786580474;16.563339252112645;4;0;0;0;0;0;0;0;0;0;0;0;0;0;0;0;0;0
58;2022-05-01 10:08:20.803;5.174000744335872;52.36967668637705;20;-0.06;0.04;9.50048256;1.4940275;-0.83799618;-0.03;1.5686264100000002;0.7843132000000015;22.74509811;20.7843132;1773.75;58;5.800000000000001;0.03960319651422318;0.05740513779822483;0.06716668676506965;9.531672314504133;0.5083035098030759;-1.2118211409616417;16.8768957411504;4;0;0;0;0;0;0;0;0;0;0;0;0;0;0;0;0;0
59;2022-05-01 10:08:20.904;5.174000744335872;52.36967668637705;20;0.08;0.14;10.21637058;1.36713088;-0.06225114;0.04;1.5686264100000002;0.7843132000000015;22.74509811;20.7843132;1773.75;59;5.9;0.04328773421241147;0.0649385032429996;0.05739215850283077;9.594122715363001;0.5866359903133375;-1.1069704191281475;17.161749848014455;4;0;0;0;0;0;0;0;0;0;0;0;0;0;0;0;0;0
60;2022-05-01 10:08:21.003;5.174000744335872;52.36967668637705;21;-0.04;0.06;9.22753525;0.29928434;-0.21309046;-0.11;1.5686264100000002;0.7843132000000015;12.15686321;20.7843132;1674.25;60;6.0;0.03569344774824383;0.06448820394399465;0.06218901151328874;9.560696782331377;0.5604348843633857;-1.0254652546715783;17.51172660570814;4;0;0;0;0;0;0;0;0;0;0;0;0;0;0;0;0;0
61;2022-05-01 10:08:21.103;5.174000744335872;52.36967668637705;21;0.14;0.14;9.40231705;0.43815228;-0.63208854;0.0;1.5686264100000002;0.7843132000000015;12.15686321;20.7843132;1674.25;61;6.1000000000000005;0.045201669498506;0.07137159608150999;0.05652007797907732;9.546259437953248;0.549288028356868;-0.9896064044484466;17.82970545020502;4;0;0;0;0;0;0;0;0;0;0;0;0;0;0;0;0;0
62;2022-05-01 10:08:21.203;5.174000744335872;52.36967668637705;21;-0.04;0.01;10.01525116;0.90024734;-0.16281068;0.01;1.5686264100000002;0.7843132000000015;12.15686321;20.7843132;1674.25;62;6.2;0.0374369034581844;0.0657785591387022;0.05045783946272359;9.589000513544548;0.581272342286644;-0.9142572311133753;18.118626965510494;4;0;0;0;0;0;0;0;0;0;0;0;0;0;0;0;0;0
63;2022-05-01 10:08:21.305;5.174000744335872;52.36967668637705;21;0.03;0.0;9.73751545;-0.00239427;-0.45491222;0.0;1.5686264100000002;0.7843132000000015;12.15686321;20.7843132;1674.25;63;6.300000000000001;0.03675930132798618;0.059785245921128743;0.04586045028087069;9.602532225751693;0.5280924479885993;-0.8724047101311632;18.381158880445753;4;0;0;0;0;0;0;0;0;0;0;0;0;0;0;0;0;0
64;2022-05-01 10:08:21.404;5.174000744335872;52.36967668637705;21;0.02;0.04;9.53639698;0.1699935;0.01197137;0.03;3.1372547200000014;1.9607839600000005;12.15686321;14.50980377;1674.25;64;6.4;0.03523261514939932;0.05798291174880326;0.038949953316908204;9.59650764491562;0.4954714750875541;-0.7918425964853844;18.619721840970957;4;0;0;0;0;0;0;0;0;0;0;0;0;0;0;0;0;0
65;2022-05-01 10:08:21.509;5.174000744335872;52.36967668637705;21;0.02;0.04;9.93384647;0.67039692;0.19154198;0.07;3.1372547200000014;1.9607839600000005;12.15686321;14.50980377;1674.25;65;6.5;0.033845259957083686;0.056345065210768736;0.029027016122324174;9.62723176982525;0.5114033240765292;-0.7022779560839029;18.83651266977455;4;0;0;0;0;0;0;0;0;0;0;0;0;0;0;0;0;0
66;2022-05-01 10:08:21.610;5.174000744335872;52.36967668637705;21;0.04;0.06;10.42946148;0.72785956;-0.46927786;0.04;3.1372547200000014;1.9607839600000005;12.15686321;14.50980377;1674.25;66;6.6000000000000005;0.034405726361197285;0.0566778929409907;0.022741239104447208;9.700284863505823;0.5311143837394989;-0.6810603701095663;19.033525371507157;4;0;0;0;0;0;0;0;0;0;0;0;0;0;0;0;0;0
67;2022-05-01 10:08:21.704;5.174000744335872;52.36967668637705;21;0.09;0.06;10.35763264;0.5506832;-0.40223816;0.0;3.1372547200000014;1.9607839600000005;12.15686321;14.50980377;1674.25;67;6.7;0.03946750657478603;0.05698036610374789;0.020670681354574238;9.760135451538014;0.5328960968633056;-0.6556740010851021;19.212570113231813;4;0;0;0;0;0;0;0;0;0;0;0;0;0;0;0;0;0
68;2022-05-01 10:08:21.803;5.174079251228732;52.369651717868265;21;-0.01;0.05;9.69441891;0.42857519;-0.2849187;-0.01;3.1372547200000014;1.9607839600000005;12.15686321;14.50980377;1425.75;68;6.800000000000001;0.034964188069929174;0.05634490226046403;0.01969926637672738;9.75415288766781;0.5233991502239853;-0.6219219621456392;19.375290384427373;4;0;0;0;0;0;0;0;0;0;0;0;0;0;0;0;0;0
69;2022-05-01 10:08:21.903;5.174079251228732;52.369651717868265;21;0.04;0.07;10.11820507;0.28731298;-1.01517248;0.05;3.1372547200000014;1.9607839600000005;20.0;14.50980377;1425.75;69;6.9;0.03542256957013985;0.05758784863620052;0.013354936062370459;9.78729050039237;0.501909560384449;-0.6577173343390118;19.523178518721227;4;0;0;0;0;0;0;0;0;0;0;0;0;0;0;0;0;0
70;2022-05-01 10:08:22.004;5.174079251228732;52.369651717868265;21;0.04;0.05;9.96736622;0.80208206;-0.74940801;-0.01;3.1372547200000014;1.9607839600000005;20.0;14.50980377;1425.75;70;7.0;0.03583917917549127;0.05689724925424762;0.013049590386375966;9.803679886452661;0.5292294177844458;-0.6660624565176785;19.65758974002052;4;0;0;0;0;0;0;0;0;0;0;0;0;0;0;0;0;0
71;2022-05-01 10:08:22.109;5.174079251228732;52.369651717868265;21;0.05;0.12;9.95300007;1.11333776;-0.81884199;-0.03;3.1372547200000014;1.9607839600000005;20.0;14.50980377;1425.75;71;7.1000000000000005;0.037127875104448746;0.06263987243971471;0.014592150957824809;9.817268668842704;0.582385802715218;-0.679966054710654;19.779754878501205;4;0;0;0;0;0;0;0;0;0;0;0;0;0;0;0;0;0
72;2022-05-01 10:08:22.210;5.174079251228732;52.369651717868265;21;0.02;0.04;9.87638378;0.52913475;-0.6751855;-0.05;6.666666030000002;3.1372547200000014;20.0;31.76470566;1425.75;72;7.2;0.03556931283292409;0.060579742341760806;0.017814111492709905;9.82264788730179;0.5775401881147616;-0.6795310449874076;19.8907918866988;4;0;0;0;0;0;0;0;0;0;0;0;0;0;0;0;0;0
73;2022-05-01 10:08:22.304;5.174079251228732;52.369651717868265;21;0.04;0.07;10.04158878;0.13886794;-0.74461949;-0.02;6.666666030000002;3.1372547200000014;20.0;31.76470566;1683.75;73;7.300000000000001;0.035972451230036534;0.06143687068992066;0.01801300063921605;9.842568833470276;0.5376263733284627;-0.6854532982188933;19.991716272465236;4;0;0;0;0;0;0;0;0;0;0;0;0;0;0;0;0;0
74;2022-05-01 10:08:22.406;5.174079251228732;52.369651717868265;21;0.04;0.05;9.59385872;-0.0095771;-0.99122977;-0.04;6.666666030000002;3.1372547200000014;21.1764698;31.76470566;1683.75;74;7.4;0.03633888012403326;0.060396337075791576;0.02001339152663712;9.81994103253975;0.48784146072398143;-0.7132730319488935;20.083450553591973;4;0;0;0;0;0;0;0;0;0;0;0;0;0;0;0;0;0
75;2022-05-01 10:08:22.504;5.174079251228732;52.369651717868265;21;0.05;0.03;9.95060635;0.28731298;-1.31924546;-0.08;6.666666030000002;3.1372547200000014;21.1764698;31.76470566;1683.75;75;7.5;0.037581688413590414;0.05763105721345569;0.025470620139663926;9.831828194146677;0.4695985596734971;-0.7684008372578778;20.16683282826104;4;1;0;0;0;0;0;0;0;0;0;0;0;0;0;0;0;0
76;2022-05-01 10:08:22.607;5.174079251228732;52.369651717868265;21;0.05;0.05;9.62737942;0.08619389;-0.55547178;-0.04;6.666666030000002;3.1372547200000014;21.1764698;31.76470566;1683.75;76;7.6000000000000005;0.03871135986321685;0.056936873676142856;0.026792331669833747;9.813229857210327;0.4347209270766788;-0.7490310642330696;20.242624546010298;4;1;0;0;0;0;0;0;0;0;0;0;0;0;0;0;0;0
77;2022-05-01 10:08:22.704;5.174079251228732;52.369651717868265;21;0.02;0.02;9.72554398;0.58420306;-0.54350036;0.03;0.0;0.0;21.1764698;31.76470566;1683.75;77;7.7;0.037009321746159715;0.053576991370351365;0.02162634085114239;9.805253702273937;0.4483182438892664;-0.7303354111438484;20.311517555446134;4;1;0;0;0;0;0;0;0;0;0;0;0;0;0;0;0;0
78;2022-05-01 10:08:22.806;5.174160722251967;52.36963373044246;21;0.04;0.05;9.9314518;0.22506183;-0.65603131;0.0;0.0;0.0;21.1764698;23.92156792;1683.75;78;7.800000000000001;0.03728134766654362;0.05325163561920172;0.019659253530059338;9.816732420735393;0.4280113013447606;-0.7235768634879782;20.37414049738495;4;1;0;0;0;0;0;0;0;0;0;0;0;0;0;0;0;0
79;2022-05-01 10:08:22.905;5.174160722251967;52.36963373044246;21;0.02;0.0;9.63695621;-0.12689656;-0.62969428;-0.01;0.0;0.0;22.35294151;23.92156792;1518.75;79;7.9;0.03570954873049449;0.04840821334541805;0.018780710680593445;9.80038114638959;0.3775404929971247;-0.7150379145768565;20.431064605348535;4;1;0;0;0;0;0;0;0;0;0;0;0;0;0;0;0;0
80;2022-05-01 10:08:23.005;5.174160722251967;52.36963373044246;21;-0.02;-0.01;9.89314365;0.07422252;-0.18196489;0.0;0.0;0.0;22.35294151;23.92156792;1518.75;80;8.0;0.030642795648485596;0.04309601818809958;0.01707261528417307;9.808817845515204;0.34995388873388406;-0.6665552136438989;20.482808969286207;4;1;0;0;0;0;0;0;0;0;0;0;0;0;0;0;0;0
81;2022-05-01 10:08:23.106;5.174160722251967;52.36963373044246;21;0.06;0.02;10.31453609;0.33998701;-0.43096948;0.0;0.0;0.0;22.35294151;23.92156792;1518.75;81;8.1;0.03331270960954611;0.04099553271043067;0.015519932904977878;9.85481078766139;0.349047443135006;-0.6451296844364461;20.529845312968803;4;1;0;0;0;0;0;0;0;0;0;0;0;0;0;0;0;0
82;2022-05-01 10:08:23.207;5.174160722251967;52.36963373044246;21;0.0;0.04;9.94581795;0.75180227;-0.33759275;0.02;0.0;0.0;22.35294151;25.49019623;1518.75;82;8.200000000000001;0.03028317028498901;0.04090499652978121;0.01228966329309306;9.863087201689332;0.385674952588426;-0.6171615231085557;20.572602330626044;4;1;0;0;0;0;0;0;0;0;0;0;0;0;0;0;0;0
83;2022-05-01 10:08:23.308;5.174160722251967;52.36963373044246;21;0.05;0.06;9.98891449;0.55307746;-0.34716985;0.01;0.0;0.0;22.35294151;25.49019623;1469.0;83;8.3;0.032076207215749324;0.04264148494652867;0.01026265438565694;9.874529861493139;0.4008984384342418;-0.5926086387007321;20.611469624018802;4;1;0;0;0;0;0;0;0;0;0;0;0;0;0;0;0;0
84;2022-05-01 10:08:23.404;5.174160722251967;52.36963373044246;21;-0.01;0.01;10.61621475;0.17957062;-0.49082634;-0.01;0.0;0.0;14.90196037;25.49019623;1469.0;84;8.4;0.02824993763088014;0.03967317745589726;0.010238769474119678;9.941976205121485;0.3807716267276152;-0.5833528968084136;20.646801277197326;4;1;0;0;0;0;0;0;0;0;0;0;0;0;0;0;0;0
85;2022-05-01 10:08:23.504;5.174160722251967;52.36963373044246;21;0.08;0.03;10.43903828;0.07901107;-0.32562137;-0.01;0.0;0.0;14.90196037;25.49019623;1469.0;85;8.5;0.032955785537313806;0.03879355529129561;0.010217057175071768;9.987176122133187;0.3533312871587055;-0.5599162996270921;20.678919102648447;4;1;0;0;0;0;0;0;0;0;0;0;0;0;0;0;0;0
86;2022-05-01 10:08:23.605;5.174160722251967;52.36963373044246;21;0.08;0.04;10.2666502;0.42139238;0.35914123;0.05;0.0;0.0;14.90196037;25.49019623;1469.0;86;8.6;0.037233603970888096;0.0389032595657304;0.004741407509299658;10.012589222886588;0.35952020966259024;-0.4763446790429627;20.70811558933755;4;1;0;0;0;0;0;0;0;0;0;0;0;0;0;0;0;0
87;2022-05-01 10:08:23.704;5.174160722251967;52.36963373044246;21;0.05;0.01;9.94581795;0.11253092;-0.00718282;0.04;0.0;0.0;14.90196037;18.8235302;1469.0;87;8.700000000000001;0.03839444980178184;0.036275091969362024;0.0006730802964314568;10.006517724432591;0.3370615230821012;-0.43368388528077295;20.734656580267778;4;1;0;0;0;0;0;0;0;0;0;0;0;0;0;0;0;0
88;2022-05-01 10:08:23.803;5.174244538413115;52.36961999065064;21;-0.06;0.03;10.14693642;-1.16122329;0.23463893;-0.01;0.0;0.0;14.90196037;18.8235302;1469.0;88;8.8;0.02944764748766147;0.035704510930838956;0.0015211576722957078;10.019285703856015;0.20082560672809158;-0.3729146841481987;20.758783704576917;4;1;0;0;0;0;0;0;0;0;0;0;0;0;0;0;0;0
89;2022-05-01 10:08:23.902;5.174244538413115;52.36961999065064;21;0.05;0.0;9.4214716;0.33759275;-0.600963;0.03;0.0;0.0;14.90196037;18.8235302;1278.5;89;8.9;0.03131639490021912;0.032458035259570424;-0.0013449415640598861;9.9649287362485;0.21326132399981718;-0.39365025200741766;20.78071658684273;4;1;0;0;0;0;0;0;0;0;0;0;0;0;0;0;0;0
90;2022-05-01 10:08:24.002;5.174244538413115;52.36961999065064;21;-0.04;0.04;8.8683939;-0.94573855;-0.62251145;0.08;0.0;0.0;20.3921566;18.8235302;1278.5;90;9.0;0.02483197674902216;0.033143785753926645;-0.008496625118999379;9.865226691500755;0.10787966763995098;-0.4144593760306403;20.8006548541447;4;1;0;0;0;0;0;0;0;0;0;0;0;0;0;0;0;0
91;2022-05-01 10:08:24.102;5.174244538413115;52.36961999065064;21;0.0;0.0;9.49329948;-0.09816527;-0.05027977;0.04;0.0;0.0;20.3921566;18.8235302;1278.5;91;9.1;0.02257417311355179;0.030130245562390606;-0.011361013848692843;9.83140986657602;0.08914539553686252;-0.38134698845188963;20.818779959510834;4;1;0;0;0;0;0;0;0;0;0;0;0;0;0;0;0;0
92;2022-05-01 10:08:24.204;5.174244538413115;52.36961999065064;21;0.06;-0.03;9.24429512;-0.51237482;0.0095771;0.11;0.0;0.0;20.3921566;18.8235302;1278.5;92;9.200000000000001;0.02597700220655693;0.024663086490927695;-0.020329462636707134;9.77802825000833;0.03445400566671044;-0.345803408736827;20.83525683864254;4;1;0;0;0;0;0;0;0;0;0;0;0;0;0;0;0;0
93;2022-05-01 10:08:24.304;5.174244538413115;52.36961999065064;21;0.09;0.03;10.83888245;-0.62730002;1.24741721;0.01;0.0;0.0;20.3921566;24.70588303;1278.5;93;9.3;0.03179802305219474;0.025148322825657054;-0.019390299845134962;9.87448194048151;-0.0257131859808692;-0.20094654865526346;20.850235415239844;4;1;0;0;0;0;0;0;0;0;0;0;0;0;0;0;0;0
94;2022-05-01 10:08:24.407;5.174244538413115;52.36961999065064;21;0.04;0.02;9.96018314;-0.36392978;-0.24421602;0.05;0.0;0.0;20.3921566;24.70588303;1278.5;94;9.4;0.03254374447100696;0.024680238773911505;-0.022173325105284036;9.882273869245214;-0.05646374282378631;-0.2048805967229169;20.86385196882758;4;1;0;0;0;0;0;0;0;0;0;0;0;0;0;0;0;0
95;2022-05-01 10:08:24.507;5.174244538413115;52.36961999065064;20;0.01;0.0;9.5962534;-0.11971374;0.2466103;0.07;0.0;0.0;20.3921566;24.70588303;1226.25;95;9.5;0.030494095393641573;0.022436342304220654;-0.026521666624035746;9.856269245583425;-0.062214353531883954;-0.16383160856138354;20.785311627263432;4;1;0;0;0;0;0;0;0;0;0;0;0;0;0;0;0;0
96;2022-05-01 10:08:24.605;5.174244538413115;52.36961999065064;20;0.08;-0.03;8.82769108;-0.19154198;-0.17717634;0.0;0.0;0.0;20.7843132;24.70588303;1226.25;96;9.600000000000001;0.03499506690222631;0.01766894163550566;-0.024110373127145767;9.76275310736809;-0.07397254614818687;-0.16504488314898116;20.713912765091766;4;1;0;0;0;0;0;0;0;0;0;0;0;0;0;0;0;0
97;2022-05-01 10:08:24.708;5.174244538413115;52.36961999065064;20;-0.03;0.03;9.26584339;-0.11971374;-0.24421602;0.0;0.0;0.0;20.7843132;24.70588303;1226.25;97;9.700000000000001;0.029085905605520327;0.018790045379340665;-0.02191832855326458;9.717575529902929;-0.078131201647086;-0.17224289124396522;20.649005905513473;4;1;0;0;0;0;0;0;0;0;0;0;0;0;0;0;0;0
98;2022-05-01 10:08:24.804;5.174328014539554;52.369606432203646;20;0.01;-0.03;10.22594738;-0.26097596;-0.22745611;0.09;0.0;0.0;20.7843132;24.70588303;1226.25;98;9.8;0.02735068476844923;0.014354232631771116;-0.028108065491020056;9.763794841970242;-0.09475477933843945;-0.17726267545789978;20.59000065871484;4;1;0;0;0;0;0;0;0;0;0;0;0;0;0;0;0;0
99;2022-05-01 10:08:24.904;5.174328014539554;52.369606432203646;20;0.03;-0.05;9.80694962;-0.600963;-0.0095771;0.04;0.0;0.0;20.7843132;24.70588303;1226.25;99;9.9;0.027591549086172767;0.008503423278895354;-0.029189228901778774;9.767718288317004;-0.14077704812837258;-0.16201742595200985;20.53636034274738;4;1;0;0;0;0;0;0;0;0;0;0;0;0;0;0;0;0
100;2022-05-01 10:08:25.007;5.174328014539554;52.369606432203646;20;-0.12;-0.13;8.37277889;-0.23224466;0.06225114;-0.04;0.0;0.0;20.7843132;24.70588303;1226.25;100;10.0;0.014173250343380283;-0.004088627702089776;-0.022898884034909313;9.640897249506848;-0.14909283415394436;-0.14162802943714087;20.48759709473398;4;1;0;0;0;0;0;0;0;0;0;0;0;0;0;0;0;0
101;2022-05-01 10:08:25.106;5.174328014539554;52.369606432203646;20;-0.1;-0.09;9.00007915;-1.17080033;-0.35914123;0.02;0.0;0.0;20.7843132;20.3921566;1226.25;101;10.100000000000001;0.003793241442100267;-0.011899220870730294;-0.022635333317069194;9.582637564712229;-0.24198090442864217;-0.161403142707526;20.443267427597807;4;1;0;0;0;0;0;0;0;0;0;0;0;0;0;0;0;0
102;2022-05-01 10:08:25.207;5.174328014539554;52.369606432203646;19;0.05;-0.07;9.16049576;-1.36473668;0.35674694;0.03;0.0;0.0;20.7843132;20.3921566;1231.5;102;10.200000000000001;0.007994084885163908;-0.017181397865168126;-0.023304884973815946;9.544258944620402;-0.3440551763570809;-0.11429602146816653;20.312054144107808;4;1;0;0;0;0;0;0;0;0;0;0;0;0;0;0;0;0
103;2022-05-01 10:08:25.306;5.174328014539554;52.369606432203646;19;-0.06;-0.16;8.83487415;-1.72387791;-0.57702023;0.0;0.0;0.0;17.25490189;20.3921566;1231.5;103;10.3;0.0018124980608427333;-0.030165550688398178;-0.021186154055681406;9.479766221360647;-0.46949982414653885;-0.15636394363501002;20.192770582549315;4;1;0;0;0;0;0;0;0;0;0;0;0;0;0;0;0;0
104;2022-05-01 10:08:25.403;5.174328014539554;52.369606432203646;19;0.09;-0.17;9.11021519;-1.87950575;-0.11492519;0.03;0.0;0.0;17.25490189;20.3921566;1231.5;104;10.4;0.009829904936789882;-0.042878346161146705;-0.02198744888231423;9.446169159252138;-0.5976879568919599;-0.1525966144668335;20.084332007244665;4;1;0;0;0;0;0;0;0;0;0;0;0;0;0;0;0;0
105;2022-05-01 10:08:25.508;5.174328014539554;52.369606432203646;19;-0.05;-0.19;8.72713184;-1.786129;-0.41420954;0.09;0.0;0.0;17.25490189;20.3921566;1231.5;105;10.5;0.004390599867960034;-0.05625358983411853;-0.02817066134820932;9.38079945259093;-0.7057324773807104;-0.1763805819230303;19.985752332255515;4;1;0;0;0;0;0;0;0;0;0;0;0;0;0;0;0;0
106;2022-05-01 10:08:25.607;5.174328014539554;52.369606432203646;19;0.05;-0.16;8.8588171;-2.205127;-0.90264159;-0.02;0.39215659999999986;0.0;17.25490189;17.25490189;1231.5;106;10.600000000000001;0.008537063375579778;-0.06568543288739259;-0.023791347241029343;9.333344744342764;-0.842046146351733;-0.24240676859244908;19.896135146732018;4;1;0;0;0;0;0;0;0;0;0;0;0;0;0;0;0;0
107;2022-05-01 10:08:25.704;5.174328014539554;52.369606432203646;19;-0.02;-0.12;9.18443775;-1.33121681;-0.18914771;0.03;0.39215659999999986;0.0;17.25490189;17.25490189;1231.5;107;10.700000000000001;0.0059426970612554775;-0.07062328796517325;-0.024355789326860573;9.319807286581053;-0.8865177121544964;-0.23756487208311466;19.814665557266373;4;1;0;0;0;0;0;0;0;0;0;0;0;0;0;0;0;0
108;2022-05-01 10:08:25.804;5.174408967354871;52.36959157499403;19;-0.01;-0.33000001;9.90511513;-3.1772027;-0.24900457;0.13;0.39215659999999986;0.0;15.29411793;17.25490189;1220.5;108;10.8;0.004493316360163028;-0.09420371565475853;-0.033960104051243556;9.373018728107539;-1.0947682108567536;-0.23860487662709837;19.74060277278205;4;1;0;0;0;0;0;0;0;0;0;0;0;0;0;0;0;0
109;2022-05-01 10:08:25.904;5.174408967354871;52.36959157499403;19;0.07;-0.31;10.07032013;-2.8420043;0.54828894;0.14;0.39215659999999986;0.0;15.29411793;17.25490189;1220.5;109;10.9;0.010448636031647283;-0.11382210855433265;-0.04360036429976779;9.436411538198115;-1.2536122993410945;-0.16706707368634877;19.673273364293685;4;1;0;0;0;0;0;0;0;0;0;0;0;0;0;0;0;0
110;2022-05-01 10:08:26.004;5.174408967354871;52.36959157499403;19;-0.04;-0.25999999;10.03919411;-1.45571911;-0.53871185;0.06;0.39215659999999986;0.0;15.29411793;17.25490189;1220.5;110;11.0;0.005862279743751239;-0.12711134486389494;-0.045091278192182664;9.491211347586093;-1.2719861130812837;-0.20085382176890496;19.612065138052163;4;1;0;0;0;0;0;0;0;0;0;0;0;0;0;0;0;0
111;2022-05-01 10:08:26.105;5.174408967354871;52.36959157499403;19;0.03;-0.1;9.81413269;-1.11573207;0.72067672;0.12;1.5686264100000002;0.39215659999999986;15.29411793;17.25490189;1220.5;111;11.100000000000001;0.008056668686809208;-0.12464662016043582;-0.05190131945244316;9.520568512046852;-1.2577808716249408;-0.11707638089710601;19.5564215662022;4;1;0;0;0;0;0;0;0;0;0;0;0;0;0;0;0;0
112;2022-05-01 10:08:26.206;5.174408967354871;52.36959157499403;19;-0.14;-0.20999999;12.91471863;-0.2083019;0.09577099;0.03;1.5686264100000002;0.39215659999999986;15.29411793;18.8235302;1220.5;112;11.200000000000001;-0.0054033113913218855;-0.1324061805222329;-0.049910248559592967;9.82913409963599;-1.1623716869135754;-0.09772621317167973;19.505836724178188;4;1;0;0;0;0;0;0;0;0;0;0;0;0;0;0;0;0
113;2022-05-01 10:08:26.304;5.174408967354871;52.36959157499403;19;0.14;-0.13;9.92905807;-3.24184799;-0.65603131;0.07;1.5686264100000002;0.39215659999999986;16.86274529;18.8235302;1175.75;113;11.3;0.007815424056884021;-0.13218743265837976;-0.05173662449952087;9.838218270529605;-1.3514185996577734;-0.14848219186116518;19.4598506886958;4;1;0;0;0;0;0;0;0;0;0;0;0;0;0;0;0;0
114;2022-05-01 10:08:26.404;5.174408967354871;52.36959157499403;19;0.02;-0.28999999;10.28341007;-1.40783358;-1.21868587;-0.09;1.5686264100000002;0.39215659999999986;16.86274529;18.8235302;1175.75;114;11.4;0.00892313202170657;-0.14653427800879937;-0.03885125297751191;9.878690955377177;-1.35654732332876;-0.2457751254676517;19.418045354404683;4;1;0;0;0;0;0;0;0;0;0;0;0;0;0;0;0;0
115;2022-05-01 10:08:26.504;5.174408967354871;52.36959157499403;19;0.14;-0.09;10.86043072;-0.96010423;-0.08858817;0.04;1.5686264100000002;0.39215659999999986;16.86274529;18.8235302;1175.75;115;11.5;0.020839399115447913;-0.14139471702374257;-0.03895568617426311;9.967941434368859;-1.3205064729450229;-0.23148517657053014;19.380040631090658;4;1;0;0;0;0;0;0;0;0;0;0;0;0;0;0;0;0
116;2022-05-01 10:08:26.606;5.174408967354871;52.36959157499403;19;-0.03;-0.13;10.70001411;-0.72785956;-0.2083019;0.01;2.35293961;0.39215659999999986;16.86274529;18.8235302;1175.75;116;11.600000000000001;0.016217569205087587;-0.14035881878582607;-0.036323313275218524;10.034494451274234;-1.2666287073500375;-0.22937757571493161;19.34549098678943;4;1;0;0;0;0;0;0;0;0;0;0;0;0;0;0;0;0
117;2022-05-01 10:08:26.703;5.174408967354871;52.36959157499403;19;0.0;-0.2;9.71836185;-2.46849728;-0.61532861;0.02;2.35293961;1.1764707600000008;16.86274529;18.8235302;1175.75;117;11.700000000000001;0.014743225489380124;-0.14578081511637989;-0.03483935633675867;10.005754748787089;-1.375890912726469;-0.2644644913169615;19.31408230533014;4;1;0;0;0;0;0;0;0;0;0;0;0;0;0;0;0;0
118;2022-05-01 10:08:26.803;5.1744779020859175;52.36956438961519;19;0.13;-0.09;8.73192024;-2.65525079;0.58420306;-0.05;2.35293961;1.1764707600000008;16.86274529;18.8235302;1273.25;118;11.8;0.02522123840365756;-0.1407097717556749;-0.027126596066397002;9.889950237595485;-1.4921977361040855;-0.18731198032240834;19.285529029695205;4;1;0;0;0;0;0;0;0;0;0;0;0;0;0;0;0;0
119;2022-05-01 10:08:26.905;5.1744779020859175;52.36956438961519;18;0.01;-0.2;9.52921391;-2.05907631;0.27055305;0.07;2.35293961;1.1764707600000008;12.94117641;18.8235302;1273.25;119;11.9;0.023837474531996597;-0.14609985064487452;-0.031024220283634874;9.85715567225957;-1.5437327077912357;-0.14568743767646597;19.16866149368472;4;1;0;0;0;0;0;0;0;0;0;0;0;0;0;0;0;0
120;2022-05-01 10:08:27.003;5.1744779020859175;52.36956438961519;18;-0.03;-0.14;9.52442551;-1.52994156;-0.7589851;0.01;2.35293961;1.1764707600000008;12.94117641;18.8235302;1273.25;120;12.0;0.018943110672070138;-0.14554531333035992;-0.02911290878854979;9.826907179078432;-1.542478954788832;-0.20144231733876736;19.062418497910862;4;1;0;0;0;0;0;0;0;0;0;0;0;0;0;0;0;0
121;2022-05-01 10:08:27.104;5.1744779020859175;52.36956438961519;18;0.13;-0.05;9.82370949;-1.23784006;-0.78771639;-0.02;2.35293961;1.1764707600000008;12.94117641;18.8235302;1273.25;121;12.100000000000001;0.029039281521429944;-0.1368592983242082;-0.02464805909719867;9.82661647747987;-1.5147842629263013;-0.254740435429035;18.965834137108576;4;1;0;0;0;0;0;0;0;0;0;0;0;0;0;0;0;0
122;2022-05-01 10:08:27.205;5.1744779020859175;52.36956438961519;18;0.03;-0.13;10.13257122;-2.30329227;-0.79489923;-0.02;3.921567920000001;1.1764707600000008;12.94117641;18.8235302;1273.25;122;12.200000000000001;0.02912662027273003;-0.13623572069580367;-0.020589111740085382;9.854430770388882;-1.5864673899443638;-0.30384617834324107;18.87803032217247;4;1;0;0;0;0;0;0;0;0;0;0;0;0;0;0;0;0
123;2022-05-01 10:08:27.303;5.1744779020859175;52.36956438961519;18;0.05;-0.13;9.94102859;-1.36952519;-0.18435916;0.03;3.921567920000001;1.9607839600000005;12.94117641;20.3921566;1273.25;123;12.3;0.03102421422803802;-0.13566883281976475;-0.021444653339453803;9.862303357443974;-1.5667452264689483;-0.2929836421028981;18.798208795725802;4;1;0;0;0;0;0;0;0;0;0;0;0;0;0;0;0;0
124;2022-05-01 10:08:27.403;5.1744779020859175;52.36956438961519;18;0.0;-0.22;9.99130917;-1.6185298;-1.350371;0.03;3.921567920000001;1.9607839600000005;12.94117641;20.3921566;1273.25;124;12.4;0.02820381222668477;-0.14333535391014054;-0.02222241733587014;9.8740312371332;-1.5714529465018447;-0.38911040935953367;18.725643873745337;4;1;0;0;0;0;0;0;0;0;0;0;0;0;0;0;0;0
125;2022-05-01 10:08:27.504;5.1744779020859175;52.36956438961519;18;0.02;-0.17;9.97215462;-1.56824994;-0.69194543;-0.09;3.921567920000001;1.9607839600000005;20.7843132;20.3921566;1428.5;125;12.5;0.027458006574211484;-0.14575942740493983;-0.012020317279134628;9.88295159897959;-1.5711617623196648;-0.4166410334059832;18.65967584720256;4;1;0;0;0;0;0;0;0;0;0;0;0;0;0;0;0;0
126;2022-05-01 10:08:27.603;5.1744779020859175;52.36956438961519;18;0.08;-0.11;10.08468533;-1.40065074;-0.70391679;0.0;3.921567920000001;1.9607839600000005;20.7843132;20.3921566;1428.5;126;12.600000000000001;0.03223457787011502;-0.14250855237406318;-0.01092755511425287;9.901291130584317;-1.5556606744898391;-0.4427571558346853;18.59970498369128;4;1;0;0;0;0;0;0;0;0;0;0;0;0;0;0;0;0
127;2022-05-01 10:08:27.703;5.1744779020859175;52.36956438961519;18;0.06;-0.15000001;10.04637718;-1.57543278;-0.57702023;0.0;3.921567920000001;1.9607839600000005;20.7843132;20.3921566;1428.5;127;12.700000000000001;0.03475871985600578;-0.14318959740340548;-0.009934136014122113;9.914480837810235;-1.5574581476719214;-0.4549629512686638;18.54518607447384;4;1;0;0;0;0;0;0;0;0;0;0;0;0;0;0;0;0
128;2022-05-01 10:08:27.803;5.174541465923521;52.36953770538691;18;0.06;-0.12;9.94342327;-1.5347302;-0.56504887;-0.05;5.098037720000001;1.9607839600000005;20.7843132;20.3921566;1428.5;128;12.8;0.03705339218425613;-0.14108144254116003;-0.004485553270115697;9.917111980045464;-1.5553919611590676;-0.46497080784335976;18.495623477343035;4;1;0;0;0;0;0;0;0;0;0;0;0;0;0;0;0;0
129;2022-05-01 10:08:27.903;5.174541465923521;52.36953770538691;18;0.01;-0.17;9.95300007;-1.21389735;-0.73025382;-0.05;5.098037720000001;2.3529405600000004;20.7843132;20.3921566;1428.5;129;12.9;0.034593982666988855;-0.1437104132430782;0.00046769944412540135;9.920374547245524;-1.5243468674029927;-0.4890875456048839;18.450566610209457;4;1;0;0;0;0;0;0;0;0;0;0;0;0;0;0;0;0
130;2022-05-01 10:08:28.005;5.174541465923521;52.36953770538691;18;0.1;-0.11;9.83328629;-1.83640873;-0.91940153;0.0;5.098037720000001;2.3529405600000004;20.7843132;25.88235283;1428.5;130;13.0;0.04054000672212702;-0.14064581863504014;0.00042518115209753916;9.912457403019092;-1.552716234891701;-0.5282071466264298;18.40960585442598;4;1;0;0;0;0;0;0;0;0;0;0;0;0;0;0;0;0
131;2022-05-01 10:08:28.106;5.174541465923521;52.36953770538691;18;0.05;-0.16;10.00088596;-1.67599237;-0.35435268;0.01;5.098037720000001;2.3529405600000004;20.7843132;25.88235283;1428.5;131;13.100000000000001;0.04140000906675752;-0.14240529571534646;-0.0005225658463038687;9.92049639037374;-1.5639231947822647;-0.5124021407948788;18.37236883058954;4;1;0;0;0;0;0;0;0;0;0;0;0;0;0;0;0;0
132;2022-05-01 10:08:28.206;5.174541465923521;52.36953770538691;19;0.06;-0.17;10.9897213;-0.90982443;-0.95052707;0.01;5.098037720000001;2.3529405600000004;20.7843132;25.88235283;1512.5;132;13.200000000000001;0.043090922616582185;-0.14491391303380616;-0.0013841534613502065;10.01769895858929;-1.5044594849200632;-0.5522318042591161;18.429426387900048;4;1;0;0;0;0;0;0;0;0;0;0;0;0;0;0;0;0
133;2022-05-01 10:08:28.305;5.174541465923521;52.36953770538691;19;0.0;-0.17;9.95778847;-1.83640873;-0.60575151;-0.03;5.098037720000001;2.3529405600000004;22.74509811;25.88235283;1512.5;133;13.3;0.039173554888165873;-0.1471944728720816;0.0014689595027673823;10.012252535065674;-1.5346367747339484;-0.5570972458735641;18.481296863605902;4;1;0;0;0;0;0;0;0;0;0;0;0;0;0;0;0;0
134;2022-05-01 10:08:28.403;5.174541465923521;52.36953770538691;19;0.05;-0.14;9.89314365;-1.50599885;-0.97925842;-0.04;5.098037720000001;2.3529405600000004;22.74509811;25.88235283;1512.5;134;13.4;0.04015777971251134;-0.14654042819484558;0.0049717904111127136;10.001424426644968;-1.5320333203082588;-0.5954756335306439;18.528451815950035;4;1;0;0;0;0;0;0;0;0;0;0;0;0;0;0;0;0
135;2022-05-01 10:08:28.503;5.174541465923521;52.36953770538691;19;0.07;-0.17;10.14933109;-1.76936913;-0.92179579;-0.04;6.666666030000002;2.3529405600000004;22.74509811;25.88235283;1512.5;135;13.5;0.0428707151980137;-0.14867312154714205;0.008156180576181879;10.01487051851389;-1.553609353655989;-0.6251411719387079;18.571319933312257;4;1;0;0;0;0;0;0;0;0;0;0;0;0;0;0;0;0
136;2022-05-01 10:08:28.604;5.174541465923521;52.36953770538691;19;0.01;-0.14;9.64653301;-1.11812639;-0.72546524;-0.09;6.666666030000002;3.1372547200000014;22.74509811;30.19607925;1512.5;136;13.600000000000001;0.03988246198478495;-0.14788465426932823;0.015596543674546015;9.981385219008272;-1.5140199088382496;-0.6342615612257183;18.610290931631276;4;1;0;0;0;0;0;0;0;0;0;0;0;0;0;0;0;0
137;2022-05-01 10:08:28.705;5.174541465923521;52.36953770538691;20;0.06;-0.08;10.6401577;-1.73824346;-1.08221221;-0.02;6.666666030000002;3.1372547200000014;22.74509811;30.19607925;1596.5;137;13.700000000000001;0.041711332625149325;-0.1417133100904052;0.015996858662575802;10.041273742556958;-1.5344039075804325;-0.6749844264816883;18.73662836476377;4;1;0;0;0;0;0;0;0;0;0;0;0;0;0;0;0;0
138;2022-05-01 10:08:28.803;5.174579696034746;52.36949155910974;20;0.09;-0.15000001;9.95539474;-1.81964886;-0.83081335;-0.03;6.666666030000002;3.1372547200000014;22.74509811;30.19607925;1596.5;138;13.8;0.0461012192197097;-0.14246664777446025;0.01726987375660816;10.033466546737028;-1.560335312625684;-0.6891507172407099;18.85148053416449;4;1;0;0;0;0;0;0;0;0;0;0;0;0;0;0;0;0
139;2022-05-01 10:08:28.904;5.174579696034746;52.36949155910974;20;0.0;-0.17;9.44780827;-1.82204318;-0.50758624;0.0;6.666666030000002;3.1372547200000014;22.74509811;30.19607925;1596.5;139;13.9;0.041910192571028494;-0.14496968380816733;0.015699882716059693;9.980224799851163;-1.5841269750784281;-0.6726448292089166;18.95589156210077;4;1;0;0;0;0;0;0;0;0;0;0;0;0;0;0;0;0
140;2022-05-01 10:08:29.005;5.174579696034746;52.36949155910974;20;0.03;-0.20999999;10.12299347;-1.87471712;-1.04629815;0.0;6.666666030000002;3.1372547200000014;22.74509811;30.19607925;1596.5;140;14.0;0.04082744621365832;-0.15088153844258775;0.014272618570616511;9.993203788782564;-1.6105442994856636;-0.7066133624289367;19.05081064935254;4;1;0;0;0;0;0;0;0;0;0;0;0;0;0;0;0;0
141;2022-05-01 10:08:29.104;5.174579696034746;52.36949155910974;20;0.06;-0.16;10.39354706;-1.72627211;-1.34079385;-0.01;6.666666030000002;3.1372547200000014;22.74509811;30.58823586;1596.5;141;14.100000000000001;0.042570407958326;-0.15171049059168093;0.013884198185876401;10.029598679846279;-1.6210650234731134;-0.7642662104203453;19.137100704660824;4;1;0;0;0;0;0;0;0;0;0;0;0;0;0;0;0;0
142;2022-05-01 10:08:29.203;5.174579696034746;52.36949155910974;20;-0.07;-0.15000001;9.73751545;-1.29290843;-0.93616146;-0.09;6.666666030000002;3.1372547200000014;22.74509811;30.58823586;1596.5;142;14.200000000000001;0.0323367221799814;-0.1515549921687588;0.02080382486805793;10.003045626965124;-1.5912325699482133;-0.7798930701154753;19.215546189642325;4;1;0;0;0;0;0;0;0;0;0;0;0;0;0;0;0;0
143;2022-05-01 10:08:29.305;5.174579696034746;52.36949155910974;20;0.08;-0.22;10.25467873;-2.23625278;-0.73983091;-0.02;6.666666030000002;3.1372547200000014;22.74509811;30.58823586;1639.0;143;14.3;0.036669752181443055;-0.15777727242197473;0.020730749800028234;10.02592138865588;-1.6498708350767108;-0.7762510515711525;19.286860250498062;4;1;0;0;0;0;0;0;0;0;0;0;0;0;0;0;0;0
144;2022-05-01 10:08:29.406;5.174579696034746;52.36949155910974;20;0.03;-0.23;10.46537495;-2.34638929;-0.45251793;-0.06;6.666666030000002;3.1372547200000014;21.96078491;30.58823586;1639.0;144;14.4;0.03606341047039902;-0.1643429814655231;0.024300685190418638;10.065871752186798;-1.7131907576529886;-0.7468207384927722;19.351691201358513;4;1;0;0;0;0;0;0;0;0;0;0;0;0;0;0;0;0
145;2022-05-01 10:08:29.505;5.174579696034746;52.36949155910974;20;0.08;-0.14;9.83089256;-1.69514656;-1.41980493;-0.04;6.666666030000002;3.1372547200000014;21.96078491;30.58823586;1639.0;145;14.5;0.040057649497128624;-0.1621299811476208;0.025727896919337582;10.044509988109285;-1.7115503745635587;-0.8080011749096506;19.410628418211935;4;1;0;0;0;0;0;0;0;0;0;0;0;0;0;0;0;0
146;2022-05-01 10:08:29.604;5.174579696034746;52.36949155910974;20;0.06;-0.15000001;9.29696941;-1.79091752;-1.30248547;-0.05;6.666666030000002;3.1372547200000014;21.96078491;30.58823586;1639.0;146;14.600000000000001;0.041870591943558896;-0.16102725559055422;0.027934453560327716;9.976551697822078;-1.7187655755396427;-0.8529543296309745;19.464207697003044;4;1;0;0;0;0;0;0;0;0;0;0;0;0;0;0;0;0
147;2022-05-01 10:08:29.706;5.174579696034746;52.36949155910974;20;0.07;-0.18000001;10.15651417;-1.85795724;-1.12052059;-0.06;6.666666030000002;3.1372547200000014;21.96078491;30.58823586;1639.0;147;14.700000000000001;0.04442781277049831;-0.16275205273605023;0.030849505417024952;9.992911934802446;-1.7314193726824831;-0.877278553312791;19.512916124616897;4;1;0;0;0;0;0;0;0;0;0;0;0;0;0;0;0;0
148;2022-05-01 10:08:29.803;5.174599144789514;52.36943863788697;20;0.12;-0.25;10.41270161;-2.05428767;-1.31924546;-0.05;6.666666030000002;3.1372547200000014;21.96078491;30.98039246;1639.0;148;14.8;0.05129801628107791;-0.17068368969877737;0.03259046065382045;10.031074658497195;-1.7607710560332563;-0.9174573903320421;19.557196507033794;4;1;0;0;0;0;0;0;0;0;0;0;0;0;0;0;0;0
149;2022-05-01 10:08:29.906;5.174599144789514;52.36943863788697;21;-0.03;-0.19;9.68244743;-1.35755384;-0.87151605;-0.05;6.666666030000002;3.1372547200000014;21.96078491;30.98039246;1619.75;149;14.9;0.04390728295963558;-0.1724397189934773;0.03417314702727282;9.99938125449693;-1.724114922825615;-0.9132809022655951;19.68836054201949;4;1;0;0;0;0;0;0;0;0;0;0;0;0;0;0;0;0
150;2022-05-01 10:08:30.005;5.174599144789514;52.36943863788697;21;0.02;-0.11;9.31612301;-1.58261561;-1.40543926;-0.05;6.666666030000002;3.1372547200000014;22.35294151;30.98039246;1619.75;150;15.0;0.04173389237831256;-0.16676337771329078;0.03561195265152489;9.937266833727822;-1.7112513417035737;-0.9580225962935335;19.807600559752977;4;1;0;0;0;0;0;0;0;0;0;0;0;0;0;0;0;0
151;2022-05-01 10:08:30.106;5.174599144789514;52.36943863788697;21;0.01;-0.23999999;9.56273365;-2.46610308;-1.20192599;-0.07;6.666666030000002;3.1372547200000014;22.35294151;30.98039246;1619.75;151;15.100000000000001;0.038848991597379035;-0.17342125495885824;0.03873814037119441;9.90321834508543;-1.7798742620607577;-0.980195643412613;19.91600056424484;4;1;0;0;0;0;0;0;0;0;0;0;0;0;0;0;0;0
152;2022-05-01 10:08:30.208;5.174599144789514;52.36943863788697;21;0.1;-0.19;8.94261646;-2.91862106;-1.34797668;-0.06;6.666666030000002;3.1372547200000014;22.35294151;30.98039246;1619.75;152;15.200000000000001;0.044408176761281344;-0.17492841429893027;0.040671037598779027;9.815890860429352;-1.8833967463158787;-1.0136302986303933;20.014546013262656;4;1;0;0;0;0;0;0;0;0;0;0;0;0;0;0;0;0
153;2022-05-01 10:08:30.308;5.174599144789514;52.36943863788697;21;0.03;-0.20999999;8.52122402;-2.48286295;-1.56346142;-0.05;7.450979240000002;3.5294113200000012;22.35294151;35.29411697;1619.75;153;15.3;0.043098341957233;-0.17811674070880087;0.041519125447868614;9.698193825243143;-1.9378936969325764;-1.0636149671315587;20.104132777153936;4;1;0;0;0;0;0;0;0;0;0;0;0;0;0;0;0;0
154;2022-05-01 10:08:30.406;5.174599144789514;52.36943863788697;21;0.0;-0.18000001;10.4366436;-2.93538094;-0.98404694;-0.05;7.450979240000002;3.5294113200000012;22.35294151;35.29411697;1645.0;154;15.4;0.03918030936637108;-0.17828794707371415;0.0422901143394421;9.765325648715216;-2.028574390198812;-1.0563815073432126;20.18557528321783;4;1;0;0;0;0;0;0;0;0;0;0;0;0;0;0;0;0
155;2022-05-01 10:08:30.508;5.174599144789514;52.36943863788697;22;-0.02;-0.19;9.19640923;-1.9944309;-0.86193895;-0.03;7.450979240000002;3.5294113200000012;29.01960754;35.29411697;1645.0;155;15.5;0.03380027936488953;-0.17935267952944145;0.041172830827818384;9.713605956239892;-2.0254704354613047;-1.0387049050531658;20.350523042299077;4;1;0;0;0;0;0;0;0;0;0;0;0;0;0;0;0;0
156;2022-05-01 10:08:30.606;5.174599144789514;52.36943863788697;22;-0.02;-0.12;9.56752205;-0.75419658;-1.42698777;-0.12;7.450979240000002;3.5294113200000012;29.01960754;35.29411697;1645.0;156;15.600000000000001;0.028909343325712905;-0.17395697967882523;0.048338939389368;9.700325596914496;-1.909900048304608;-1.0740033585181226;20.500475540565763;4;1;0;0;0;0;0;0;0;0;0;0;0;0;0;0;0;0
157;2022-05-01 10:08:30.703;5.174599144789514;52.36943863788697;22;0.05;-0.04;9.96975994;-1.1444633;-1.70951223;-0.06;7.450979240000002;3.5294113200000012;29.01960754;35.29411697;1645.0;157;15.700000000000001;0.030826676303556618;-0.16177906892350571;0.049399036114220446;9.724819635167526;-1.8403148693012852;-1.1317769089495786;20.636795985280116;4;1;0;0;0;0;0;0;0;0;0;0;0;0;0;0;0;0
158;2022-05-01 10:08:30.803;5.174585899521141;52.36938306379458;22;0.0;-0.07;9.40471172;-1.50599885;-1.57064426;-0.03;8.62745095;4.313725470000001;29.01960754;35.29411697;1645.0;158;15.8;0.028024250450373208;-0.1534355150158579;0.04763548691423557;9.695718907977854;-1.8099224959426565;-1.171673951322581;20.76072365547055;4;1;0;0;0;0;0;0;0;0;0;0;0;0;0;0;0;0
159;2022-05-01 10:08:30.906;5.174585899521141;52.36938306379458;22;0.05;-0.08;8.76783466;-1.83640873;-1.69754088;-0.16;8.62745095;4.313725470000001;29.01960754;46.27450943;1645.0;159;15.9;0.030022046340101194;-0.14675955751427494;0.0578504450837893;9.611365774421825;-1.8123303359762646;-1.2194800471412088;20.873385168186967;4;1;0;0;0;0;0;0;0;0;0;0;0;0;0;0;0;0
160;2022-05-01 10:08:31.003;5.174585899521141;52.36938306379458;22;-0.06;-0.07;8.80135441;-0.75659084;-1.40304506;-0.09;8.62745095;4.313725470000001;29.01960754;46.27450943;1645.0;160;16.0;0.02183822217244348;-0.1397814144101873;0.06077313252758184;9.537728361701962;-1.7163539973660573;-1.2361677791984724;20.975804720541955;4;1;0;0;0;0;0;0;0;0;0;0;0;0;0;0;0;0
161;2022-05-01 10:08:31.104;5.174585899521141;52.36938306379458;22;0.11;0.0;9.24190044;-0.27773589;-1.21629155;-0.06;8.62745095;4.313725470000001;29.01960754;46.27450943;1663.75;161;16.1;0.02985293082627824;-0.12707401059727985;0.060702847738503624;9.510834908977492;-1.5855705073005224;-1.2343608489154398;21.068913400649848;4;1;0;0;0;0;0;0;0;0;0;0;0;0;0;0;0;0
162;2022-05-01 10:08:31.204;5.174585899521141;52.36938306379458;24;-0.07;-0.03;9.55076218;-0.21787901;-1.14925194;-0.1;8.62745095;4.313725470000001;29.01960754;46.27450943;1663.75;162;16.2;0.020775390034851918;-0.1182490989628158;0.06427531676558947;9.514464661538565;-1.4612348943736246;-1.226623673992274;21.33537586648467;4;1;0;0;0;0;0;0;0;0;0;0;0;0;0;0;0;0
163;2022-05-01 10:08:31.304;5.174585899521141;52.36938306379458;24;0.08;0.05;9.80934429;0.08140534;-1.80288899;-0.04;8.62745095;4.313725470000001;32.15686417;46.27450943;1663.75;163;16.3;0.026159446362642863;-0.10295372384005946;0.06206846942767008;9.541271904853273;-1.3209948502387312;-1.2790114385206288;21.577614463508443;4;1;0;0;0;0;0;0;0;0;0;0;0;0;0;0;0;0
164;2022-05-01 10:08:31.405;5.174585899521141;52.36938306379458;24;0.0;-0.01;9.43823147;-0.21548474;-1.65444386;-0.11;8.62745095;4.313725470000001;32.15686417;46.27450943;1663.75;164;16.400000000000002;0.023781314523210743;-0.09450338405865237;0.06642588194269763;9.531904591207697;-1.2204939162538566;-1.3131416637057536;21.79783136305021;4;1;0;0;0;0;0;0;0;0;0;0;0;0;0;0;0;0
