;device_time;lon;lat;raw_speed_kph;raw_g_x;raw_g_y;raw_roll;raw_yaw;raw_pitch;raw_g_z;apps_d;apps_e;engine_load;engine_load_abs;engine_rpm;num_samples;cumulative_time;g_x;g_y;g_z;roll;yaw;pitch;speed_kph;sample_nr;roundabout_1;roundabout_2;roundabout_3;roundabout_4;turning_right_1;turning_right_2;turning_right_3;turning_left_1;turning_left_2;road_50km_1;road_50km_2;road_100km;entering_highway;exiting_highway;speed_bumps;road_50km_3;road_50km_4
0;2022-05-01 09:53:08.311;5.173791803486391;52.3697527900654;0;0.0;0.0;9.81173801;0.19393626;-0.70631105;0.02;0.0;0.0;0.0;0.0;0.0;0;0.0;0.0;0.0;0.06122087999999999;9.81173801;0.19393626;-0.70631105;0.0;6;0;0;0;0;0;0;0;0;0;0;0;0;0;0;0;0;0
1;2022-05-01 09:53:08.410;5.173791803486391;52.3697527900654;0;0.01;-0.01;9.82849789;0.08858817;-0.65124273;0.02;0.0;0.0;0.0;0.0;0.0;1;0.1;0.005238095238095238;-0.005238095238095238;0.06122087999999999;9.820516994761903;0.13875392714285714;-0.6774657395238096;0.0;6;0;0;0;0;0;0;0;0;0;0;0;0;0;0;0;0;0
2;2022-05-01 09:53:08.511;5.173791803486391;52.3697527900654;0;0.0;-0.01;9.85244083;0.21069619;-0.79489923;0.02;0.0;0.0;0.0;0.0;0.0;2;0.2;0.003323262839879154;-0.006978851963746223;0.06122087999999999;9.832187037250755;0.16505306250755286;-0.7203945985800605;0.0;6;0;0;0;0;0;0;0;0;0;0;0;0;0;0;0;0;0
3;2022-05-01 09:53:08.635;5.173791803486391;52.3697527900654;0;0.05;0.0;10.23313046;0.37350687;-0.91461295;0.05;0.0;0.0;0.0;0.0;0.0;3;0.30000000000000004;0.016709760827407886;-0.004977375565610859;0.05261713080801551;9.947174258901098;0.22483587176686057;-0.7760947980499893;0.0;6;0;0;0;0;0;0;0;0;0;0;0;0;0;0;0;0;0
4;2022-05-01 09:53:08.710;5.173791803486391;52.3697527900654;0;0.02;-0.01;9.96975994;0.12210801;-0.56744313;0.03;0.0;0.0;0.0;0.0;0.0;4;0.4;0.01749881246826424;-0.006181880722674484;0.052282287675549946;9.952590664151936;0.2002000980018345;-0.7260568122361633;0.0;6;0;0;0;0;0;0;0;0;0;0;0;0;0;0;0;0;0
5;2022-05-01 09:53:08.814;5.173791803486391;52.3697527900654;0;-0.03;-0.03;9.921875;0.33519846;-0.59856868;0.05;0.0;0.0;0.0;0.0;0.0;5;0.5;0.007584196194468097;-0.011153531606703812;0.047886056181792494;9.946179261259184;0.22837884368515252;-0.6994457067179134;0.0;6;0;0;0;0;0;0;0;0;0;0;0;0;0;0;0;0;0
6;2022-05-01 09:53:08.910;5.173791803486391;52.3697527900654;0;0.02;0.0;10.29059315;0.23942748;-0.43096948;0.0;0.0;0.0;0.0;0.0;904.25;6;0.6000000000000001;0.009902627453431586;-0.009070807303884371;0.054110743585256346;10.010492449368849;0.23044198065175375;-0.6493125308027102;0.0;6;0;0;0;0;0;0;0;0;0;0;0;0;0;0;0;0;0
7;2022-05-01 09:53:09.011;5.173791803486391;52.3697527900654;0;0.02;0.0;10.26425648;0.32801566;-0.50040346;0.0;0.0;0.0;23.13725471;0.0;904.25;7;0.7000000000000001;0.011623256614411959;-0.0075251086096234186;0.05873040984578434;10.053734767021105;0.2470688919850191;-0.6239378812712627;0.0;6;0;0;0;0;0;0;0;0;0;0;0;0;0;0;0;0;0
8;2022-05-01 09:53:09.110;5.173791803486391;52.3697527900654;0;0.0;-0.01;9.84286404;0.11971374;-0.4764607;0.04;0.0;0.0;23.13725471;0.0;904.25;8;0.8;0.009788467028661122;-0.00791578267796473;0.05596644239000226;10.02044776091661;0.22696523994449758;-0.6006578655829838;0.0;6;0;0;0;0;0;0;0;0;0;0;0;0;0;0;0;0;0
9;2022-05-01 09:53:09.210;5.173791803486391;52.3697527900654;0;0.0;-0.01;9.94342327;0.15802214;-0.65363705;0.01;0.0;0.0;23.13725471;0.0;904.25;9;0.9;0.008340259817866668;-0.00822414337896073;0.058223341910502;10.009051959834931;0.21676508355823235;-0.6084961549361664;0.0;6;0;0;0;0;0;0;0;0;0;0;0;0;0;0;0;0;0
10;2022-05-01 09:53:09.310;5.173791803486391;52.3697527900654;0;0.01;-0.01;10.03919411;0.2083019;-0.73504239;0.01;0.0;0.0;23.13725471;0.0;904.25;10;1.0;0.008572567830035537;-0.008472703801833842;0.06004256173126901;10.01327085087747;0.21558052143809006;-0.6262083876287239;0.0;6;0;0;0;0;0;0;0;0;0;0;0;0;0;0;0;0;0
11;2022-05-01 09:53:09.409;5.173791803486391;52.3697527900654;0;0.02;0.0;10.16369629;0.26337022;-0.70631105;0.03;0.0;0.0;23.13725471;0.0;904.25;11;1.1;0.010097229492169768;-0.00734226553108844;0.0588655624079593;10.033340792805687;0.22195668015498943;-0.6368957806086943;0.0;6;0;0;0;0;0;0;0;0;0;0;0;0;0;0;0;0;0
12;2022-05-01 09:53:09.511;5.173791803486391;52.3697527900654;0;0.01;0.0;9.95300007;0.23224466;-0.71109962;0.02;0.0;0.0;23.13725471;0.0;904.25;12;1.2000000000000002;0.010084786015465853;-0.0064025988923846425;0.059166997074878075;10.023058748846612;0.223273340714197;-0.646392423306307;0.0;6;0;0;0;0;0;0;0;0;0;0;0;0;0;0;0;0;0
13;2022-05-01 09:53:09.614;5.173791803486391;52.3697527900654;0;0.01;-0.01;9.82610416;0.15802214;-0.71588814;0.02;0.0;0.0;23.13725471;0.0;904.25;13;1.3;0.010074322941481976;-0.006846538541297819;0.05942045784764461;9.998753438315822;0.21522097338854565;-0.6549685879171026;0.0;6;0;0;0;0;0;0;0;0;0;0;0;0;0;0;0;0;0
14;2022-05-01 09:53:09.712;5.173791803486391;52.3697527900654;0;-0.01;-0.01;9.74948692;0.14365649;-0.73743665;0.02;0.0;0.0;23.13725471;0.0;904.25;14;1.4000000000000001;0.007675007436415195;-0.007223445348792671;0.05963564721160994;9.968960701393504;0.20666747073210406;-0.6648253039122124;0.0;6;0;0;0;0;0;0;0;0;0;0;0;0;0;0;0;0;0
15;2022-05-01 09:53:09.809;5.173791803486391;52.3697527900654;0;0.01;0.0;9.63216782;0.10295381;-0.69673395;0.01;0.0;0.0;23.13725471;0.0;904.25;15;1.5;0.007945164429722143;-0.006384103190322279;0.060981815670766965;9.929826403232928;0.19461626197251958;-0.6685329905614467;0.0;6;0;0;0;0;0;0;0;0;0;0;0;0;0;0;0;0;0
16;2022-05-01 09:53:09.910;5.173791803486391;52.3697527900654;0;-0.01;-0.02;9.64653301;0.03591412;-0.65363705;0.02;0.0;0.0;23.13725471;18.8235302;904.25;16;1.6;0.005911420438663263;-0.007927206817374893;0.06100890907773787;9.897720470826988;0.1766303845586461;-0.6668448182559404;0.0;6;0;0;0;0;0;0;0;0;0;0;0;0;0;0;0;0;0
17;2022-05-01 09:53:10.010;5.173791803486391;52.3697527900654;0;0.02;0.0;9.66568756;0.02154847;-0.6847626;0.01;0.0;0.0;23.13725471;18.8235302;904.25;17;1.7000000000000002;0.007473078290217564;-0.007048510372970977;0.06214086169944573;9.872000630481523;0.15944022791792906;-0.6688309265375614;0.0;6;0;0;0;0;0;0;0;0;0;0;0;0;0;0;0;0;0
18;2022-05-01 09:53:10.109;5.173791803486391;52.3697527900654;0;0.01;-0.01;9.7039957;0.07182825;-0.69433969;0.02;0.0;0.0;23.13725471;18.8235302;904.25;18;1.8;0.007747701541743611;-0.00736927522891497;0.06204087903489852;9.853742027493299;0.14991864829980883;-0.6716031927052641;0.0;6;0;0;0;0;0;0;0;0;0;0;0;0;0;0;0;0;0
19;2022-05-01 09:53:10.210;5.173791803486391;52.3697527900654;0;-0.01;-0.02;9.78540134;0.10774237;-0.73504239;0.03;0.0;0.0;23.13725471;18.8235302;904.25;19;1.9000000000000001;0.005852575756590577;-0.008718002676384923;0.060885503556099896;9.846444507939063;0.14541500300581064;-0.6783773238962744;0.0;6;0;0;0;0;0;0;0;0;0;0;0;0;0;0;0;0;0
20;2022-05-01 09:53:10.309;5.173791803486391;52.3697527900654;0;0.01;-0.01;9.95060635;0.16520496;-0.70391679;0.02;0.0;0.0;23.13725471;18.8235302;904.25;20;2.0;0.006288524299700212;-0.008852757365729413;0.06092075600762903;9.8573932801478;0.14749518637107134;-0.6810618558819784;0.0;6;0;0;0;0;0;0;0;0;0;0;0;0;0;0;0;0;0
21;2022-05-01 09:53:10.410;5.173791803486391;52.3697527900654;0;-0.02;-0.02;9.99849129;0.15323359;-0.66800267;0.02;0.0;0.0;23.13725471;18.8235302;904.25;21;2.1;0.0035639562381888186;-0.01000806836413331;0.06095186114821376;9.872016814234517;0.14808992006829977;-0.6797083892378357;0.0;6;0;0;0;0;0;0;0;0;0;0;0;0;0;0;0;0;0
22;2022-05-01 09:53:10.511;5.173791803486391;52.3697527900654;0;0.02;0.0;10.02004051;0.20590763;-0.71588814;0.01;0.0;0.0;23.13725471;18.8235302;904.25;22;2.2;0.005245988273805711;-0.00898386254872721;0.06200277211762789;9.887165264914994;0.1540068695325672;-0.6834109529876349;0.0;6;0;0;0;0;0;0;0;0;0;0;0;0;0;0;0;0;0
23;2022-05-01 09:53:10.609;5.173791803486391;52.3697527900654;0;0.01;-0.01;9.98651981;0.2466103;-0.76377368;0.02;0.0;0.0;23.13725471;18.8235302;904.25;23;2.3000000000000003;0.0057270068573456855;-0.009086676976971046;0.06192365901051667;9.8972181182308;0.16337663416923243;-0.6915421834816418;0.0;6;0;0;0;0;0;0;0;0;0;0;0;0;0;0;0;0;0
24;2022-05-01 09:53:10.709;5.173791803486391;52.3697527900654;0;0.01;0.0;9.96018314;0.25379312;-0.77095652;0.01;0.0;0.0;23.13725471;18.8235302;904.25;24;2.4000000000000004;0.0061549590546251445;-0.008176620899547094;0.0628548016588221;9.903524241015996;0.17243209774938878;-0.6994957510802573;0.0;6;0;0;0;0;0;0;0;0;0;0;0;0;0;0;0;0;0
25;2022-05-01 09:53:10.809;5.173791803486391;52.3697527900654;0;0.01;-0.01;9.81173801;0.17717634;-0.78292787;0.02;0.0;0.0;23.13725471;18.8235302;904.25;25;2.5;0.00653652357539902;-0.008357564817320012;0.06269265864302914;9.894415789441927;0.1729028949519432;-0.7077751782502213;0.0;6;0;0;0;0;0;0;0;0;0;0;0;0;0;0;0;0;0
26;2022-05-01 09:53:10.909;5.173791803486391;52.3697527900654;0;0.03;0.0;9.65850449;0.05267405;-0.66800267;0.01;0.0;0.0;23.13725471;18.8235302;904.25;26;2.6;0.008845705972971738;-0.0075350463970532845;0.06353197240386096;9.871198333929298;0.1610704483264109;-0.7038609255496951;0.0;6;0;0;0;0;0;0;0;0;0;0;0;0;0;0;0;0;0
27;2022-05-01 09:53:11.010;5.173791803486391;52.3697527900654;0;0.04;0.0;9.54118538;-0.07182825;-0.41899809;0.01;0.0;0.0;23.13725471;18.8235302;856.0;27;2.7;0.011888942752479027;-0.006799002424722779;0.06428304595958022;9.838961764606296;0.13832026550951226;-0.6760347434668184;0.0;6;0;0;0;0;0;0;0;0;0;0;0;0;0;0;0;0;0
28;2022-05-01 09:53:11.111;5.173791803486391;52.3697527900654;0;0.01;-0.01;9.7518816;-0.05267405;-0.33759275;0.03;0.0;0.0;25.88235283;18.8235302;856.0;28;2.8000000000000003;0.011705667095008383;-0.007109580886881537;0.06301568248279359;9.830512766138808;0.11978894225886227;-0.6431972322257279;0.0;6;0;0;0;0;0;0;0;0;0;0;0;0;0;0;0;0;0
29;2022-05-01 09:53:11.209;5.173791803486391;52.3697527900654;0;0.0;-0.01;10.21637058;0.23463893;-0.4932206;0.04;0.0;0.0;25.88235283;18.8235302;856.0;29;2.9000000000000004;0.010576823126159216;-0.007388320420203946;0.060913885879894145;9.867723226890446;0.13086457895104783;-0.6287341336784852;0.0;6;0;0;0;0;0;0;0;0;0;0;0;0;0;0;0;0;0
30;2022-05-01 09:53:11.310;5.173791803486391;52.3697527900654;0;0.05;0.01;10.31453609;0.36153549;-0.82602483;0.0;0.0;0.0;25.88235283;18.8235302;856.0;30;3.0;0.014357728493576858;-0.005720682263656725;0.06286144133212289;9.91057510455034;0.1529872224022105;-0.647655425969329;0.0;6;0;0;0;0;0;0;0;0;0;0;0;0;0;0;0;0;0
31;2022-05-01 09:53:11.410;5.173791803486391;52.3697527900654;0;-0.02;-0.03;10.17087936;0.36392978;-1.13009775;0.0;0.0;0.0;25.88235283;18.8235302;856.0;31;3.1;0.011079010546014173;-0.008037629230380901;0.06461346114562128;9.935415635970491;0.17311722458294096;-0.693694334122379;0.0;6;0;0;0;0;0;0;0;0;0;0;0;0;0;0;0;0;0
32;2022-05-01 09:53:11.513;5.173791803486391;52.3697527900654;0;-0.01;-0.02;9.95539474;0.15802214;-1.20192599;-0.01;0.0;0.0;25.88235283;30.58823586;856.0;32;3.2;0.009076515920900466;-0.009174047997167332;0.06714115157623865;9.93731364007018;0.17168319969467635;-0.7419760671281068;0.0;6;0;0;0;0;0;0;0;0;0;0;0;0;0;0;0;0;0
33;2022-05-01 09:53:11.610;5.173791803486391;52.3697527900654;0;0.04;0.01;9.58907032;0.1699935;-1.12530911;-0.03;0.0;0.0;25.88235283;30.58823586;878.25;33;3.3000000000000003;0.012002262832844328;-0.007359944140898066;0.07131164313486316;9.904365482750837;0.17152333304927614;-0.7782441494554312;0.0;6;0;0;0;0;0;0;0;0;0;0;0;0;0;0;0;0;0
34;2022-05-01 09:53:11.710;5.173791803486391;52.3697527900654;0;-0.01;0.0;9.60822487;0.25858167;-0.99841261;0.0;0.0;0.0;25.88235283;30.58823586;878.25;34;3.4000000000000004;0.009928255428200593;-0.006666171015744759;0.07224572117896248;9.876450271105238;0.17972974512804815;-0.7989979701377659;0.0;6;0;0;0;0;0;0;0;0;0;0;0;0;0;0;0;0;0
35;2022-05-01 09:53:11.809;5.173791803486391;52.3697527900654;0;0.0;-0.01;9.83807564;0.0670397;-1.3072741;-0.02;0.0;0.0;34.11764526;30.58823586;878.25;35;3.5;0.008995513306090008;-0.0069793783807260605;0.07496788634913519;9.872845042058588;0.16914271374135428;-0.8467496178884101;0.0;6;0;0;0;0;0;0;0;0;0;0;0;0;0;0;0;0;0
36;2022-05-01 09:53:11.910;5.173791803486391;52.3697527900654;0;0.01;-0.01;9.88835526;0.35195839;-1.350371;-0.05;0.0;0.0;34.11764526;30.58823586;878.25;36;3.6;0.009089597128173595;-0.007262300622237673;0.08023674324729468;9.874297784632605;0.1862658848729275;-0.8939206006394494;0.0;6;0;0;0;0;0;0;0;0;0;0;0;0;0;0;0;0;0
37;2022-05-01 09:53:12.022;5.173791803486391;52.3697527900654;0;0.02;-0.01;9.91229725;0.17957062;-0.97207558;-0.03;0.0;0.0;34.11764526;30.58823586;878.25;37;3.7;0.010108697442043192;-0.007518018979106299;0.08313085667835764;9.877847173920765;0.18564050498424717;-0.9012207677306647;0.0;6;0;0;0;0;0;0;0;0;0;0;0;0;0;0;0;0;0
38;2022-05-01 09:53:12.109;5.173791803486391;52.3697527900654;0;-0.02;-0.02;9.49090576;0.0191542;-0.90743017;0.0;0.0;0.0;34.11764526;32.94117737;878.25;38;3.8000000000000003;0.007303361052565138;-0.008681010358527171;0.08295289723361031;9.841794440946929;0.17012837296255864;-0.9017993202295432;0.0;6;0;0;0;0;0;0;0;0;0;0;0;0;0;0;0;0;0
39;2022-05-01 09:53:12.210;5.173791803486391;52.3697527900654;0;0.02;0.0;9.61780167;-0.0095771;-0.82123625;0.0;0.0;0.0;34.11764526;32.94117737;855.0;39;3.9000000000000004;0.008483680019651834;-0.007873996689628932;0.08279188353536977;9.820971377683216;0.1534223943878236;-0.8943099271521826;0.0;6;0;0;0;0;0;0;0;0;0;0;0;0;0;0;0;0;0
40;2022-05-01 09:53:12.310;5.173791803486391;52.3697527900654;1;0.0;-0.01;9.65850449;0.00478855;-0.967287;0.01;0.0;0.0;30.98039246;32.94117737;855.0;40;4.0;0.007696627407949347;-0.008071231433754081;0.08171841205466378;9.805898910549844;0.13963325392733525;-0.9010801961446753;0.09277254798381553;6;0;0;0;0;0;0;0;0;0;0;0;0;0;0;0;0;0
41;2022-05-01 09:53:12.410;5.173791803486391;52.3697527900654;1;-0.02;-0.02;9.68723583;0.15323359;-0.82123625;0.0;0.0;0.0;30.98039246;32.94117737;855.0;41;4.1000000000000005;0.005131919935040497;-0.009175835306053358;0.08167234059044494;9.794910710255206;0.14089264493714546;-0.8936866473805031;0.17678180266823768;6;0;0;0;0;0;0;0;0;0;0;0;0;0;0;0;0;0
42;2022-05-01 09:53:12.512;5.173791803486391;52.3697527900654;1;0.0;-0.02;9.77821827;0.04549122;-0.81165916;0.01;0.0;0.0;30.98039246;32.94117737;855.0;42;4.2;0.0046575063771013645;-0.010176460909954922;0.08070616912496309;9.793367599670395;0.13207338625622508;-0.8861037246869352;0.2528831212585322;6;0;0;0;0;0;0;0;0;0;0;0;0;0;0;0;0;0
43;2022-05-01 09:53:12.611;5.173791803486391;52.3697527900654;1;0.0;-0.01;9.921875;0.26815879;-1.00080693;0.01;0.0;0.0;30.98039246;32.94117737;855.0;43;4.3;0.004227609068905479;-0.01016017320918775;0.07983065765334614;9.805229094000614;0.14463434570908335;-0.8966910637505943;0.32184352819598;6;0;0;0;0;0;0;0;0;0;0;0;0;0;0;0;0;0
44;2022-05-01 09:53:12.710;5.173791803486391;52.3697527900654;1;0.0;-0.01;9.90272045;0.31125572;-1.08939505;0.0;0.0;0.0;30.98039246;26.66666603;855.0;44;4.4;0.0038379349498741076;-0.010145409461365905;0.0799587995083191;9.814215227212802;0.15999244438385488;-0.9144532917266573;0.38435167911734014;6;0;0;0;0;0;0;0;0;0;0;0;0;0;0;0;0;0
45;2022-05-01 09:53:12.813;5.173791803486391;52.3697527900654;1;0.0;0.0;9.62737942;0.07901107;-1.06305802;-0.01;0.0;0.0;30.98039246;26.66666603;855.0;45;4.5;0.003484625290682305;-0.009211451172345385;0.0809955554388585;9.797015640395067;0.15253752340209564;-0.9281334313294058;0.4410265579972422;6;0;0;0;0;0;0;0;0;0;0;0;0;0;0;0;0;0
46;2022-05-01 09:53:12.910;5.173791803486391;52.3697527900654;1;-0.01;-0.01;9.60583019;0.06943397;-0.95770991;0.0;0.0;0.0;27.84313774;26.66666603;847.75;46;4.6000000000000005;0.0022446916589793802;-0.009283959543217543;0.08101627440548793;9.77943582154753;0.14489601401225152;-0.9308530375342854;0.4924250918850826;6;0;0;0;0;0;0;0;0;0;0;0;0;0;0;0;0;0
47;2022-05-01 09:53:13.011;5.173791803486391;52.3697527900654;1;0.03;0.0;9.71117878;0.20111908;-0.86912173;-0.01;0.0;0.0;27.84313774;26.66666603;847.75;47;4.7;0.00479418022657353;-0.00843117317072901;0.0819536275409804;9.773166010203873;0.15006043381294992;-0.925182653300481;0.5390488371354316;6;0;0;0;0;0;0;0;0;0;0;0;0;0;0;0;0;0
48;2022-05-01 09:53:13.112;5.173791803486391;52.3697527900654;1;0.0;-0.03;9.98651981;0.1340794;-1.05587518;0.02;0.0;0.0;27.84313774;26.66666603;847.75;48;4.800000000000001;0.004354223083286935;-0.01041052292133935;0.08005100395372923;9.792745275861712;0.14859387026072046;-0.9371761762758829;0.5813498661381467;6;0;0;0;0;0;0;0;0;0;0;0;0;0;0;0;0;0
49;2022-05-01 09:53:13.210;5.173791803486391;52.3697527900654;1;-0.01;-0.01;9.77103519;0.0;-0.6751855;0.01;0.0;0.0;27.84313774;26.66666603;847.75;49;4.9;0.003038082097601416;-0.010372882009727271;0.07924136849127651;9.790754674654;0.1349692747854363;-0.913154209715001;0.6197359631523321;6;0;0;0;0;0;0;0;0;0;0;0;0;0;0;0;0;0
50;2022-05-01 09:53:13.309;5.173791803486391;52.3697527900654;1;0.02;0.0;10.02004051;0.29928434;-0.72307098;0.01;0.0;0.0;27.84313774;27.05882263;847.75;50;5.0;0.004592109234048158;-0.009422533103487316;0.07850654258098014;9.81176152141395;0.15002359067941543;-0.8957390507182239;0.6545752210520827;6;0;0;0;0;0;0;0;0;0;0;0;0;0;0;0;0;0
51;2022-05-01 09:53:13.412;5.173791803486391;52.3697527900654;1;-0.03;-0.03;10.26904488;0.34956414;-1.05587518;0.0;0.0;0.0;27.84313774;27.05882263;864.0;51;5.1000000000000005;0.001425075719050886;-0.011306475099451466;0.07875505005182802;9.853627477395237;0.16829225429352204;-0.9104000962464375;0.6862001169043948;6;0;0;0;0;0;0;0;0;0;0;0;0;0;0;0;0;0
52;2022-05-01 09:53:13.511;5.173791803486391;52.3697527900654;2;0.0;0.0;10.07271385;0.1699935;-1.08700073;0.0;0.0;0.0;28.23529434;27.05882263;864.0;52;5.2;0.001294688890432619;-0.01027199292326877;0.07898066034225401;9.873672712139985;0.16844790920322453;-0.9265581124551755;0.8064057999469595;6;0;0;0;0;0;0;0;0;0;0;0;0;0;0;0;0;0
53;2022-05-01 09:53:13.627;5.173791803486391;52.3697527900654;2;0.02;-0.01;9.64174461;-0.03591412;-0.7589851;0.0;0.0;0.0;28.23529434;27.05882263;864.0;53;5.300000000000001;0.0030051235149408666;-0.010247121585344741;0.07918550854000213;9.852464946389764;0.14976081607569164;-0.9112350482752977;0.915549392129114;6;0;0;0;0;0;0;0;0;0;0;0;0;0;0;0;0;0
54;2022-05-01 09:53:13.710;5.173791803486391;52.3697527900654;2;-0.01;-0.01;9.66089916;0.08379962;-1.0606637;-0.01;0.0;0.0;28.23529434;27.05882263;864.0;54;5.4;0.0018165527923297876;-0.010224536526392509;0.08028545120003672;9.83495727067294;0.14373245760651546;-0.9248917060037064;1.0146600419551095;6;0;0;0;0;0;0;0;0;0;0;0;0;0;0;0;0;0
55;2022-05-01 09:53:13.809;5.1737833640672815;52.36976017440643;2;0.0;-0.02;9.69202423;0.10055954;-0.87151605;0.0;3.921567920000001;0.0;28.23529434;27.05882263;864.0;55;5.5;0.0016506137112998194;-0.011117508881669898;0.08037090106754967;9.82190057476064;0.13978868327567448;-0.9200159284628472;1.104669210876853;6;0;0;0;0;0;0;0;0;0;0;0;0;0;0;0;0;0
56;2022-05-01 09:53:13.910;5.1737833640672815;52.36976017440643;2;-0.02;-0.01;10.07989693;0.09337672;-1.2689656;-0.03;3.921567920000001;1.9607839600000005;28.23529434;28.23529434;864.0;56;5.6000000000000005;-0.0003262655571801107;-0.011015471120986818;0.0831877581136284;9.845457765924689;0.13555088894648895;-0.951877906169495;1.1864202826501926;6;0;0;0;0;0;0;0;0;0;0;0;0;0;0;0;0;0
57;2022-05-01 09:53:14.011;5.1737833640672815;52.36976017440643;2;0.07;0.0;10.2714386;0.1053481;-0.85954463;-0.02;3.921567920000001;1.9607839600000005;28.23529434;28.23529434;966.0;57;5.7;0.006092539431117866;-0.01001006922143119;0.08483367364464311;9.884337804286156;0.13279422597264445;-0.9434504816650505;1.260677169557645;6;0;0;0;0;0;0;0;0;0;0;0;0;0;0;0;0;0
58;2022-05-01 09:53:14.109;5.1737833640672815;52.36976017440643;2;0.0;-0.02;9.71117878;0.03112557;-1.31445682;-0.04;3.921567920000001;1.9607839600000005;35.68627548;28.23529434;966.0;58;5.800000000000001;0.005536664000434236;-0.010921537606136858;0.08815359536740608;9.868538998502446;0.12351810908168655;-0.9773006209115777;1.3281320299541708;6;0;0;0;0;0;0;0;0;0;0;0;0;0;0;0;0;0
59;2022-05-01 09:53:14.209;5.1737833640672815;52.36976017440643;2;-0.02;-0.03;10.0966568;0.29210153;-1.23544586;-0.01;3.921567920000001;1.9607839600000005;35.68627548;28.23529434;966.0;59;5.9;0.0032074994855068126;-0.012661658305003699;0.08843335824180887;9.889345314020492;0.13889437443104197;-1.0008456983176157;1.3894121969532924;6;0;0;0;0;0;0;0;0;0;0;0;0;0;0;0;0;0
60;2022-05-01 09:53:14.308;5.1737833640672815;52.36976017440643;2;-0.03;-0.05;10.02004051;-0.00478855;-1.25460005;-0.03;3.921567920000001;1.9607839600000005;35.68627548;28.23529434;966.0;60;6.0;0.0001795954821576909;-0.016066217999299248;0.09051115480665249;9.901262275949454;0.1257931741347794;-1.0239833578593012;1.445086405547293;6;0;0;0;0;0;0;0;0;0;0;0;0;0;0;0;0;0
61;2022-05-01 09:53:14.415;5.1737833640672815;52.36976017440643;2;0.05;0.0;9.61061954;0.00239427;-1.30009127;-0.01;5.098037720000001;2.3529405600000004;35.68627548;28.23529434;966.0;61;6.1000000000000005;0.00472104991255693;-0.014601677564133839;0.09057585088158178;9.874768297154716;0.11454456013188417;-1.0491523927757194;1.495670394706062;6;0;0;0;0;0;0;0;0;0;0;0;0;0;0;0;0;0
62;2022-05-01 09:53:14.511;5.1737833640672815;52.36976017440643;2;-0.05;-0.03;9.21077538;-0.11492519;-1.2689656;-0.03;5.098037720000001;2.3529405600000004;35.68627548;29.41176414;966.0;62;6.2;-0.0002658963826587484;-0.016004987755491442;0.09245731426068793;9.814255989303431;0.09363207175468895;-1.0691848421011307;1.541631951743202;6;0;0;0;0;0;0;0;0;0;0;0;0;0;0;0;0;0
63;2022-05-01 09:53:14.613;5.1737833640672815;52.36976017440643;2;0.0;0.0;9.25387192;-0.16041641;-1.5179702;-0.04;5.098037720000001;2.3529405600000004;35.68627548;29.41176414;966.0;63;6.300000000000001;-0.00024166963878414718;-0.014546717676029487;0.09507806273841694;9.763197448443758;0.07048483132343727;-1.1100752363658812;1.5833954582429128;6;0;0;0;0;0;0;0;0;0;0;0;0;0;0;0;0;0
64;2022-05-01 09:53:14.714;5.1737833640672815;52.36976017440643;4;0.05;-0.01;9.72075558;-0.02633702;-1.54430723;-0.04;5.098037720000001;2.3529405600000004;35.68627548;29.41176414;1161.75;64;6.4;0.0043350881344395445;-0.014132535073898013;0.09745953897071861;9.759331212454654;0.06166485850309981;-1.149631538266987;1.8035357063838002;6;0;0;0;0;0;0;0;0;0;0;0;0;0;0;0;0;0
65;2022-05-01 09:53:14.812;5.173797087381223;52.36975804215165;4;-0.04;-0.03;10.12778282;-0.0478855;-1.56106722;-0.05;5.098037720000001;2.3529405600000004;27.05882263;29.41176414;1161.75;65;6.5;0.0002971396848910414;-0.015577711075405667;0.10053445232716611;9.792889025465197;0.05168723764163478;-1.1871042521613393;2.003585147178902;6;0;0;0;0;0;0;0;0;0;0;0;0;0;0;0;0;0
66;2022-05-01 09:53:14.915;5.173797087381223;52.36975804215165;4;0.07;-0.01;9.24908352;-0.33519846;-1.48445034;-0.03;5.098037720000001;2.3529405600000004;27.05882263;29.41176414;1161.75;66;6.6000000000000005;0.006644460807284188;-0.015069790408111985;0.10150758582246404;9.743368702257388;0.01645643435047836;-1.2141813490762587;2.1853838008795448;6;0;0;0;0;0;0;0;0;0;0;0;0;0;0;0;0;0
67;2022-05-01 09:53:15.015;5.173797087381223;52.36975804215165;4;-0.08;-0.07;8.94501114;-0.49082634;-1.44135344;-0.05;5.098037720000001;2.3529405600000004;27.05882263;29.41176414;1161.75;67;6.7;-0.0012443951598035384;-0.0200711085267183;0.10421293935447634;9.670679372088987;-0.029730946864076447;-1.2348650475878764;2.3506020467665567;6;0;0;0;0;0;0;0;0;0;0;0;0;0;0;0;0;0
68;2022-05-01 09:53:15.112;5.173797087381223;52.36975804215165;4;-0.02;-0.03;10.30016994;0.29689008;-1.24262857;-0.04;5.098037720000001;2.3529405600000004;27.05882263;29.41176414;1161.75;68;6.800000000000001;-0.002951828345645386;-0.020974994002262676;0.10576127237430825;9.727985606411124;3.289126343582925e-06;-1.2355718067629833;2.5007564579948593;6;0;0;0;0;0;0;0;0;0;0;0;0;0;0;0;0;0
69;2022-05-01 09:53:15.210;5.173797087381223;52.36975804215165;4;0.13;0.01;9.63934994;-0.06225114;-1.09657788;0.0;5.490196230000002;2.3529405600000004;27.05882263;29.41176414;1161.75;69;6.9;0.009150025214237953;-0.018155515352754312;0.1035274991459788;9.719917602620297;-0.005663379727449749;-1.22291997513096;2.637224124680703;6;0;0;0;0;0;0;0;0;0;0;0;0;0;0;0;0;0
70;2022-05-01 09:53:15.311;5.173797087381223;52.36975804215165;4;-0.05;-0.05;9.20119762;-0.29689008;-1.12052059;-0.02;5.490196230000002;2.7450981199999998;27.05882263;27.84313774;1161.75;70;7.0;0.003766553190222229;-0.0210538047718496;0.10331756483745635;9.672706895530656;-0.032169045412040194;-1.2136002119840756;2.7612556153387833;6;0;0;0;0;0;0;0;0;0;0;0;0;0;0;0;0;0
71;2022-05-01 09:53:15.416;5.173797087381223;52.36975804215165;4;0.06;-0.03;10.18045616;-0.38547826;-1.34079385;0.0;5.490196230000002;2.7450981199999998;27.05882263;27.84313774;1161.75;71;7.1000000000000005;0.008884040013414283;-0.021867947222562807;0.10130667096722237;9.718914274196186;-0.0643217117119092;-1.2251753830516114;2.8739867108956836;6;0;0;0;0;0;0;0;0;0;0;0;0;0;0;0;0;0
72;2022-05-01 09:53:15.521;5.173797087381223;52.36975804215165;5;-0.03;-0.09;10.36960411;-0.32322711;-1.02953815;-0.02;5.490196230000002;2.7450981199999998;27.45098114;27.84313774;1171.75;72;7.2;0.005345761192498441;-0.028067668220812;0.1012988643616782;9.778124224196638;-0.08788097888341458;-1.207373244229352;3.0674446898307;6;0;0;0;0;0;0;0;0;0;0;0;0;0;0;0;0;0
73;2022-05-01 09:53:15.611;5.173797087381223;52.36975804215165;5;-0.07;-0.11;9.20598698;-0.62969428;-1.515576;-0.05;5.490196230000002;2.7450981199999998;27.45098114;27.84313774;1171.75;73;7.300000000000001;-0.0015097824852573745;-0.03552250934581648;0.10402140219112455;9.726066725470998;-0.13717936929324734;-1.2354159293167348;3.243283610678495;6;0;0;0;0;0;0;0;0;0;0;0;0;0;0;0;0;0
74;2022-05-01 09:53:15.711;5.173797087381223;52.36975804215165;5;-0.1;-0.11;8.74868011;-0.83560193;-1.64726102;-0.07;5.490196230000002;2.7450981199999998;27.45098114;27.84313774;1171.75;74;7.4;-0.010470483778950667;-0.042298517803266336;0.10831564006099553;9.637143482831407;-0.20072228859213903;-1.2728858520157518;3.4031107612286413;6;0;0;0;0;0;0;0;0;0;0;0;0;0;0;0;0;0
75;2022-05-01 09:53:15.810;5.173821910450857;52.36975569323747;5;-0.01;-0.09;9.01683903;-1.24981141;-1.29290843;-0.03;5.490196230000002;2.7450981199999998;27.45098114;30.19607925;1171.75;75;7.5;-0.01042768193357555;-0.046638117926573824;0.10857994169308202;9.580711834252998;-0.29616224288634413;-1.2747073883263222;3.548386346354068;6;0;0;0;0;0;0;0;0;0;0;0;0;0;0;0;0;0
76;2022-05-01 09:53:15.910;5.173821910450857;52.36975569323747;5;0.04;-0.14;9.08387852;-1.2665714;-1.07742369;-0.04;5.490196230000002;2.7450981199999998;27.45098114;30.19607925;1171.75;76;7.6000000000000005;-0.00584036648776674;-0.055131080269148855;0.10972986509470148;9.535515802052524;-0.3844386169827282;-1.2567608454388124;3.6804370272378004;6;0;0;0;0;0;0;0;0;0;0;0;0;0;0;0;0;0
77;2022-05-01 09:53:16.011;5.173821910450857;52.36975569323747;6;-0.09;-0.20999999;8.77262306;-1.46769047;-1.25699425;-0.04;5.490196230000002;2.7450981199999998;27.45098114;30.19607925;1241.5;77;7.7;-0.013495764342466222;-0.06921839350751832;0.11077512025068495;9.466120924518679;-0.482974263653317;-1.2567820765766207;3.8914310235809872;6;0;0;0;0;0;0;0;0;0;0;0;0;0;0;0;0;0
78;2022-05-01 09:53:16.112;5.173821910450857;52.36975569323747;6;-0.04;-0.11;9.35682583;-0.83560193;-1.3096683;-0.04;5.490196230000002;2.7450981199999998;27.45098114;30.19607925;1241.5;78;7.800000000000001;-0.01590653490581735;-0.07292780424958203;0.11172524499455128;9.456179668336503;-0.515048548263375;-1.2615924982874485;4.083222105007683;6;0;0;0;0;0;0;0;0;0;0;0;0;0;0;0;0;0
79;2022-05-01 09:53:16.209;5.173821910450857;52.36975569323747;6;0.05;-0.09;9.78300667;-1.01996112;-1.08221221;-0.01;5.490196230000002;2.7450981199999998;27.45098114;30.19607925;1241.5;79;7.9;-0.009912105336866543;-0.07448058008826733;0.10986030137414181;9.4859057257829;-0.5609721103817329;-1.245277234471291;4.257559750087534;6;0;0;0;0;0;0;0;0;0;0;0;0;0;0;0;0;0
80;2022-05-01 09:53:16.317;5.173821910450857;52.36975569323747;6;0.04;-0.1;10.17087936;-1.06305802;-0.82123625;0.01;6.274509430000002;3.1372547200000014;27.45098114;30.19607925;1241.5;80;8.0;-0.005372626570514733;-0.0768015574150514;0.10634606706789065;9.548203704340471;-0.6066365501045964;-1.2067109381373926;4.416033740770351;6;0;0;0;0;0;0;0;0;0;0;0;0;0;0;0;0;0
81;2022-05-01 09:53:16.412;5.173821910450857;52.36975569323747;6;0.06;-0.12;10.30495834;-1.03911531;-0.64884847;0.06;6.274509430000002;3.1372547200000014;27.45098114;32.15686417;1241.5;81;8.1;0.0005727381945334534;-0.08073027363654937;0.09860429020558785;9.617027347854075;-0.6459686699168602;-1.155975698698462;4.560088793789999;6;0;0;0;0;0;0;0;0;0;0;0;0;0;0;0;0;0
82;2022-05-01 09:53:16.510;5.173821910450857;52.36975569323747;6;0.02;-0.12;10.02961731;-0.96968132;-1.1420691;-0.02;6.274509430000002;3.1372547200000014;27.45098114;32.15686417;1241.5;82;8.200000000000001;0.0023395009195704267;-0.08430155864089434;0.09884224928400923;9.654549288575476;-0.6754078904059204;-1.1547109985848527;4.691037842192642;6;0;0;0;0;0;0;0;0;0;0;0;0;0;0;0;0;0
83;2022-05-01 09:53:16.610;5.173821910450857;52.36975569323747;8;-0.03;-0.06;9.41189384;-0.77574503;-0.99601829;-0.09;6.274509430000002;3.1372547200000014;27.45098114;32.15686417;1398.25;83;8.3;-0.0006014343275905612;-0.08209158915046519;0.10542431951271496;9.632482344394548;-0.6845324910348983;-1.1402795767362177;4.991952920184105;6;0;0;0;0;0;0;0;0;0;0;0;0;0;0;0;0;0
84;2022-05-01 09:53:16.710;5.173821910450857;52.36975569323747;8;-0.04;-0.03;9.67526436;0.45491222;-2.02555656;-0.07;6.274509430000002;3.1372547200000014;23.52941132;32.15686417;1398.25;84;8.4;-0.004184208144318632;-0.07735455422305564;0.10958890558354624;9.636372797834213;-0.5809151992215577;-1.2207837053017572;5.265494662963764;6;0;0;0;0;0;0;0;0;0;0;0;0;0;0;0;0;0
85;2022-05-01 09:53:16.809;5.173848172941088;52.36974576924205;8;-0.06;-0.02;11.05436707;-1.00798965;-0.86193895;0.0;6.274509430000002;3.1372547200000014;23.52941132;32.15686417;1398.25;85;8.5;-0.009259769703578308;-0.07213906661668595;0.10700928330502997;9.765316900923606;-0.6197508511624583;-1.1881524626874655;5.514154580001899;6;0;0;0;0;0;0;0;0;0;0;0;0;0;0;0;0;0
86;2022-05-01 09:53:16.910;5.173848172941088;52.36974576924205;8;0.05;-0.23999999;10.28819847;-2.18597293;-0.80208206;0.01;6.274509430000002;3.1372547200000014;23.52941132;32.15686417;1398.25;86;8.6;-0.003871167978526571;-0.08740297442187414;0.10375497683791107;9.812863500230634;-0.7621703549515267;-1.153046358692811;5.740197154676381;6;0;0;0;0;0;0;0;0;0;0;0;0;0;0;0;0;0
87;2022-05-01 09:53:17.010;5.173848172941088;52.36974576924205;8;-0.08;-0.2;9.73512173;-0.89785308;-0.30167863;-0.05;6.274509430000002;3.1372547200000014;23.52941132;28.23529434;1398.25;87;8.700000000000001;-0.010793547408195981;-0.09764139937871735;0.10625244590472806;9.805794456653047;-0.7745079579318551;-1.0756316618467445;5.945680574245516;6;0;0;0;0;0;0;0;0;0;0;0;0;0;0;0;0;0
88;2022-05-01 09:53:17.109;5.173848172941088;52.36974576924205;8;0.0;-0.08;9.93863487;-0.22506183;-0.62730002;-0.04;6.274509430000002;3.1372547200000014;23.52941132;28.23529434;1398.25;88;8.8;-0.009812112630891429;-0.09603730368933863;0.10761349443004753;9.817873358663633;-0.724547966298504;-1.0348657997595192;6.132475559423123;6;0;0;0;0;0;0;0;0;0;0;0;0;0;0;0;0;0
89;2022-05-01 09:53:17.209;5.173848172941088;52.36974576924205;9;0.0;-0.09;9.24908352;-0.37829542;-0.49082634;0.02;6.274509430000002;3.1372547200000014;21.96078491;28.23529434;1426.75;89;8.9;-0.008919934468819985;-0.09548835457796546;0.10339519007165895;9.766155457335616;-0.6930645363797943;-0.9853983564512891;6.393208673822402;6;0;0;0;0;0;0;0;0;0;0;0;0;0;0;0;0;0
90;2022-05-01 09:53:17.310;5.173848172941088;52.36974576924205;9;0.06;-0.02;10.36721039;0.0478855;-0.98404694;0.0;6.274509430000002;3.1372547200000014;21.96078491;28.23529434;1426.75;90;9.0;-0.0026534136404157966;-0.08862460245877572;0.10137899871874337;9.820806165923571;-0.6256939146349138;-0.9852754793852397;6.630230259328778;6;0;0;0;0;0;0;0;0;0;0;0;0;0;0;0;0;0
91;2022-05-01 09:53:17.409;5.173848172941088;52.36974576924205;9;-0.02;-0.06;10.20439911;-0.22506183;-1.25699425;-0.04;6.274509430000002;3.1372547200000014;21.96078491;28.23529434;1426.75;91;9.1;-0.004230621373070919;-0.0860219610279898;0.10318308673574575;9.855683676982396;-0.5892671498099828;-1.0099810287790754;6.845697388256638;6;0;0;0;0;0;0;0;0;0;0;0;0;0;0;0;0;0
92;2022-05-01 09:53:17.511;5.173848172941088;52.36974576924205;9;0.1;0.0;10.2618618;0.0670397;-1.54670155;-0.03;6.274509430000002;3.1372547200000014;21.96078491;28.23529434;1426.75;92;9.200000000000001;0.005246229782854175;-0.07820067674450505;0.10391389855845178;9.892614183237878;-0.5295944524171395;-1.0587807042001351;7.041570778699527;6;0;0;0;0;0;0;0;0;0;0;0;0;0;0;0;0;0
93;2022-05-01 09:53:17.623;5.173848172941088;52.36974576924205;9;0.0;0.0;10.02961731;0.45970076;-1.22347438;-0.05;6.274509430000002;3.1372547200000014;21.96078491;28.23529434;1426.75;93;9.3;0.004769238483172678;-0.07109061028149154;0.10639667058852026;9.905070614274939;-0.43964696085248134;-1.0737547815319828;7.219632689494086;6;0;0;0;0;0;0;0;0;0;0;0;0;0;0;0;0;0
94;2022-05-01 09:53:17.709;5.173848172941088;52.36974576924205;9;0.0;0.07;9.84046936;0.95531565;-0.65363705;0.02;6.274509430000002;3.1372547200000014;21.96078491;28.23529434;1426.75;94;9.4;0.004335620672374389;-0.058262691994260894;0.10228930051566856;9.899197086550888;-0.31281735574937714;-1.035557796485587;7.381503180626424;6;0;0;0;0;0;0;0;0;0;0;0;0;0;0;0;0;0
95;2022-05-01 09:53:17.810;5.173873138348704;52.36972823055407;9;-0.1;0.09;9.3592205;1.35755384;-0.44533512;0.05;6.274509430000002;3.1372547200000014;21.96078491;28.23529434;1426.75;95;9.5;-0.005150443584719502;-0.04478283330243765;0.09582784852719821;9.85010309003907;-0.16094929387400653;-0.9818954882628051;7.528654889022261;6;0;0;0;0;0;0;0;0;0;0;0;0;0;0;0;0;0
96;2022-05-01 09:53:17.910;5.173873138348704;52.36972823055407;9;0.08;0.0;10.07750225;-0.22266756;-1.53233588;-0.04;6.274509430000002;3.1372547200000014;21.96078491;26.66666603;1426.75;96;9.600000000000001;0.0025912535636434765;-0.0407112733870961;0.09813652891763788;9.870777737804799;-0.1665605873066018;-1.0319403574573605;7.662426455797261;6;0;0;0;0;0;0;0;0;0;0;0;0;0;0;0;0;0
97;2022-05-01 09:53:18.011;5.173873138348704;52.36972823055407;9;0.01;-0.07;10.11341667;-0.97207558;-1.29290843;-0.07;6.274509430000002;3.1372547200000014;21.96078491;26.66666603;1426.75;97;9.700000000000001;0.0032648351104504814;-0.04337411870720524;0.10296280278467658;9.89283775951935;-0.23979565337554973;-1.055666810978283;7.784034728480337;6;0;0;0;0;0;0;0;0;0;0;0;0;0;0;0;0;0
98;2022-05-01 09:53:18.112;5.173873138348704;52.36972823055407;9;0.09;-0.04;10.6545229;-0.14365649;-1.34797668;-0.04;6.274509430000002;3.1372547200000014;21.96078491;26.66666603;1581.75;98;9.8;0.011150479550587088;-0.04306735615642533;0.1046227604876906;9.962087390863392;-0.23105503173590455;-1.0822425567716238;7.894585850334646;6;0;0;0;0;0;0;0;0;0;0;0;0;0;0;0;0;0
99;2022-05-01 09:53:18.212;5.173873138348704;52.36972823055407;10;-0.08;-0.08;10.6545229;0.68715686;-1.4748733;-0.01;6.274509430000002;3.1372547200000014;19.2156868;26.66666603;1581.75;99;9.9;0.0028634709660049088;-0.04642511289113521;0.10340431929902523;10.025040641759896;-0.1475751656200288;-1.1179388510286241;8.086001026847178;6;0;0;0;0;0;0;0;0;0;0;0;0;0;0;0;0;0
100;2022-05-01 09:53:18.313;5.173873138348704;52.36972823055407;10;-0.07;0.06;9.65611076;0.71828246;-1.49163318;-0.06;6.274509430000002;3.1372547200000014;19.2156868;26.66666603;1581.75;100;10.0;-0.003760917943198818;-0.03674946433706461;0.1068424152608364;9.991499348919973;-0.06885564298319381;-1.1519133040082972;8.260012412825434;6;0;0;0;0;0;0;0;0;0;0;0;0;0;0;0;0;0
101;2022-05-01 09:53:18.411;5.173873138348704;52.36972823055407;10;0.07;0.11;10.23552513;1.68796372;-1.58979845;0.01;6.274509430000002;3.1372547200000014;19.2156868;26.66666603;1581.75;101;10.100000000000001;0.002945022218041236;-0.023407803821177207;0.10360389965431123;10.01368484133728;0.09086478689737622;-1.1917234320327001;8.418202589497021;6;0;0;0;0;0;0;0;0;0;0;0;0;0;0;0;0;0
102;2022-05-01 09:53:18.510;5.173873138348704;52.36972823055407;10;0.02;-0.11;10.05595398;-0.83081335;-1.04390383;-0.01;6.274509430000002;3.1372547200000014;19.2156868;26.66666603;1581.75;102;10.200000000000001;0.004495559278483635;-0.03128025085903803;0.10247810921707555;10.017527699818096;0.007071296965620148;-1.1782845537097977;8.56201019443516;6;0;0;0;0;0;0;0;0;0;0;0;0;0;0;0;0;0
103;2022-05-01 09:53:18.609;5.173873138348704;52.36972823055407;10;0.0;-0.03;11.01845264;0.73504239;-0.74940801;0.0;6.274509430000002;3.1372547200000014;19.2156868;26.66666603;1581.75;103;10.3;0.004086851814433437;-0.031163858648518228;0.10054553804898382;10.108525386349399;0.0732537674671078;-1.1392938444983356;8.692743019953742;6;0;0;0;0;0;0;0;0;0;0;0;0;0;0;0;0;0
104;2022-05-01 09:53:18.709;5.173873138348704;52.36972823055407;10;-0.05;-0.06;9.23232365;-0.36632404;-1.31685114;-0.04;6.274509430000002;3.1372547200000014;19.2156868;26.66666603;1581.75;104;10.4;-0.0008303562717480903;-0.03378544416645997;0.10242519928300993;10.028867093833401;0.033290347950677375;-1.1554361441499548;8.811589918550368;6;0;0;0;0;0;0;0;0;0;0;0;0;0;0;0;0;0
105;2022-05-01 09:53:18.810;5.173900638166587;52.369707431719554;10;0.01;-0.05;9.37119198;0.48124924;-0.80208206;-0.09;7.058822630000002;3.1372547200000014;19.2156868;26.66666603;1581.75;105;10.5;0.0001542619025309824;-0.03525955507850935;0.10867960826515466;9.969075997991002;0.07401555175512146;-1.1233117297281172;8.9196316242276;6;0;0;0;0;0;0;0;0;0;0;0;0;0;0;0;0;0
106;2022-05-01 09:53:18.913;5.173900638166587;52.369707431719554;10;0.07;0.02;10.49171257;0.5411061;-1.90105414;-0.1;7.058822630000002;3.1372547200000014;19.2156868;26.66666603;1581.75;106;10.600000000000001;0.006504110910531255;-0.030235772088226594;0.11527451491102311;10.016590182946494;0.11647991014274543;-1.194018218153409;9.017850588562975;6;0;0;0;0;0;0;0;0;0;0;0;0;0;0;0;0;0
107;2022-05-01 09:53:19.011;5.173900638166587;52.369707431719554;10;0.04;-0.02;10.11581135;0.0478855;-1.15404046;-0.01;7.058822630000002;3.5294113200000012;19.2156868;27.45098114;1581.75;107;10.700000000000001;0.009549294823758454;-0.029305215851332216;0.11308774680076217;10.025610594405224;0.11024384356914102;-1.190383753467594;9.107139921355575;6;0;0;0;0;0;0;0;0;0;0;0;0;0;0;0;0;0
108;2022-05-01 09:53:19.111;5.173900638166587;52.369707431719554;10;-0.06;0.0;9.0335989;0.92658436;-1.09657788;-0.02;7.058822630000002;3.5294113200000012;19.2156868;27.45098114;1581.75;108;10.8;0.0032264370723482107;-0.02664102332900848;0.11200890752674382;9.935424937636824;0.18445890175463195;-1.1818556843378438;9.18831151746575;6;0;0;0;0;0;0;0;0;0;0;0;0;0;0;0;0;0
109;2022-05-01 09:53:19.209;5.173900638166587;52.369707431719554;10;0.0;0.07;9.60822487;0.4836435;-0.03351985;0.0;7.058822630000002;3.5294113200000012;19.2156868;27.45098114;1581.75;109;10.9;0.0029331164049273928;-0.017855229951527628;0.10920991762543376;9.905678644723844;0.2116582625577518;-1.0774585968390715;9.262103444007638;6;0;0;0;0;0;0;0;0;0;0;0;0;0;0;0;0;0
110;2022-05-01 09:53:19.310;5.173900638166587;52.369707431719554;10;-0.07;0.17;9.05275345;1.98724806;-1.4772675;-0.05;7.058822630000002;3.5294113200000012;19.2156868;27.45098114;1581.75;110;11.0;-0.003697335542470295;-0.0007770474103412222;0.11121096509926254;9.828138018502102;0.3730796224358419;-1.1138057852113925;9.329186655281564;6;0;0;0;0;0;0;0;0;0;0;0;0;0;0;0;0;0
111;2022-05-01 09:53:19.412;5.173900638166587;52.369707431719554;10;0.02;0.08;8.8540287;0.27773589;-1.86514008;0.03;7.058822630000002;3.5294113200000012;19.2156868;27.45098114;1581.75;111;11.100000000000001;-0.0015429824990891839;0.006566490330934658;0.10575719489903623;9.739580578314792;0.36441180998189127;-1.182110482238344;9.39017109668194;6;0;0;0;0;0;0;0;0;0;0;0;0;0;0;0;0;0
112;2022-05-01 09:53:19.510;5.173900638166587;52.369707431719554;10;-0.1;0.0;8.46615601;-0.18675344;-1.38867939;-0.05;7.058822630000002;3.5294113200000012;19.2156868;27.45098114;1581.75;112;11.200000000000001;-0.01049380859742441;0.005969524116433471;0.10807212402188304;9.623812275052632;0.3143048249314073;-1.2008898685901652;9.445611253228302;6;0;0;0;0;0;0;0;0;0;0;0;0;0;0;0;0;0
113;2022-05-01 09:53:19.611;5.173900638166587;52.369707431719554;10;-0.04;-0.05;9.0335989;1.00320113;-1.3072741;0.0;7.058822630000002;3.5294113200000012;19.2156868;27.45098114;1916.25;113;11.3;-0.013176240892140725;0.0008812883302072793;0.1056310551921282;9.57015548836628;0.37693295850561814;-1.2105613471652485;9.496011193290979;6;0;0;0;0;0;0;0;0;0;0;0;0;0;0;0;0;0
114;2022-05-01 09:53:19.710;5.173900638166587;52.369707431719554;10;0.01;-0.08;9.91948032;-0.53392327;-1.09418356;-0.01;7.058822630000002;3.5294113200000012;19.2156868;27.45098114;1916.25;114;11.4;-0.01106927330043108;-0.006471683796746206;0.10432101650803045;9.601912842919894;0.29412640833643117;-1.1999813645402313;9.54182915347107;6;0;0;0;0;0;0;0;0;0;0;0;0;0;0;0;0;0
115;2022-05-01 09:53:19.810;5.173935687636428;52.3696840223045;12;0.01;0.02;10.98732662;1.27375424;-0.54828894;0.02;7.058822630000002;3.5294113200000012;17.64705849;27.45098114;1916.25;115;11.5;-0.00915385456948805;-0.004065129082642642;0.10040276040130494;9.727861538961132;0.3831848903906325;-1.1407356630402894;9.765302759615961;6;0;0;0;0;0;0;0;0;0;0;0;0;0;0;0;0;0
116;2022-05-01 09:53:19.910;5.173935687636428;52.3696840223045;12;-0.03;-0.02;10.51326084;0.47167215;-1.43177629;-0.02;7.058822630000002;3.5294113200000012;17.64705849;27.45098114;1916.25;116;11.600000000000001;-0.011048985907442545;-0.005513774509319107;0.10047713597806804;9.799262500504254;0.39122930221028607;-1.1671942817143186;9.968459970871598;6;0;0;0;0;0;0;0;0;0;0;0;0;0;0;0;0;0
117;2022-05-01 09:53:20.010;5.173935687636428;52.3696840223045;12;-0.01;0.07;12.01925945;1.99203658;-0.96968132;-0.04;7.058822630000002;3.5294113200000012;17.64705849;27.45098114;1916.25;117;11.700000000000001;-0.010953622307574667;0.0013512036812619369;0.10236295550208063;10.001083039081145;0.5367591359493423;-1.1492383235684505;10.15314783853391;6;0;0;0;0;0;0;0;0;0;0;0;0;0;0;0;0;0
118;2022-05-01 09:53:20.111;5.173935687636428;52.3696840223045;12;0.18000001;0.05;11.55477047;0.79011071;-0.26097596;0.06;7.058822630000002;3.5294113200000012;17.64705849;27.45098114;1916.25;118;11.8;0.006406004784562938;0.00577387400373241;0.09498631565932904;10.142329026877013;0.5597913705058517;-1.0684862414782195;10.321045481694311;6;0;0;0;0;0;0;0;0;0;0;0;0;0;0;0;0;0
119;2022-05-01 09:53:20.213;5.173935687636428;52.3696840223045;12;-0.05;0.06;10.441432;0.91221869;-1.09897208;0.0;7.058822630000002;3.5294113200000012;17.64705849;27.45098114;1916.25;119;11.9;0.0012781308563247387;0.010703574995455907;0.09373489891925117;10.169520499550782;0.5918305633211441;-1.0712577112381039;10.473679357005999;6;0;0;0;0;0;0;0;0;0;0;0;0;0;0;0;0;0
120;2022-05-01 09:53:20.311;5.173935687636428;52.3696840223045;12;-0.01;0.05;10.35523891;1.63289547;-0.72785956;-0.02;7.058822630000002;3.5294113200000012;17.64705849;27.45098114;1916.25;120;12.0;0.000252836179140145;0.01427601229936854;0.09441544932723762;10.186404156968356;0.6864737556213039;-1.040039391367129;10.612437139733897;6;0;0;0;0;0;0;0;0;0;0;0;0;0;0;0;0;0
121;2022-05-01 09:53:20.411;5.173935687636428;52.3696840223045;12;0.09;0.11;10.30256462;0.6847626;-1.54909575;-0.03;7.058822630000002;3.5294113200000012;17.64705849;27.45098114;1916.25;121;12.100000000000001;0.008411741985562791;0.022978270574889485;0.09594322937128583;10.196964293199484;0.6863181946326333;-1.0863176546951645;10.738580342431632;6;0;0;0;0;0;0;0;0;0;0;0;0;0;0;0;0;0
122;2022-05-01 09:53:20.510;5.173935687636428;52.3696840223045;12;0.07;0.08;10.47734642;1.13488626;-0.82841909;0.0;7.450979240000002;3.5294113200000012;17.64705849;27.45098114;1916.25;122;12.200000000000001;0.014010719906477516;0.028162106168822452;0.09460482312744467;10.22245378402105;0.727097440141259;-1.0628721406293935;10.853255786086452;6;0;0;0;0;0;0;0;0;0;0;0;0;0;0;0;0;0
123;2022-05-01 09:53:20.616;5.173935687636428;52.3696840223045;12;0.05;-0.05;8.21475697;-0.48843205;-2.89467835;0.0;7.450979240000002;3.5294113200000012;17.64705849;27.45098114;1916.25;123;12.3;0.01728249674634084;0.02105640780382184;0.09338809206095405;10.039934547167414;0.6165939451093916;-1.2294012047107636;10.957506028119075;6;0;0;0;0;0;0;0;0;0;0;0;0;0;0;0;0;0
124;2022-05-01 09:53:20.715;5.173935687636428;52.3696840223045;12;0.06;0.14;10.00567436;0.58420306;-1.75021493;-0.05;7.450979240000002;3.5294113200000012;17.64705849;27.45098114;1916.25;124;12.4;0.02116593214244349;0.031869534061023455;0.09682745945429887;10.03681996383765;0.6136492994685177;-1.27674822411764;11.052278842124286;6;0;0;0;0;0;0;0;0;0;0;0;0;0;0;0;0;0
125;2022-05-01 09:53:20.810;5.173980451407494;52.36966219434776;12;-0.03;0.08;9.50527096;1.85316873;-1.52275872;-0.1;7.450979240000002;3.5294113200000012;17.64705849;30.58823586;1916.25;125;12.5;0.01651445544460106;0.03624505760563871;0.10449963530808169;9.988497032903275;0.7263335701584166;-1.2991129508236003;11.138435835602655;6;1;0;0;0;0;0;0;0;0;0;0;0;0;0;0;0;0
126;2022-05-01 09:53:20.912;5.173980451407494;52.36966219434776;12;0.01;0.04;9.91469193;0.70870537;-0.97925842;0.0;7.450979240000002;3.5294113200000012;17.64705849;30.58823586;1916.25;126;12.600000000000001;0.015922228944305183;0.03658641789460472;0.10238337311171117;9.981787440955324;0.7247309976371805;-1.270035105253188;11.21676028408503;6;1;0;0;0;0;0;0;0;0;0;0;0;0;0;0;0;0
127;2022-05-01 09:53:21.009;5.173980451407494;52.36966219434776;12;0.03;-0.01;9.98173141;-0.2466103;-1.15882897;0.0;7.450979240000002;3.5294113200000012;17.64705849;30.58823586;1916.25;127;12.700000000000001;0.01720203275291323;0.032351267684031945;0.1004595004207248;9.981782347206481;0.6364267989642329;-1.2599254057223066;11.28796425291755;6;1;0;0;0;0;0;0;0;0;0;0;0;0;0;0;0;0
128;2022-05-01 09:53:21.114;5.173980451407494;52.36966219434776;12;-0.04;0.07;9.09106159;1.28572559;-1.44853628;-0.05;7.450979240000002;3.5294113200000012;17.64705849;30.58823586;1916.25;128;12.8;0.012001824168840627;0.03577389536956604;0.10325600226598336;9.90080736249493;0.6954542318066471;-1.2770719272752205;11.352695071490709;6;1;0;0;0;0;0;0;0;0;0;0;0;0;0;0;0;0
129;2022-05-01 09:53:21.210;5.173980451407494;52.36966219434776;12;0.06;-0.02;9.08387852;0.69194543;-0.96489275;-0.05;7.450979240000002;3.5294113200000012;17.64705849;30.58823586;1916.25;129;12.9;0.01636531284510798;0.030703520159214147;0.10579827445055183;9.826540795238666;0.6951352484976892;-1.2486918840461072;11.411541218802181;6;1;0;0;0;0;0;0;0;0;0;0;0;0;0;0;0;0
130;2022-05-01 09:53:21.312;5.173980451407494;52.36966219434776;12;-0.04;0.05;9.35682583;0.75659084;-1.30009127;-0.03;7.450979240000002;3.5294113200000012;17.64705849;30.58823586;1916.25;130;13.0;0.011241174123344733;0.0324577522312974;0.10629124045510736;9.783839273325974;0.7007221415741318;-1.2533645731619285;11.465037673885888;6;1;0;0;0;0;0;0;0;0;0;0;0;0;0;0;0;0
131;2022-05-01 09:53:21.431;5.173980451407494;52.36966219434776;12;0.03;0.15000001;10.30495834;1.98724806;-1.1444633;0.04;7.450979240000002;3.5294113200000012;17.64705849;30.58823586;1625.5;131;13.100000000000001;0.012946527791425372;0.0431434487540095;0.10037573281006106;9.831213896754045;0.8176794452185302;-1.2434644233942151;11.513670779770141;6;1;0;0;0;0;0;0;0;0;0;0;0;0;0;0;0;0
132;2022-05-01 09:53:21.511;5.173980451407494;52.36966219434776;12;-0.06;0.06;9.88596058;-0.06225114;-1.42938209;-0.01;7.450979240000002;3.5294113200000012;17.64705849;30.58823586;1625.5;132;13.200000000000001;0.00631500454510299;0.04467586729160233;0.09954347086333525;9.836190883508545;0.7376855057165507;-1.2603660822575888;11.557882665201365;6;1;0;0;0;0;0;0;0;0;0;0;0;0;0;0;0;0
133;2022-05-01 09:53:21.610;5.173980451407494;52.36966219434776;16;-0.08;0.01;9.88356686;0.79729348;-1.63768399;-0.05;7.450979240000002;3.5294113200000012;17.64705849;30.58823586;1625.5;133;13.3;-0.0015318363381083655;0.041523506765659524;0.1024232435100239;9.840497802695706;0.7431044278615222;-1.294667807664946;11.96171266085995;6;1;0;0;0;0;0;0;0;0;0;0;0;0;0;0;0;0
134;2022-05-01 09:53:21.710;5.173980451407494;52.36966219434776;16;0.04;0.05;10.17327404;0.81644773;-0.83320761;0.0;7.450979240000002;3.5294113200000012;40.0;30.58823586;1625.5;134;13.4;0.002243794896555914;0.042294099049503;0.10049575094105943;9.870750266022672;0.7497720180001591;-1.2527167722791248;12.32883063965773;6;1;0;0;0;0;0;0;0;0;0;0;0;0;0;0;0;0
135;2022-05-01 09:53:21.809;5.174025325451454;52.36964069987015;16;-0.12;0.08;11.10943508;1.45093048;-0.73983091;0.01;7.450979240000002;3.5294113200000012;40.0;30.58823586;1625.5;135;13.5;-0.00886930345411804;0.045721916273422064;0.0978343927899436;9.983358240724904;0.8135138459940072;-1.2060906753471592;12.662574092223059;6;1;0;0;0;0;0;0;0;0;0;0;0;0;0;0;0;0
136;2022-05-01 09:53:21.911;5.174025325451454;52.36964069987015;16;0.01;0.03;10.33129597;1.1420691;-1.29530263;-0.06;7.450979240000002;3.5294113200000012;40.0;30.58823586;1625.5;136;13.600000000000001;-0.007153908570298661;0.04429264810754395;0.10177862731709479;10.01498901088754;0.8433825691900856;-1.2142008703503357;12.965977094949022;6;1;0;0;0;0;0;0;0;0;0;0;0;0;0;0;0;0
137;2022-05-01 09:53:22.014;5.174025325451454;52.36964069987015;16;0.08;0.03;10.35763264;1.0606637;-1.07742369;0.0;7.450979240000002;3.5294113200000012;40.0;30.58823586;1625.5;137;13.700000000000001;0.0007691893980844497;0.04299331394065051;0.09990973757164837;10.046138492147012;0.8631354375849598;-1.2017665571045815;13.241797894146426;6;1;0;0;0;0;0;0;0;0;0;0;0;0;0;0;0;0
138;2022-05-01 09:53:22.109;5.174025325451454;52.36964069987015;16;0.04;0.03;10.24510193;0.64645422;-1.44614196;-0.05;7.450979240000002;3.5294113200000012;40.0;30.58823586;1625.5;138;13.8;0.004335633015552756;0.04181210149914331;0.10275621008536653;10.06422610930692;0.8434371103359326;-1.2239825420039618;13.492543982365895;6;1;0;0;0;0;0;0;0;0;0;0;0;0;0;0;0;0
139;2022-05-01 09:53:22.212;5.174025325451454;52.36964069987015;16;0.0;0.03;10.21637058;0.9768641;-1.89626563;-0.06;7.450979240000002;3.5294113200000012;40.0;30.58823586;1625.5;139;13.9;0.003941483927640671;0.04073827236842322;0.10625300386595345;10.078057447000733;0.855566856117067;-1.285099284357806;13.720494894905054;6;1;0;0;0;0;0;0;0;0;0;0;0;0;0;0;0;0
140;2022-05-01 09:53:22.312;5.174025325451454;52.36964069987015;16;0.01;0.0;10.36242104;0.10295381;-1.24502289;-0.03;7.450979240000002;3.5294113200000012;40.0;30.58823586;1625.5;140;14.0;0.0044922589188337225;0.03703478766409022;0.10670462962732774;10.103908720408151;0.7871473885616267;-1.2814559704694144;13.92772293378261;6;1;0;0;0;0;0;0;0;0;0;0;0;0;0;0;0;0
141;2022-05-01 09:53:22.412;5.174025325451454;52.36964069987015;16;-0.02;0.0;10.23552513;0.8834874;-1.08700073;-0.05;8.62745095;3.5294113200000012;40.0;30.58823586;1625.5;141;14.100000000000001;0.0022656869758495646;0.03366798432428763;0.10893338261445998;10.115873864407515;0.7959055830248783;-1.2637781979115514;14.116112007612836;6;1;0;0;0;0;0;0;0;0;0;0;0;0;0;0;0;0
142;2022-05-01 09:53:22.511;5.174025325451454;52.36964069987015;16;0.03;0.07;10.12538815;0.96968132;-1.37670803;-0.04;8.62745095;3.5294113200000012;40.0;30.58823586;1625.5;142;14.200000000000001;0.00478699119704843;0.03697089881898127;0.11005042917693134;10.116738800503288;0.8117033963255285;-1.2740445586501767;14.287374758679917;6;1;0;0;0;0;0;0;0;0;0;0;0;0;0;0;0;0
143;2022-05-01 09:53:22.612;5.174025325451454;52.36964069987015;16;0.02;-0.01;10.17566776;0.53631759;-1.6616267;-0.03;8.62745095;3.9215688699999998;40.0;30.58823586;1625.5;143;14.3;0.006169993511841049;0.03270081243199794;0.11015683391373401;10.122095984505998;0.7866682956072968;-1.3092793373584548;14.44306813293593;6;1;0;0;0;0;0;0;0;0;0;0;0;0;0;0;0;0
144;2022-05-01 09:53:22.710;5.174025325451454;52.36964069987015;16;0.05;0.02;9.5866766;0.38547826;-1.12291491;-0.06;8.62745095;3.9215688699999998;40.0;42.35293961;1625.5;144;14.4;0.010154543523015754;0.03154619197052214;0.11298084091481904;10.073421446547789;0.7501964378790964;-1.292337099822754;14.584607534486883;6;1;0;0;0;0;0;0;0;0;0;0;0;0;0;0;0;0
145;2022-05-01 09:53:22.809;5.174094967663312;52.3696252325128;16;0.01;0.0;9.67287064;-0.02154847;-1.3096683;-0.04;8.62745095;3.9215688699999998;40.0;42.35293961;1625.5;145;14.5;0.010140494099117207;0.028678353741328846;0.11372993605506959;10.037007703905717;0.6800377463936373;-1.2939126649011807;14.713279693259759;6;1;0;0;0;0;0;0;0;0;0;0;0;0;0;0;0;0
146;2022-05-01 09:53:22.910;5.174094967663312;52.3696252325128;16;0.01;0.01;9.91229725;0.43336374;-1.31924546;-0.04;8.62745095;3.9215688699999998;40.0;42.35293961;1625.5;146;14.600000000000001;0.010127721897779862;0.02698032018594534;0.11441093151945272;10.025670380586346;0.6576128182710649;-1.2962156481686122;14.830254362842329;6;1;0;0;0;0;0;0;0;0;0;0;0;0;0;0;0;0
147;2022-05-01 09:53:23.020;5.174094967663312;52.3696252325128;16;0.04;-0.02;9.89793205;0.21787901;-1.00080693;0.0;8.62745095;3.9215688699999998;40.0;42.35293961;1625.5;147;14.700000000000001;0.012843385574663796;0.022709378792698645;0.11139365185176693;10.014057796392663;0.6176369876185368;-1.2693602900663548;14.93659495485049;6;1;0;0;0;0;0;0;0;0;0;0;0;0;0;0;0;0
148;2022-05-01 09:53:23.110;5.174094967663312;52.3696252325128;16;0.0;0.02;9.90750885;0.05506832;-1.88668859;-0.02;8.62745095;3.9215688699999998;40.0;42.35293961;1625.5;148;14.8;0.01167580427395563;0.022463071462244383;0.11046885378186204;10.004371521952406;0.5664943466959228;-1.3254810827662467;15.033268206508106;6;1;0;0;0;0;0;0;0;0;0;0;0;0;0;0;0;0
149;2022-05-01 09:53:23.210;5.174094967663312;52.3696252325128;21;0.06;-0.02;8.98571301;-0.62011719;-1.35276532;-0.06;8.62745095;3.9215688699999998;40.0;42.35293961;1842.75;149;14.9;0.016068915691946087;0.018602789852152486;0.113264494257104;9.91176614543955;0.4586205039499264;-1.327961469502578;15.575698704858826;6;1;0;0;0;0;0;0;0;0;0;0;0;0;0;0;0;0
150;2022-05-01 09:53:23.309;5.174094967663312;52.3696252325128;21;0.01;-0.03;10.14454269;0.26097596;-1.25938857;-0.03;8.62745095;3.9215688699999998;40.0;42.35293961;1842.75;150;15.0;0.015517195773543442;0.01418435192806727;0.1130787110384193;9.9329276613824;0.4406528080391903;-1.3217275660446008;16.06881728152948;6;1;0;0;0;0;0;0;0;0;0;0;0;0;0;0;0;0
151;2022-05-01 09:53:23.410;5.174094967663312;52.3696252325128;21;0.01;-0.02;9.90032673;-0.01197137;-1.49163318;-0.05;8.62745095;3.9215688699999998;23.92156792;42.35293961;1842.75;151;15.100000000000001;0.015015632265168522;0.011076681983349579;0.11472799996841078;9.929963938833556;0.39950513446899055;-1.3371735388405477;16.517106848590714;6;1;0;0;0;0;0;0;0;0;0;0;0;0;0;0;0;0
152;2022-05-01 09:53:23.509;5.174094967663312;52.3696252325128;21;-0.02;-0.05;9.75427532;-0.29689008;-0.68715686;-0.02;8.62745095;3.9215688699999998;23.92156792;42.35293961;1842.75;152;15.200000000000001;0.011832391489946234;0.005524253769791879;0.11350007940100082;9.913992238794606;0.33619644920579467;-1.2780810860471683;16.924642778899358;6;1;0;0;0;0;0;0;0;0;0;0;0;0;0;0;0;0
153;2022-05-01 09:53:23.610;5.174094967663312;52.3696252325128;21;0.03;0.02;10.0822916;0.33519846;-0.86672747;0.01;8.62745095;3.9215688699999998;23.92156792;42.35293961;1842.75;153;15.3;0.013483992960906884;0.0068402312554270575;0.10965651419630756;9.92929218718213;0.3361057228760534;-1.2406852869813465;17.295129955422073;6;1;0;0;0;0;0;0;0;0;0;0;0;0;0;0;0;0
154;2022-05-01 09:53:23.710;5.174094967663312;52.3696252325128;21;-0.01;0.0;9.94821167;0.14126222;-0.74701375;0.02;8.62745095;3.9215688699999998;23.92156792;42.35293961;1842.75;154;15.4;0.011349083690482775;0.006218391811710412;0.10525327303383983;9.931012140825734;0.3183926703613276;-1.1958060391208798;17.63193645238589;6;1;0;0;0;0;0;0;0;0;0;0;0;0;0;0;0;0
155;2022-05-01 09:53:23.810;5.174177874312167;52.36960997985556;21;0.04;-0.02;10.20439911;0.05027977;-0.91461295;0.0;8.62745095;3.9215688699999998;23.92156792;42.35293961;1842.75;155;15.5;0.013953713354732732;0.00383490081533258;0.10306850926842892;9.9558655103319;0.29401876182363684;-1.1702430220992206;17.9381241544623;6;1;0;0;0;0;0;0;0;0;0;0;0;0;0;0;0;0
156;2022-05-01 09:53:23.909;5.174177874312167;52.36960997985556;21;-0.01;-0.01;9.73512173;-0.54350036;-0.30886146;-0.03;8.62745095;3.9215688699999998;23.92156792;42.35293961;1842.75;156;15.600000000000001;0.011776102358994562;0.002577182160430886;0.103809634115483;9.935797887572418;0.21788063568780808;-1.0919355825229355;18.216476592353132;6;1;0;0;0;0;0;0;0;0;0;0;0;0;0;0;0;0
157;2022-05-01 09:53:24.010;5.174177874312167;52.36960997985556;21;-0.01;-0.03;10.04158878;0.29689008;-0.4764607;0.05;8.62745095;3.9215688699999998;23.92156792;42.35293961;1842.75;157;15.700000000000001;0.00979645611911702;-0.0003843807081907707;0.09721065456564834;9.945415244202865;0.225063314514758;-1.0359833043402271;18.469524247838788;6;1;0;0;0;0;0;0;0;0;0;0;0;0;0;0;0;0
158;2022-05-01 09:53:24.109;5.174177874312167;52.36960997985556;21;0.04;-0.03;9.52921391;-0.04309694;0.12689656;0.07;8.62745095;3.9215688699999998;23.92156792;42.35293961;1842.75;158;15.8;0.012542233555388358;-0.0030767104405345714;0.08939340028305208;9.907578749356194;0.2006851031679286;-0.930266925322179;18.69956755834295;6;1;0;0;0;0;0;0;0;0;0;0;0;0;0;0;0;0
159;2022-05-01 09:53:24.209;5.174177874312167;52.36960997985556;21;0.06;-0.01;10.44622135;0.15802214;0.10055954;0.1;8.62745095;3.9215688699999998;23.92156792;42.35293961;1842.75;159;15.9;0.016856576987661694;-0.0037061005504856388;0.0795595324591139;9.956546270175837;0.19680665104651043;-0.8365554061408706;18.908697830152835;6;1;0;0;0;0;0;0;0;0;0;0;0;0;0;0;0;0
160;2022-05-01 09:53:24.311;5.174177874312167;52.36960997985556;21;0.02;-0.02;9.93863487;-0.27773589;-0.63687712;0.02;8.62745095;3.9215688699999998;23.92156792;42.35293961;1842.75;160;16.0;0.017142342777969954;-0.0051873644577349895;0.07789238187435411;9.954917960716154;0.1536664106955403;-0.8184028307405913;19.098816250420807;6;1;0;0;0;0;0;0;0;0;0;0;0;0;0;0;0;0
161;2022-05-01 09:53:24.411;5.174177874312167;52.36960997985556;21;0.0;0.02;9.61780167;-0.30646718;-0.6847626;0.04;8.62745095;3.9215688699999998;23.92156792;42.35293961;1842.75;161;16.1;0.015583947673026259;-0.0028976036014878173;0.07455860832005498;9.924271019160186;0.11183607602963806;-0.806253716462155;19.2716511707883;6;1;0;0;0;0;0;0;0;0;0;0;0;0;0;0;0;0
162;2022-05-01 09:53:24.511;5.174177874312167;52.36960997985556;21;0.09;0.0;10.52283764;0.15802214;0.11731946;0.04;0.0;3.9215688699999998;23.92156792;42.35293961;1842.75;162;16.2;0.022349044550455565;-0.0026341850450946054;0.07152790520283465;9.978686176252697;0.11603480986966722;-0.722292503568081;19.4287738197597;6;1;0;0;0;0;0;0;0;0;0;0;0;0;0;0;0;0
163;2022-05-01 09:53:24.611;5.174177874312167;52.36960997985556;21;-0.01;-0.08;9.65611076;-0.52913475;-0.46209505;0.04;0.0;0.0;23.92156792;42.35293961;1842.75;163;16.3;0.0194082218398904;-0.009667442094955873;0.06877272064499856;9.949361133638028;0.057383022152390446;-0.698638185756909;19.57161258666913;6;1;0;0;0;0;0;0;0;0;0;0;0;0;0;0;0;0
164;2022-05-01 09:53:24.711;5.174177874312167;52.36960997985556;21;-0.06;-0.02;9.73033237;0.56504887;-0.6344828;0.12;0.0;0.0;23.92156792;16.86274529;1842.75;164;16.400000000000002;0.012189291513451576;-0.010606765679871337;0.05899527913948345;9.929449424906192;0.10353446969536245;-0.6928058770977534;19.701466007096908;6;1;0;0;0;0;0;0;0;0;0;0;0;0;0;0;0;0
165;2022-05-01 09:53:24.810;5.174265924338011;52.36959528685722;21;-0.01;0.01;9.45977974;0.0478855;-0.02394275;0.05;0.0;0.0;23.92156792;16.86274529;1842.75;165;16.5;0.010172082922674864;-0.008733423093319632;0.056470333423489644;9.886752175079813;0.09847547176975016;-0.6320001300905796;19.819514567787174;6;1;0;0;0;0;0;0;0;0;0;0;0;0;0;0;0;0
166;2022-05-01 09:53:24.911;5.174265924338011;52.36959528685722;21;0.04;0.0;10.21397591;0.09816527;-0.64166564;0.0;0.0;0.0;23.92156792;16.86274529;1842.75;166;16.6;0.012883712079514763;-0.007939475442282776;0.05872038338744133;9.916499790983378;0.09844727160541494;-0.6328788129170796;19.926831438385772;6;1;0;0;0;0;0;0;0;0;0;0;0;0;0;0;0;0
167;2022-05-01 09:53:25.011;5.174265924338011;52.36959528685722;21;-0.05;-0.03;9.1940155;-0.0574626;-0.38308397;0.05;0.0;0.0;23.92156792;16.86274529;1842.75;167;16.7;0.007167010345790902;-0.00994497789777543;0.05622042825609114;9.850819393591596;0.08427364533818174;-0.6101701883089509;20.0243922275612;6;1;0;0;0;0;0;0;0;0;0;0;0;0;0;0;0;0
