;device_time;lon;lat;raw_speed_kph;raw_g_x;raw_g_y;raw_roll;raw_yaw;raw_pitch;raw_g_z;apps_d;apps_e;engine_load;engine_load_abs;engine_rpm;num_samples;cumulative_time;g_x;g_y;g_z;roll;yaw;pitch;speed_kph;sample_nr;cu mulative_time;roundabout_1;roundabout_2;roundabout_3;roundabout_4;turning_right_1;turning_right_2;turning_right_3;turning_left_1;turning_left_2;road_50km_1;road_50km_2;road_100km;entering_highway;exiting_highway;speed_bumps;road_50km_3;road_50km_4
0;2022-05-01 10:24:01.660;5.173813418352695;52.36976155167871;0;0.01;0.0;9.61301327;0.0191542;-1.00320113;0.02;0.0;0.0;26.66666603;22.74509811;859.75;0;0.0;0.01;0.0;-0.02;9.61301327;0.0191542;-1.00320113;0.0;7;0.0;0;0;0;0;0;0;0;0;0;0;0;0;0;0;0;0;0
1;2022-05-01 10:24:01.748;5.173813418352695;52.36976155167871;0;-0.02;-0.01;9.63456154;-0.14365649;-0.86193895;0.03;0.0;0.0;26.66666603;22.74509811;859.75;1;0.1;-0.005714285714285714;-0.005238095238095238;-0.025238095238095237;9.62430045904762;-0.06612759;-0.9292066547619048;0.0;7;0.1;0;0;0;0;0;0;0;0;0;0;0;0;0;0;0;0;0
2;2022-05-01 10:24:01.850;5.173813418352695;52.36976155167871;0;-0.02;-0.02;9.78779507;-0.23942748;-0.78292787;0.02;0.3921566100000007;0.0;26.66666603;22.74509811;859.75;2;0.2;-0.010936555891238672;-0.010634441087613293;-0.023323262839879153;9.684067371208458;-0.12947890930513595;-0.8757331412990935;0.0;7;0.2;0;0;0;0;0;0;0;0;0;0;0;0;0;0;0;0;0
3;2022-05-01 10:24:01.950;5.173813418352695;52.36976155167871;0;0.0;-0.03;9.85962391;-0.24182175;-0.76137936;0.03;0.3921566100000007;0.0;26.66666603;22.35294151;859.75;3;0.30000000000000004;-0.007800043094160742;-0.01618832148243913;-0.025238095238095237;9.734415518834302;-0.16169789680025856;-0.8429374328506786;0.0;7;0.30000000000000004;0;0;0;0;0;0;0;0;0;0;0;0;0;0;0;0;0
4;2022-05-01 10:24:02.054;5.173813418352695;52.36976155167871;0;0.0;0.0;9.86441231;0.21548474;-0.96249849;0.03;0.3921566100000007;0.0;26.66666603;22.35294151;859.5;4;0.4;-0.005929468804769783;-0.012306104732109219;-0.02638007567443612;9.765590815216948;-0.0712435064480516;-0.871610074375358;0.0;7;0.4;0;0;0;0;0;0;0;0;0;0;0;0;0;0;0;0;0
5;2022-05-01 10:24:02.150;5.173813418352695;52.36976155167871;0;-0.02;0.0;9.72554398;-0.11731946;-1.15164614;0.02;0.3921566100000007;0.0;42.74509811;22.35294151;859.5;5;0.5;-0.008866466812086147;-0.009737402486647197;-0.02504833707250625;9.757231679829694;-0.0808611237142105;-0.9300631174982144;0.0;7;0.5;0;0;0;0;0;0;0;0;0;0;0;0;0;0;0;0;0
6;2022-05-01 10:24:02.261;5.173813418352695;52.36976155167871;0;-0.02;-0.02;10.22594738;0.0383084;-1.40304506;-0.01;0.3921566100000007;0.0;42.74509811;22.35294151;859.5;6;0.6000000000000001;-0.01094545676471943;-0.01165376064160749;-0.01850368144518529;9.844756027657873;-0.0586083277436656;-1.0183841104517941;0.0;7;0.6000000000000001;0;0;0;0;0;0;0;0;0;0;0;0;0;0;0;0;0
7;2022-05-01 10:24:02.351;5.173813418352695;52.36976155167871;0;0.0;-0.02;10.15651417;-0.03351985;-2.281744;-0.04;0.3921566100000007;0.0;42.74509811;22.35294151;859.5;7;0.7000000000000001;-0.009080310955473585;-0.013075990311587606;-0.008534440451546563;9.897880753759935;-0.054333159504475634;-1.2336652498516016;0.0;7;0.7000000000000001;0;0;0;0;0;0;0;0;0;0;0;0;0;0;0;0;0
8;2022-05-01 10:24:02.450;5.173813418352695;52.36976155167871;0;-0.06;-0.04;9.94581795;0.05506832;-2.50680566;-0.18000001;8.23529435;3.9215688699999998;42.74509811;22.35294151;859.5;8;0.8;-0.017118240278373137;-0.01732608081735013;0.02122667192162766;9.905447881575242;-0.037063585071123006;-1.4346368745202367;0.0;7;0.8;0;0;0;0;0;0;0;0;0;0;0;0;0;0;0;0;0
9;2022-05-01 10:24:02.549;5.173813418352695;52.36976155167871;0;0.0;-0.01;9.86680603;0.28013015;-2.58342242;-0.13;8.23529435;3.9215688699999998;42.74509811;43.52941132;859.5;9;0.9;-0.014585590484011727;-0.016242184530476638;0.03731972485871829;9.899730805762875;0.009865341900157622;-1.6046001083697143;0.0;7;0.9;0;0;0;0;0;0;0;0;0;0;0;0;0;0;0;0;0
10;2022-05-01 10:24:02.651;5.173813418352695;52.36976155167871;0;0.0;-0.02;9.7135725;-0.25139886;-2.6791935;-0.14;8.23529435;3.9215688699999998;42.74509811;43.52941132;859.5;10;1.0;-0.012544096539281941;-0.016768152782146203;0.051691522844812536;9.873674880609029;-0.0267028921208438;-1.7550071765281563;0.0;7;1.0;0;0;0;0;0;0;0;0;0;0;0;0;0;0;0;0;0
11;2022-05-01 10:24:02.749;5.1738189491233255;52.36976078906648;2;-0.03;-0.03;9.62737942;-0.2849187;-2.26737833;-0.15000001;8.23529435;3.9215688699999998;42.74509811;43.52941132;1663.25;11;1.1;-0.01487308404834154;-0.01853356165723051;0.06480795873334828;9.84081384579709;-0.06115435391688367;-1.823368348387507;0.2668423910914315;7;1.1;0;0;0;0;0;0;0;0;0;0;0;0;0;0;0;0;0
12;2022-05-01 10:24:02.848;5.1738189491233255;52.36976078906648;2;-0.01;-0.03;9.56991673;-0.19393626;-2.08062482;-0.11;8.23529435;3.9215688699999998;32.15686417;43.52941132;1663.25;12;1.2000000000000002;-0.014249424431505621;-0.020001041896106766;0.0705916576929394;9.80614430392915;-0.07814784548178338;-1.8562921541176811;0.4886527271261729;7;1.2000000000000002;0;0;0;0;0;0;0;0;0;0;0;0;0;0;0;0;0
13;2022-05-01 10:24:02.949;5.1738189491233255;52.36976078906648;2;-0.04;-0.02;9.79018974;-0.13168511;-2.27934957;-0.13;8.23529435;3.9215688699999998;32.15686417;43.52941132;1663.25;13;1.3;-0.01742719114008582;-0.02000091332023268;0.07792298323528152;9.804175420477629;-0.08475464680946292;-1.9084998326774423;0.6751615310193952;7;1.3;0;0;0;0;0;0;0;0;0;0;0;0;0;0;0;0;0
14;2022-05-01 10:24:03.050;5.1738189491233255;52.36976078906648;2;-0.01;-0.01;9.7087841;-0.29449579;-2.26737833;-0.14;7.84313775;3.9215688699999998;32.15686417;43.52941132;1663.25;14;1.4000000000000001;-0.016539481257493535;-0.01880558800520157;0.08534252855524357;9.792774095763566;-0.10982324704940387;-1.9513935703925889;0.833508364912635;7;1.4000000000000001;0;0;0;0;0;0;0;0;0;0;0;0;0;0;0;0;0
15;2022-05-01 10:24:03.148;5.1738189491233255;52.36976078906648;2;-0.02;-0.06;9.76864147;-0.29928434;-2.18357873;-0.1;7.84313775;3.9215688699999998;32.15686417;38.4313736;1663.25;15;1.5;-0.016941582904354904;-0.02359225212614101;0.08704568170808306;9.78996995878739;-0.13183804400912505;-1.978372772645742;0.9690511093449067;7;1.5;0;0;0;0;0;0;0;0;0;0;0;0;0;0;0;0;0
16;2022-05-01 10:24:03.248;5.1738189491233255;52.36976078906648;2;0.0;-0.05;9.66089916;-0.28252444;-2.10456753;-0.12;7.84313775;3.9215688699999998;32.15686417;38.4313736;1631.25;16;1.6;-0.015021575842525427;-0.026585069426098742;0.09078042858477499;9.775342232054482;-0.14891548866453216;-1.9926745546370663;1.0858896103054174;7;1.6;0;0;0;0;0;0;0;0;0;0;0;0;0;0;0;0;0
17;2022-05-01 10:24:03.349;5.1738189491233255;52.36976078906648;6;-0.02;-0.06;9.96257782;-0.46209505;-1.99921942;-0.12;7.84313775;3.9215688699999998;32.15686417;38.4313736;1631.25;17;1.7000000000000002;-0.015573412536923176;-0.030288969344659706;0.0940192911628636;9.796096483732764;-0.1836300827637162;-1.993400024535355;1.6305974028873815;7;1.7000000000000002;0;0;0;0;0;0;0;0;0;0;0;0;0;0;0;0;0
18;2022-05-01 10:24:03.448;5.1738189491233255;52.36976078906648;6;-0.03;-0.05;9.40231705;-0.83081335;-1.85556293;-0.07;7.84313775;3.9215688699999998;33.72549057;38.4313736;1631.25;18;1.8;-0.01714127921921789;-0.032431143876044455;0.09140889931219388;9.75330094002552;-0.2539652943745981;-1.9784200309187499;2.105459581561186;7;1.8;0;0;0;0;0;0;0;0;0;0;0;0;0;0;0;0;0
19;2022-05-01 10:24:03.550;5.1738189491233255;52.36976078906648;6;0.0;-0.13;9.95060635;-1.16601181;-1.77415764;-0.06;7.84313775;3.9215688699999998;33.72549057;38.4313736;1631.25;19;1.9000000000000001;-0.015310908105389915;-0.04284969044859566;0.08805501065062209;9.774369503135697;-0.3513549684659322;-1.956608591107423;2.5213243599351283;7;1.9000000000000001;0;0;0;0;0;0;0;0;0;0;0;0;0;0;0;0;0
20;2022-05-01 10:24:03.650;5.1738189491233255;52.36976078906648;6;0.03;-0.14;10.84127617;-0.90743017;-0.96010423;-0.06;7.84313775;3.9215688699999998;33.72549057;38.4313736;1631.25;20;2.0;-0.010548138922346083;-0.05306145886820844;0.08510606202558106;9.886515350716289;-0.4098057465249644;-1.8518629468397758;2.886978676502123;7;2.0;0;0;0;0;0;0;0;0;0;0;0;0;0;0;0;0;0
21;2022-05-01 10:24:03.748;5.1738189491233255;52.36976078906648;6;0.11;-0.08;10.29777622;-0.69912827;-1.45811331;0.06;8.23529435;3.9215688699999998;33.72549057;38.4313736;1631.25;21;2.1;0.0019455866834768363;-0.055853395302321154;0.07006712953856056;9.929138824617887;-0.439791412435658;-1.811054353990097;3.2096152146399053;7;2.1;0;0;0;0;0;0;0;0;0;0;0;0;0;0;0;0;0
22;2022-05-01 10:24:03.849;5.1738430339498285;52.36975454382937;6;-0.05;-0.13;9.82849789;-0.63208854;-1.8675344;-0.03;8.23529435;3.9215688699999998;33.72549057;40.0;1631.25;22;2.2;-0.003370421364246567;-0.06344141138703706;0.06596673917481258;9.918839431492941;-0.4594707180889966;-1.8168344095885438;3.4951776449115344;7;2.2;0;0;0;0;0;0;0;0;0;0;0;0;0;0;0;0;0
23;2022-05-01 10:24:03.950;5.1738430339498285;52.36975454382937;6;-0.06;-0.07;8.29376793;0.34716985;-2.49962282;-0.07;8.23529435;3.9215688699999998;33.72549057;40.0;1750.25;23;2.3000000000000003;-0.009100293579694791;-0.064105019974127;0.06637483101827381;9.754412072701996;-0.37785352279472645;-1.885920043564577;3.7486196157474887;7;2.3000000000000003;0;0;0;0;0;0;0;0;0;0;0;0;0;0;0;0;0
24;2022-05-01 10:24:04.050;5.1738430339498285;52.36975454382937;9;-0.22;-0.30000001;10.6018486;-2.2841382;-2.02795076;-0.04;8.23529435;3.9215688699999998;32.15686417;40.0;1750.25;24;2.4000000000000004;-0.03022248819948242;-0.08773056205634029;0.06373331802952764;9.839285207716383;-0.5687732572793457;-1.9001448164931753;4.274560027810752;7;2.4000000000000004;0;0;0;0;0;0;0;0;0;0;0;0;0;0;0;0;0
25;2022-05-01 10:24:04.150;5.1738430339498285;52.36975454382937;9;0.08;-0.2;10.07750225;-1.10376072;-1.82204318;0.09;8.23529435;3.9215688699999998;32.15686417;40.0;1750.25;25;2.5;-0.019284505617286653;-0.09887167469860077;0.04847751694593324;9.862924792540168;-0.6218630000761255;-1.8923943623566544;4.743491377060227;7;2.5;0;0;0;0;0;0;0;0;0;0;0;0;0;0;0;0;0
26;2022-05-01 10:24:04.250;5.1738430339498285;52.36975454382937;9;0.0;-0.15000001;10.77902508;0.1053481;-1.15404046;0.01;8.23529435;3.9215688699999998;32.15686417;40.0;1750.25;26;2.6;-0.017386600971296504;-0.10390352291063291;0.04272239139072235;9.953083753639197;-0.55029376450221;-1.8197284963252485;5.162400093285392;7;2.6;0;0;0;0;0;0;0;0;0;0;0;0;0;0;0;0;0
27;2022-05-01 10:24:04.349;5.1738430339498285;52.36975454382937;9;0.0;-0.09;9.85722923;-0.78532213;-1.19713736;0.01;8.62745095;3.9215688699999998;32.15686417;40.0;1750.25;27;2.7;-0.015688230162426223;-0.1025453887076992;0.037572323780632154;9.94372042120201;-0.5732519790420688;-1.7589120887052758;5.537267364263049;7;2.7;0;0;0;0;0;0;0;0;0;0;0;0;0;0;0;0;0
28;2022-05-01 10:24:04.449;5.1738430339498285;52.36975454382937;9;-0.03;-0.09;9.10063839;-0.8834874;-1.97767103;-0.05;8.62745095;4.313725470000001;32.15686417;44.31372452;1750.25;28;2.8000000000000003;-0.017076837108352703;-0.10132816581377568;0.03877812555887435;9.861919946641597;-0.6033527328484646;-1.7801372892788532;5.873240807410999;7;2.8000000000000003;0;0;0;0;0;0;0;0;0;0;0;0;0;0;0;0;0
29;2022-05-01 10:24:04.551;5.1738430339498285;52.36975454382937;9;-0.04;-0.12;10.71198559;-0.86193895;-1.76458049;-0.06;8.62745095;4.313725470000001;32.15686417;44.31372452;1750.25;29;2.9000000000000004;-0.019287447914824174;-0.10312879684465977;0.04082467145635289;9.943896605198734;-0.6282896705974893;-1.7786370587582006;6.174771957062684;7;2.9000000000000004;0;0;0;0;0;0;0;0;0;0;0;0;0;0;0;0;0
30;2022-05-01 10:24:04.651;5.1738430339498285;52.36975454382937;9;-0.02;-0.05;10.50607777;0.01197137;-1.786129;0.0;8.62745095;4.313725470000001;32.15686417;44.31372452;1750.25;30;3.0;-0.019355785685065963;-0.09803344509771048;0.03690935484129826;9.997812954717197;-0.5668850199096409;-1.7793555782459665;6.4457272863580375;7;3.0;0;0;0;0;0;0;0;0;0;0;0;0;0;0;0;0;0
31;2022-05-01 10:24:04.748;5.1738430339498285;52.36975454382937;12;-0.01;0.04;9.32809448;1.08460653;-1.51078737;0.0;8.62745095;4.313725470000001;32.94117737;44.31372452;1978.75;31;3.1;-0.018462973971832056;-0.08486107446528116;0.03338713816816319;9.933902501985141;-0.40928510797282175;-1.7537264274513957;6.975765051668399;7;3.1;0;0;0;0;0;0;0;0;0;0;0;0;0;0;0;0;0
32;2022-05-01 10:24:04.849;5.1738771081425226;52.36973799458514;12;-0.11;0.12;9.7470932;-0.11492519;-1.34797668;0.02;8.62745095;4.313725470000001;32.94117737;44.31372452;1978.75;32;3.2;-0.02715894204017009;-0.06539938295864088;0.028315388856278864;9.916155719121218;-0.38132107463725573;-1.7151804204346524;7.453064660081229;7;3.2;0;0;0;0;0;0;0;0;0;0;0;0;0;0;0;0;0
33;2022-05-01 10:24:04.949;5.1738771081425226;52.36973799458514;12;-0.01;-0.18000001;9.7614584;-1.70472372;-1.04390383;0.01;8.62745095;4.313725470000001;32.94117737;44.31372452;1978.75;33;3.3000000000000003;-0.025535492316399084;-0.07624203024299728;0.024690275646543455;9.901519425146477;-0.5065314549755225;-1.6516692906246773;7.8832613997353835;7;3.3000000000000003;0;0;0;0;0;0;0;0;0;0;0;0;0;0;0;0;0
34;2022-05-01 10:24:05.053;5.1738771081425226;52.36973799458514;12;-0.01;0.0;8.77980614;-0.77574503;-1.51318169;-0.13;8.62745095;4.313725470000001;32.94117737;44.31372452;1978.75;34;3.4000000000000004;-0.024071064482599217;-0.0690551996669621;0.03461712497787763;9.795782952632013;-0.5319084333469422;-1.638614982923282;8.271319046569145;7;3.4000000000000004;0;0;0;0;0;0;0;0;0;0;0;0;0;0;0;0;0
35;2022-05-01 10:24:05.151;5.1738771081425226;52.36973799458514;12;0.15000001;0.14;9.45499134;1.17080033;-1.17319465;-0.07;8.62745095;4.313725470000001;32.94117737;46.27450943;1978.75;35;3.5;-0.007717393428791881;-0.049414831629920594;0.037941283806503745;9.763766180474745;-0.3719419420790634;-1.5948895618617736;8.621622059049834;7;3.5;0;0;0;0;0;0;0;0;0;0;0;0;0;0;0;0;0
36;2022-05-01 10:24:05.250;5.1738771081425226;52.36973799458514;13;-0.15000001;0.03;10.34087276;0.37829542;-1.96809387;-0.05;8.62745095;4.313725470000001;32.94117737;46.27450943;2025.0;36;3.6;-0.021044092990102566;-0.041976554014929175;0.039070746362636945;9.817820050058593;-0.3016720232018395;-1.6298452142766686;9.03171662148509;7;3.6;0;0;0;0;0;0;0;0;0;0;0;0;0;0;0;0;0
37;2022-05-01 10:24:05.351;5.1738771081425226;52.36973799458514;13;0.0;-0.02;9.9362402;-0.11253092;-1.71190643;-0.05;8.62745095;4.313725470000001;27.45098114;46.27450943;2025.0;37;3.7;-0.019078442223283133;-0.03992380551815095;0.04009160745668128;9.828881237568488;-0.28400505343884586;-1.6375102484355923;9.402379271075322;7;3.7;0;0;0;0;0;0;0;0;0;0;0;0;0;0;0;0;0
38;2022-05-01 10:24:05.456;5.1738771081425226;52.36973799458514;13;-0.19;-0.13;11.16210938;0.1340794;-1.64247251;-0.1;8.62745095;4.313725470000001;27.45098114;46.27450943;2025.0;38;3.8000000000000003;-0.03500382281140999;-0.04831653079934417;0.045673489368391856;9.953102932334223;-0.24505061067808837;-1.637972600318052;9.737582624386114;7;3.8000000000000003;0;0;0;0;0;0;0;0;0;0;0;0;0;0;0;0;0
39;2022-05-01 10:24:05.550;5.1738771081425226;52.36973799458514;13;0.07;0.06;10.39354706;1.0175668;-1.73106074;0.02;8.62745095;4.313725470000001;27.45098114;46.27450943;2025.0;39;3.9000000000000004;-0.02524234150962363;-0.03824708988031058;0.039568277945337245;9.994047985586361;-0.1276737770005167;-1.6466263627296873;10.040867070209332;7;3.9000000000000004;0;0;0;0;0;0;0;0;0;0;0;0;0;0;0;0;0
40;2022-05-01 10:24:05.651;5.1738771081425226;52.36973799458514;13;-0.08;-0.04;9.98173141;0.01197137;-0.81405342;-0.08;8.62745095;4.313725470000001;27.45098114;45.49019623;2025.0;40;4.0;-0.03032234900940346;-0.03840971181850078;0.04331923181972174;9.992905345486779;-0.1147185408997043;-1.569386449450271;10.315393371928826;7;4.0;0;0;0;0;0;0;0;0;0;0;0;0;0;0;0;0;0
41;2022-05-01 10:24:05.748;5.1738771081425226;52.36973799458514;13;0.05;0.04;9.09824467;-0.85475612;-1.9106313;-0.08;8.62745095;4.313725470000001;27.45098114;45.49019623;2025.0;41;4.1000000000000005;-0.02288450014384506;-0.03114897314127757;0.04671587065514167;9.91005977420686;-0.18324601471072702;-1.6009857198381652;10.56398792387267;7;4.1000000000000005;0;0;0;0;0;0;0;0;0;0;0;0;0;0;0;0;0
42;2022-05-01 10:24:05.850;5.17391900869099;52.36971372879274;15;-0.15000001;0.0;9.73512173;-0.84996754;-1.79331183;0.05;8.62745095;4.313725470000001;27.45098114;45.49019623;1679.75;42;4.2;-0.034635525503446556;-0.028269447474245247;0.03777509977650858;9.893887857843861;-0.24488020522242943;-1.618765052984708;10.97406919925015;7;4.2;0;0;0;0;0;0;0;0;0;0;0;0;0;0;0;0;0
43;2022-05-01 10:24:05.950;5.17391900869099;52.36971372879274;15;0.02;-0.08;10.62579155;0.8930645;-1.50599885;0.01;8.62745095;4.313725470000001;38.82352829;45.49019623;1679.75;43;4.3;-0.029592555415144276;-0.03304428265034829;0.033365360931342875;9.961444056728205;-0.1398455952740606;-1.6083565031742475;11.345670797636453;7;4.3;0;0;0;0;0;0;0;0;0;0;0;0;0;0;0;0;0
44;2022-05-01 10:24:06.050;5.17391900869099;52.36971372879274;15;0.0;0.05;9.50287628;-0.68955112;-1.63050115;-0.06;8.62745095;4.313725470000001;38.82352829;45.49019623;1679.75;44;4.4;-0.02686490184705577;-0.025389788785156388;0.0358203725811037;9.91917619527265;-0.19051395476116798;-1.61039765589259;11.682503624270137;7;4.4;0;0;0;0;0;0;0;0;0;0;0;0;0;0;0;0;0
45;2022-05-01 10:24:06.149;5.17391900869099;52.36971372879274;15;-0.08;-0.09;9.62498474;-0.50279772;-2.02316213;-0.09;8.62745095;4.313725470000001;38.82352829;45.49019623;1679.75;45;4.5;-0.03175637178198927;-0.03133762583887601;0.04080799898658433;9.892093744903624;-0.21926193306426137;-1.648395609890783;11.987903150105664;7;4.5;0;0;0;0;0;0;0;0;0;0;0;0;0;0;0;0;0
46;2022-05-01 10:24:06.249;5.17391900869099;52.36971372879274;15;0.11;-0.01;9.5387907;0.18435916;-1.951334;-0.04;8.62745095;4.313725470000001;38.82352829;45.49019623;1679.75;46;4.6000000000000005;-0.018721638588318282;-0.029375595798886895;0.040733702141380924;9.859606944705938;-0.18214830499030313;-1.6762512966550203;12.264870444755752;7;4.6000000000000005;0;0;0;0;0;0;0;0;0;0;0;0;0;0;0;0;0
47;2022-05-01 10:24:06.351;5.17391900869099;52.36971372879274;15;-0.07;-0.16;10.72635078;1.13249195;-1.71190643;0.05;8.62745095;4.313725470000001;38.82352829;45.49019623;1679.75;47;4.7;-0.023431858146240738;-0.041374216785825965;0.032399277120309905;9.939222471651789;-0.06139085349972502;-1.6795264306842366;12.516108206062773;7;4.7;0;0;0;0;0;0;0;0;0;0;0;0;0;0;0;0;0
48;2022-05-01 10:24:06.452;5.17391900869099;52.36971372879274;18;-0.09;-0.17;12.49332619;0.69673395;-0.0191542;0.01;8.62745095;4.313725470000001;38.82352829;45.49019623;1750.75;48;4.800000000000001;-0.02954075020698179;-0.05317807677052965;0.02850833769840994;10.173610025409916;0.00818150445078912;-1.5271557251869334;13.019359492774996;7;4.800000000000001;0;0;0;0;0;0;0;0;0;0;0;0;0;0;0;0;0
49;2022-05-01 10:24:06.549;5.17391900869099;52.36971372879274;18;-0.12;0.01;11.42547894;0.66321415;0.0478855;-0.08;8.62745095;4.313725470000001;34.11764526;45.49019623;1750.75;49;4.9;-0.03783497313330494;-0.04738526891516785;0.033229616362046396;10.28839408426407;0.0682415513629148;-1.3827399460406218;13.476035208938052;7;4.9;0;0;0;0;0;0;0;0;0;0;0;0;0;0;0;0;0
50;2022-05-01 10:24:06.649;5.17391900869099;52.36971372879274;18;0.05;0.18000001;10.48213482;2.33441782;-1.42219925;0.0;8.62745095;4.313725470000001;34.11764526;45.49019623;1750.75;50;5.0;-0.02978765604548174;-0.026552548470700137;0.030185165501154517;10.306144338834411;0.27586544376105265;-1.3863551521447324;13.890514520186558;7;5.0;0;0;0;0;0;0;0;0;0;0;0;0;0;0;0;0;0
51;2022-05-01 10:24:06.747;5.17397317452621;52.36968352396147;18;-0.16;0.02;10.52283764;1.36713088;-1.19713736;-0.04;8.62745095;4.313725470000001;34.11764526;45.49019623;1750.75;51;5.1000000000000005;-0.0417090701049751;-0.022290493207815874;0.031083749325334854;10.325983399315618;0.37577476663417586;-1.3690315745247148;14.266752874312523;7;5.1000000000000005;0;0;0;0;0;0;0;0;0;0;0;0;0;0;0;0;0
52;2022-05-01 10:24:06.848;5.17397317452621;52.36968352396147;18;0.02;0.1;10.64733982;1.16840613;-1.47247899;0.01;8.62745095;4.313725470000001;34.11764526;45.49019623;1750.75;52;5.2;-0.03606301927384539;-0.011101565232711223;0.027324805354381542;10.355385798071707;0.4482963094203194;-1.378496461374069;14.608325077571196;7;5.2;0;0;0;0;0;0;0;0;0;0;0;0;0;0;0;0;0
53;2022-05-01 10:24:06.947;5.17397317452621;52.36968352396147;18;0.19;0.25999999;11.78701496;2.70074201;-2.31765795;-0.11;8.62745095;4.313725470000001;34.11764526;45.49019623;1750.75;53;5.300000000000001;-0.015391563278168909;0.013688264998494648;0.034884717867009904;10.486295574106673;0.6542624702357718;-1.4643744410955006;14.918463635995456;7;5.300000000000001;0;0;0;0;0;0;0;0;0;0;0;0;0;0;0;0;0
54;2022-05-01 10:24:07.051;5.17397317452621;52.36968352396147;18;-0.04;0.04;9.82370949;1.16122329;-0.7996878;-0.17;8.23529435;4.313725470000001;34.11764526;45.49019623;1750.75;54;5.4;-0.017640589777855237;0.016092960182509025;0.04723324099607593;10.425740176853125;0.7005948858556946;-1.4036270686919097;15.200092941454141;7;5.4;0;0;0;0;0;0;0;0;0;0;0;0;0;0;0;0;0
55;2022-05-01 10:24:07.148;5.17397317452621;52.36968352396147;18;-0.02;0.04;10.0487709;1.78852332;-0.95292139;0.07;8.23529435;4.313725470000001;34.11764526;48.62745285;1750.75;55;5.5;-0.017856117983635195;0.01827682857004615;0.03652417910742924;10.391304659403994;0.7999753417117246;-1.3624558533807358;15.455859801754709;7;5.5;0;0;0;0;0;0;0;0;0;0;0;0;0;0;0;0;0
56;2022-05-01 10:24:07.248;5.17397317452621;52.36968352396147;20;0.07;0.13;10.31932449;0.84517902;-1.28333127;-0.02;8.23529435;4.313725470000001;36.47058868;48.62745285;1806.0;56;5.6000000000000005;-0.009834131144512561;0.0284780738720873;0.03501538552117275;10.384732277367444;0.8041028096744682;-1.355231127532394;15.870777211060703;7;5.6000000000000005;0;0;0;0;0;0;0;0;0;0;0;0;0;0;0;0;0
57;2022-05-01 10:24:07.350;5.17397317452621;52.36968352396147;20;-0.11;0.1;8.79656601;1.16122329;-1.04390383;0.01;8.23529435;4.313725470000001;36.47058868;48.62745285;1806.0;57;5.7;-0.01897645049806966;0.03500600895530677;0.03090675016503361;10.239777480202276;0.8366978394599346;-1.3268157240617027;16.24765881604067;7;5.7;0;0;0;0;0;0;0;0;0;0;0;0;0;0;0;0;0
58;2022-05-01 10:24:07.449;5.17397317452621;52.36968352396147;20;0.15000001;0.04;7.9753294;0.05506832;-1.64247251;0.01;8.23529435;4.313725470000001;36.47058868;48.62745285;1806.0;58;5.800000000000001;-0.003559256433635761;0.03546165424971723;0.027174471100951534;10.033172161340646;0.765382971386096;-1.3556158416178505;16.590017580442233;7;5.800000000000001;0;0;0;0;0;0;0;0;0;0;0;0;0;0;0;0;0
59;2022-05-01 10:24:07.550;5.17397317452621;52.36968352396147;20;-0.11;-0.04;8.88036537;0.56744313;-1.23305154;0.01;7.84313775;3.9215688699999998;36.47058868;48.62745285;1806.0;59;5.9;-0.013267572400554905;0.02857889903497286;0.02378383797251867;9.92802621624334;0.7473291467111495;-1.3444369177725;16.901037455552984;7;5.9;0;0;0;0;0;0;0;0;0;0;0;0;0;0;0;0;0
60;2022-05-01 10:24:07.648;5.17397317452621;52.36968352396147;20;0.01;0.14;9.4166832;0.0287313;-2.7629931;0.01;7.84313775;3.9215688699999998;36.47058868;45.49019623;1806.0;60;6.0;-0.011146004179177563;0.0387384233260691;0.020703382658798553;9.881401279408106;0.6818064385709481;-1.4737827586123657;17.183604985175485;7;6.0;0;0;0;0;0;0;0;0;0;0;0;0;0;0;0;0;0
61;2022-05-01 10:24:07.748;5.174045835542975;52.36965375827946;22;0.02;-0.07;9.97933769;1.8268317;-2.81806135;0.07;7.84313775;3.9215688699999998;36.47058868;45.49019623;1819.75;61;6.1000000000000005;-0.008306842995367785;0.028826207655641384;0.012435178435758285;9.890328821247326;0.7861829504993829;-1.596322509616632;17.622650767527453;7;6.1000000000000005;0;0;0;0;0;0;0;0;0;0;0;0;0;0;0;0;0
62;2022-05-01 10:24:07.850;5.174045835542975;52.36965375827946;22;0.02;0.03;9.34006596;0.75180227;-0.37350687;0.05;7.84313775;3.9215688699999998;29.41176414;45.49019623;1819.75;62;6.2;-0.00572712813188144;0.028933180007093075;0.006745213014976289;9.840181184429737;0.7830497027360931;-1.484882470847957;18.02157596308981;7;6.2;0;0;0;0;0;0;0;0;0;0;0;0;0;0;0;0;0
63;2022-05-01 10:24:07.949;5.174045835542975;52.36965375827946;22;-0.07;0.08;9.92905807;0.50519198;-0.41181526;0.01;7.84313775;3.9215688699999998;29.41176414;45.49019623;1819.75;63;6.300000000000001;-0.011583252947360338;0.03358605552231331;0.005219498438557543;9.848279066475188;0.7577331195806667;-1.3871115865000847;18.38406400900836;7;6.300000000000001;0;0;0;0;0;0;0;0;0;0;0;0;0;0;0;0;0
64;2022-05-01 10:24:08.048;5.174045835542975;52.36965375827946;22;0.13;0.05;10.24031353;0.45012367;-0.73504239;0.03;7.84313775;3.9215688699999998;29.41176414;45.49019623;1819.75;64;6.4;0.0013142534082984459;0.03508128146758172;0.002011183221197089;9.883991390353128;0.7297114803794372;-1.3277114354856425;18.71345718549378;7;6.4;0;0;0;0;0;0;0;0;0;0;0;0;0;0;0;0;0
65;2022-05-01 10:24:08.148;5.174045835542975;52.36965375827946;22;-0.03;0.02;9.84046936;0.42139238;-0.55786604;0.05;0.0;0.0;29.41176414;45.49019623;1819.75;65;6.5;-0.0015377842512496976;0.03370770943509667;-0.002725888147881195;9.88002749353053;0.7016304121842387;-1.25759550357034;19.01278873124301;7;6.5;0;0;0;0;0;0;0;0;0;0;0;0;0;0;0;0;0
66;2022-05-01 10:24:08.249;5.174045835542975;52.36965375827946;22;0.0;0.11;9.5866766;0.79729348;-0.40463245;0.05;0.0;0.0;29.41176414;21.96078491;1819.75;66;6.6000000000000005;-0.0013977496756883135;0.040655080966037975;-0.0070307899459539965;9.853314209249776;0.7103417363427437;-1.1799225016006571;19.28481184618428;7;6.6000000000000005;0;0;0;0;0;0;0;0;0;0;0;0;0;0;0;0;0
67;2022-05-01 10:24:08.349;5.174045835542975;52.36965375827946;22;-0.08;0.04;10.23313046;1.04390383;-0.42618093;0.03;0.0;0.0;29.41176414;21.96078491;1819.75;67;6.7;-0.008554373719741909;0.040595436767901075;-0.009122104129294366;9.887895943248816;0.7407120945678952;-1.1112953944623316;19.532025898524417;7;6.7;0;0;0;0;0;0;0;0;0;0;0;0;0;0;0;0;0
68;2022-05-01 10:24:08.448;5.174045835542975;52.36965375827946;23;0.1;0.06;10.58748341;0.83799618;-0.08140534;0.05;0.0;0.0;15.68627453;21.96078491;1520.5;68;6.800000000000001;0.0013279703441578712;0.04236194845875547;-0.012843459775871273;9.951583511168247;0.7495684379029315;-1.017538436382859;19.847736008592904;7;6.800000000000001;0;0;0;0;0;0;0;0;0;0;0;0;0;0;0;0;0
69;2022-05-01 10:24:08.549;5.174045835542975;52.36965375827946;23;0.0;0.04;9.80694962;0.56265455;-0.57702023;0.05;0.0;0.0;15.68627453;21.96078491;1520.5;69;6.9;0.001207092708725242;0.04214695363905627;-0.01622560964307954;9.93841830545055;0.7325547230269764;-0.9774405536350703;20.13466878477801;7;6.9;0;0;0;0;0;0;0;0;0;0;0;0;0;0;0;0;0
70;2022-05-01 10:24:08.649;5.174045835542975;52.36965375827946;23;-0.04;0.05;9.85483551;0.57941449;0.02633702;0.12;-0.39215659999999986;0.0;15.68627453;21.96078491;1520.5;70;7.0;-0.0025433237954937014;0.04286168968919852;-0.025670517321010538;9.93081111273394;0.7186168395304614;-0.8860828836015158;20.395453634502363;7;7.0;0;0;0;0;0;0;0;0;0;0;0;0;0;0;0;0;0
71;2022-05-01 10:24:08.748;5.174134275794534;52.36962636053225;23;-0.01;0.04;10.01525116;0.86433321;-0.08140534;0.09;-0.39215659999999986;0.0;15.68627453;14.90196037;1520.5;71;7.1000000000000005;-0.0032219135741080834;0.04260126355302236;-0.03152477841701094;9.93849552216905;0.7318776593468909;-0.8128537475638633;20.632478616287923;7;7.1000000000000005;0;0;0;0;0;0;0;0;0;0;0;0;0;0;0;0;0
72;2022-05-01 10:24:08.847;5.174134275794534;52.36962636053225;23;0.02;0.08;10.29298782;0.99841261;-0.36632404;0.15000001;-0.39215659999999986;0.0;15.68627453;14.90196037;1542.5;72;7.2;-0.001108820259934476;0.04600438619803826;-0.042305510114863686;9.970752782195538;0.7561311826588822;-0.7722214828445104;20.847912783292273;7;7.2;0;0;0;0;0;0;0;0;0;0;0;0;0;0;0;0;0
73;2022-05-01 10:24:08.947;5.174134275794534;52.36962636053225;23;0.0;0.03;9.93863487;0.50998056;0.09577099;0.12;-0.39215659999999986;0.0;11.37254906;14.90196037;1542.5;73;7.300000000000001;-0.0010079311640855354;0.04454818259905932;-0.049374759406375784;9.967830444609323;0.7337344835183237;-0.6932447731349101;21.04372642534688;7;7.300000000000001;0;0;0;0;0;0;0;0;0;0;0;0;0;0;0;0;0
74;2022-05-01 10:24:09.048;5.174134275794534;52.36962636053225;23;0.01;0.05;9.85004616;0.78532213;0.21548474;0.13;-0.39215659999999986;0.0;11.37254906;14.90196037;1542.5;74;7.4;-6.422735005834207e-06;0.045044192339623416;-0.05671009397991837;9.957114357081975;0.7384279597054156;-0.6105679964007497;21.22170941283077;7;7.4;0;0;0;0;0;0;0;0;0;0;0;0;0;0;0;0;0
75;2022-05-01 10:24:09.148;5.174134275794534;52.36962636053225;23;0.01;0.05;10.31453609;0.53152901;0.45251793;0.14;0.0;0.0;11.37254906;14.50980377;1542.5;75;7.5;0.0009039027168450437;0.04549504255524902;-0.06428731946201807;9.989630482888021;0.7196055108777083;-0.513854695160583;21.38348782507232;7;7.5;1;0;0;0;0;0;0;0;0;0;0;0;0;0;0;0;0
76;2022-05-01 10:24:09.248;5.174134275794534;52.36962636053225;23;0.02;0.06;10.19003391;0.65603131;0.67279124;0.15000001;0.0;0.0;11.37254906;14.50980377;1423.0;76;7.6000000000000005;0.0026410403099843198;0.04681453242223818;-0.0720844486206543;10.007860821887041;0.7138222802698567;-0.40590765063375533;21.53053902758747;7;7.6000000000000005;1;0;0;0;0;0;0;0;0;0;0;0;0;0;0;0;0
77;2022-05-01 10:24:09.348;5.174134275794534;52.36962636053225;22;-0.03;0.03;9.83807564;0.31365001;0.76616794;0.16;0.0;0.0;17.64705849;14.50980377;1423.0;77;7.7;-0.00032808086528661635;0.04528503508413171;-0.08008149536784974;9.992416682423329;0.677421480842792;-0.2992923460319474;21.573242522969846;7;7.7;1;0;0;0;0;0;0;0;0;0;0;0;0;0;0;0;0
78;2022-05-01 10:24:09.448;5.174134275794534;52.36962636053225;22;-0.01;0.01;9.98412609;-0.07182825;0.77335078;0.17;0.0;0.0;17.64705849;14.50980377;1423.0;78;7.800000000000001;-0.0012078186642693908;0.04207558113093095;-0.0882602969325771;9.991662587250575;0.6092712719835853;-0.20172694151956652;21.61205950213528;7;7.800000000000001;1;0;0;0;0;0;0;0;0;0;0;0;0;0;0;0;0
79;2022-05-01 10:24:09.551;5.174134275794534;52.36962636053225;22;0.02;-0.05;9.42625999;-0.16520496;0.43096948;0.2;0.0;0.0;17.64705849;14.50980377;1423.0;79;7.9;0.000721106524647225;0.033700985396254206;-0.09842341324646513;9.94023724601296;0.5388299533482428;-0.14418099189945552;21.647344045537796;7;7.9;1;0;0;0;0;0;0;0;0;0;0;0;0;0;0;0;0
80;2022-05-01 10:24:09.650;5.174134275794534;52.36962636053225;22;0.03;0.01;9.74469852;-0.15802214;0.09337672;0.2;0.0;0.0;17.64705849;14.50980377;1423.0;80;8.0;0.0033840059222302113;0.03154539369717112;-0.10766174842816259;9.92245310549746;0.4754516354092954;-0.12257524752797595;21.679417912314285;7;8.0;1;0;0;0;0;0;0;0;0;0;0;0;0;0;0;0;0
81;2022-05-01 10:24:09.750;5.174134275794534;52.36962636053225;22;-0.01;0.0;9.79018974;0.07901107;0.79729348;0.19;0.0;0.0;17.64705849;14.50980377;1423.0;81;8.1;0.002166787012731571;0.028676473140882425;-0.11515006525726901;9.910424310049153;0.43939703744270114;-0.038917065074263395;21.7085735015635;7;8.1;1;0;0;0;0;0;0;0;0;0;0;0;0;0;0;0;0
82;2022-05-01 10:24:09.848;5.174223135231391;52.369607816027546;22;0.02;-0.03;9.13894653;-0.50040346;1.24502289;0.17;0.0;0.0;17.64705849;23.52941132;1423.0;82;8.200000000000001;0.003788583037773324;0.023340291098348065;-0.12013825253474211;9.84026423300723;0.3539292806131845;0.07784757610499717;21.735076540421026;7;8.200000000000001;1;0;0;0;0;0;0;0;0;0;0;0;0;0;0;0;0
83;2022-05-01 10:24:09.949;5.174223135231391;52.369607816027546;22;0.0;0.0;9.49569416;0.00718282;1.09178936;0.2;0.0;0.0;17.64705849;23.52941132;1423.0;83;8.3;0.0034440515182457237;0.021217738714474063;-0.1274008330119292;9.808929232651348;0.3223963608448241;0.17005484727601167;21.759168524462876;7;8.3;1;0;0;0;0;0;0;0;0;0;0;0;0;0;0;0;0
84;2022-05-01 10:24:10.049;5.174223135231391;52.369607816027546;22;-0.09;-0.04;9.82370949;-0.10774237;1.06545234;0.16;0.0;0.0;17.64705849;23.52941132;1423.0;84;8.4;-0.0050534380577012036;0.015650802262797275;-0.13036529224892618;9.810273299830685;0.28328098300987176;0.2514793011297217;21.781068933527834;7;8.4;1;0;0;0;0;0;0;0;0;0;0;0;0;0;0;0;0
85;2022-05-01 10:24:10.149;5.174223135231391;52.369607816027546;18;0.04;0.0;10.34326744;0.19872481;0.49561489;0.16;0.0;0.0;17.64705849;23.52941132;1183.5;85;8.5;-0.0009565419873307676;0.014227609870543459;-0.1330600991929924;9.858740668638223;0.2755919393349797;0.27367956325842396;21.43724064597893;7;8.5;1;0;0;0;0;0;0;0;0;0;0;0;0;0;0;0;0
86;2022-05-01 10:24:10.249;5.174223135231391;52.369607816027546;18;-0.07;-0.02;10.94423008;0.28013015;1.33600533;0.14;0.0;0.0;21.1764698;23.52941132;1183.5;86;8.6;-0.007234792794102652;0.011115229270426626;-0.1336911573568595;9.957446251596915;0.2760046073210435;0.3702788326761872;21.124685923492024;7;8.6;1;0;0;0;0;0;0;0;0;0;0;0;0;0;0;0;0
87;2022-05-01 10:24:10.349;5.174223135231391;52.369607816027546;18;0.12;0.03;10.78141975;0.81405342;0.75419658;0.22;0.0;0.0;21.1764698;23.52941132;1183.5;87;8.700000000000001;0.00433464140039163;0.0128324176859214;-0.14153920311096913;10.032369996576076;0.32492927796351806;0.4051883964536763;20.840558859059225;7;8.700000000000001;1;0;0;0;0;0;0;0;0;0;0;0;0;0;0;0;0
88;2022-05-01 10:24:10.454;5.174223135231391;52.369607816027546;18;0.0;-0.02;10.27862167;-0.05506832;1.3934679;0.2;0.0;0.0;21.1764698;23.52941132;1183.5;88;8.8;0.003940501489146315;0.00984703435258984;-0.14685492156811558;10.05476114817135;0.29037688811155893;0.4950505926155361;20.58227276035322;7;8.8;1;0;0;0;0;0;0;0;0;0;0;0;0;0;0;0;0
89;2022-05-01 10:24:10.551;5.174223135231391;52.369607816027546;18;0.01;0.01;10.07510853;0.28252444;0.65603131;0.18000001;0.0;0.0;21.1764698;23.52941132;1183.5;89;8.9;0.004491468691404872;0.009860942938365426;-0.14986867866521156;10.056611258377554;0.2896628948068066;0.5096879582846627;20.347476498634222;7;8.9;1;0;0;0;0;0;0;0;0;0;0;0;0;0;0;0;0
90;2022-05-01 10:24:10.654;5.174223135231391;52.369607816027546;18;-0.03;0.0;10.39594078;0.18196489;0.09577099;0.12;0.0;0.0;21.1764698;21.96078491;1183.5;90;9.0;0.0013553440182927114;0.008964340166072771;-0.14715287955113757;10.087464675916735;0.2798704915565575;0.4720527033620217;20.134033022718906;7;9.0;1;0;0;0;0;0;0;0;0;0;0;0;0;0;0;0;0
91;2022-05-01 10:24:10.750;5.1742978024836175;52.36959345451158;16;-0.04;0.0;10.54678059;0.61054009;-0.0287313;0.07;0.0;0.0;21.1764698;21.96078491;1040.25;91;9.1;-0.002404817607756895;0.008149273366473373;-0.14013789022112277;10.129227164305318;0.30993604087028787;0.426519802183677;19.75815337035829;7;9.1;1;0;0;0;0;0;0;0;0;0;0;0;0;0;0;0;0
92;2022-05-01 10:24:10.849;5.1742978024836175;52.36959345451158;16;0.04;0.05;10.23313046;0.28252444;-0.18196489;0.07;0.0;0.0;27.45098114;21.96078491;1040.25;92;9.200000000000001;0.0014507110216319496;0.011954422965012666;-0.1337608166005301;10.138674254372873;0.3074437247162516;0.3711951885286975;19.416454744341795;7;9.200000000000001;1;0;0;0;0;0;0;0;0;0;0;0;0;0;0;0;0
93;2022-05-01 10:24:10.948;5.1742978024836175;52.36959345451158;16;0.08;0.02;10.74071693;0.37590113;-0.32801566;0.08;0.0;0.0;27.45098114;21.96078491;1040.25;93;9.3;0.008592473580584422;0.012685933098089292;-0.12887284126516949;10.193412443548201;0.3136679253461663;0.3076223933604198;19.105828016909353;7;9.3;1;0;0;0;0;0;0;0;0;0;0;0;0;0;0;0;0
94;2022-05-01 10:24:11.050;5.1742978024836175;52.36959345451158;16;-0.04;0.0;10.46058655;0.36153549;-0.09337672;0.05;-0.39215659999999986;0.0;27.45098114;21.96078491;1040.25;94;9.4;0.004174459658732944;0.011532531657306723;-0.12170174489800015;10.217703837562231;0.3180200307539112;0.27116366765800354;18.823447014122443;7;9.4;1;0;0;0;0;0;0;0;0;0;0;0;0;0;0;0;0
95;2022-05-01 10:24:11.149;5.1742978024836175;52.36959345451158;16;0.03;0.03;10.39833546;0.37111259;-0.86912173;0.08;-0.39215659999999986;0.0;27.45098114;24.70588303;1040.25;95;9.5;0.006522485515795731;0.013211570802669475;-0.11791027436103417;10.234126638962804;0.3228471398978099;0.16749034416692357;18.56674273968708;7;9.5;1;0;0;0;0;0;0;0;0;0;0;0;0;0;0;0;0
96;2022-05-01 10:24:11.248;5.1742978024836175;52.36959345451158;16;0.02;0.04;10.6497345;0.70870537;-0.36392978;0.05;-0.39215659999999986;0.0;27.45098114;24.70588303;993.75;96;9.600000000000001;0.007747832455363628;0.015647117785108376;-0.11173601671500928;10.27191282136158;0.3579285491529764;0.11917475722870051;18.3333799512872;7;9.600000000000001;1;0;0;0;0;0;0;0;0;0;0;0;0;0;0;0;0
97;2022-05-01 10:24:11.348;5.1742978024836175;52.36959345451158;16;-0.03;0.0;9.99370289;0.18435916;0.1699935;0.04;-0.39215659999999986;0.0;25.88235283;24.70588303;993.75;97;9.700000000000001;0.004315909984765537;0.01422452762207563;-0.10521398798643102;10.246618788489299;0.3421481281832038;0.12379504861763257;18.121235873962096;7;9.700000000000001;1;0;0;0;0;0;0;0;0;0;0;0;0;0;0;0;0
98;2022-05-01 10:24:11.451;5.1742978024836175;52.36959345451158;16;-0.06;-0.01;10.33368969;0.5506832;-0.60814577;0.05;-0.39215659999999986;0.0;25.88235283;24.70588303;993.75;98;9.8;-0.0015314576732026856;0.012022122037198801;-0.10019413383687802;10.25453495687694;0.3611073753552091;0.057249662392897305;17.928380854927678;7;9.8;1;0;0;0;0;0;0;0;0;0;0;0;0;0;0;0;0
99;2022-05-01 10:24:11.551;5.1742978024836175;52.36959345451158;16;0.02;0.01;9.62737942;-0.25379312;-0.11253092;0.1;-0.39215659999999986;0.0;25.88235283;24.70588303;993.75;99;9.9;0.0004260896206365294;0.011838279420418719;-0.10017648402548156;10.197516679588743;0.30520327360175176;0.041813943889579354;17.75306078225312;7;9.9;1;0;0;0;0;0;0;0;0;0;0;0;0;0;0;0;0
100;2022-05-01 10:24:11.649;5.1742978024836175;52.36959345451158;16;-0.07;-0.01;9.70639038;0.43575802;-0.28252444;0.03;-0.39215659999999986;0.0;25.88235283;20.3921566;993.75;100;10.0;-0.005976704547914622;0.009852850314849365;-0.09379638277169687;10.152865888611029;0.3170726699209027;0.012326691023604692;17.593681106138927;7;10.0;1;0;0;0;0;0;0;0;0;0;0;0;0;0;0;0;0
101;2022-05-01 10:24:11.749;5.1742978024836175;52.36959345451158;16;0.04;0.05;9.7135725;0.52195191;-0.57702023;0.05;-0.39215659999999986;0.0;25.88235283;20.3921566;993.75;101;10.100000000000001;-0.0017967534558369033;0.013502810089486249;-0.08981465463794545;10.112927730852167;0.33569917244502756;-0.04125351509095017;17.44879231635873;7;10.100000000000001;1;0;0;0;0;0;0;0;0;0;0;0;0;0;0;0;0
102;2022-05-01 10:24:11.848;5.174362998845173;52.36958248180667;16;0.0;0.02;10.00327969;0.28731298;0.05027977;0.08;-0.39215659999999986;0.0;25.88235283;20.3921566;958.5;102;10.200000000000001;-0.0016334033267795607;0.01409349592172701;-0.08892236465984443;10.102959183656168;0.331300187845993;-0.03293185366095458;17.317076742869407;7;10.200000000000001;1;0;0;0;0;0;0;0;0;0;0;0;0;0;0;0;0
103;2022-05-01 10:24:11.949;5.174362998845173;52.36958248180667;15;0.03;0.02;9.79976654;0.31604427;-0.44054657;0.14;-0.39215659999999986;0.0;24.70588303;20.3921566;958.5;103;10.3;0.0012425031516077286;0.014630477452542763;-0.09356601620937917;10.075394849870053;0.329913217480718;-0.06998957366963504;17.106422961899295;7;10.3;1;0;0;0;0;0;0;0;0;0;0;0;0;0;0;0;0
104;2022-05-01 10:24:12.049;5.174362998845173;52.36958248180667;15;0.0;0.0;9.75906372;-0.02633702;-0.27055305;0.06;-0.39215659999999986;0.0;24.70588303;20.3921566;958.5;104;10.4;0.0011295432299403862;0.01330037411650164;-0.09051442269286368;10.046636178630607;0.2975253729366433;-0.08822343854659154;16.914921336759306;7;10.4;1;0;0;0;0;0;0;0;0;0;0;0;0;0;0;0;0
105;2022-05-01 10:24:12.149;5.174362998845173;52.36958248180667;15;-0.11;-0.15000001;8.90670204;0.48603779;-0.84278476;0.0;-0.39215659999999986;0.0;24.70588303;20.3921566;958.5;105;10.5;-0.008973556355893465;-0.0015457234663905988;-0.08228550174312037;9.943001557366602;0.31466356740232715;-0.15682273224195414;16.740830447856013;7;10.5;1;0;0;0;0;0;0;0;0;0;0;0;0;0;0;0;0
106;2022-05-01 10:24:12.249;5.174362998845173;52.36958248180667;15;-0.03;-0.12;10.57072353;-0.73983091;0.22985038;0.14;-0.39215659999999986;0.0;24.70588303;20.3921566;958.5;106;10.600000000000001;-0.010885122414927518;-0.012314695071940652;-0.08753246969687388;10.000069316313667;0.21879686323877603;-0.12166932209739269;16.58256724105892;7;10.600000000000001;1;0;0;0;0;0;0;0;0;0;0;0;0;0;0;0;0
107;2022-05-01 10:24:12.350;5.174362998845173;52.36958248180667;15;0.09;0.01;11.05436707;-0.15802214;-0.04070267;0.15000001;0.0;0.0;24.70588303;22.74509811;958.5;107;10.700000000000001;-0.0017134371659910054;-0.010286017753355655;-0.09321152924719223;10.09591781135441;0.18453943051931432;-0.11430846817838558;16.438692621364527;7;10.700000000000001;1;0;0;0;0;0;0;0;0;0;0;0;0;0;0;0;0
108;2022-05-01 10:24:12.448;5.174362998845173;52.36958248180667;15;0.0;-0.08;9.7662468;-0.47167215;-0.34716985;0.1;0.0;0.0;27.05882263;22.74509811;942.25;108;10.8;-0.001557665357031704;-0.0166238475494285;-0.09382868194483468;10.065946797056714;0.12488199633589331;-0.13547833620919605;16.307898357872098;7;10.8;1;0;0;0;0;0;0;0;0;0;0;0;0;0;0;0;0
109;2022-05-01 10:24:12.550;5.174362998845173;52.36958248180667;15;-0.04;-0.1;9.43344307;-0.90024734;-0.22266756;0.09;0.0;0.0;27.05882263;22.74509811;942.25;109;10.9;-0.005052520828204195;-0.024203709835718932;-0.09348061021176858;10.008444849488463;0.03168581293478321;-0.1434048510429748;16.18899518057553;7;10.9;1;0;0;0;0;0;0;0;0;0;0;0;0;0;0;0;0
110;2022-05-01 10:24:12.654;5.174362998845173;52.36958248180667;15;-0.02;-0.12;9.72315025;-0.9241901;0.31125572;0.06;0.0;0.0;27.05882263;22.74509811;942.25;110;11.0;-0.006411417133046916;-0.03291268498970425;-0.09043684095959269;9.982508317142061;-0.05521420753329575;-0.10207102057918883;16.080901960388374;7;11.0;1;0;0;0;0;0;0;0;0;0;0;0;0;0;0;0;0
111;2022-05-01 10:24:12.750;5.174362998845173;52.36958248180667;15;-0.03;-0.11;9.69681263;-0.17957062;-0.47406641;0.11;0.0;0.0;27.05882263;22.74509811;942.25;111;11.100000000000001;-0.008555883340962646;-0.03992078475690689;-0.09221535108539634;9.95653538140959;-0.06651959733889047;-0.13588956519515138;15.982635873731253;7;11.100000000000001;1;0;0;0;0;0;0;0;0;0;0;0;0;0;0;0;0
112;2022-05-01 10:24:12.849;5.174426923344702;52.369571913410994;15;0.05;-0.05;10.58748341;-0.84278476;-0.89067024;0.07;0.0;0.0;27.05882263;23.13725471;942.25;112;11.200000000000001;-0.0032325093233156773;-0.04083709631233037;-0.09019573126218763;10.013895498792264;-0.13709064096319304;-0.20450743250460765;15.893303462014913;7;11.200000000000001;1;0;0;0;0;0;0;0;0;0;0;0;0;0;0;0;0
113;2022-05-01 10:24:12.959;5.174426923344702;52.369571913410994;15;0.12;-0.12;11.1549263;-1.13728058;-0.43336374;0.07;0.0;0.0;27.05882263;23.13725471;942.25;113;11.3;0.007970660149072968;-0.04803386144199689;-0.08835972060889895;10.117627553826601;-0.2280187365861503;-0.22531294893671416;15.812092504531543;7;11.3;1;0;0;0;0;0;0;0;0;0;0;0;0;0;0;0;0
114;2022-05-01 10:24:13.051;5.174426923344702;52.369571913410994;15;-0.11;-0.11;10.24510193;-0.8834874;0.94573855;0.13;0.0;0.0;27.05882263;23.13725471;942.25;114;11.4;-0.002754131626412006;-0.053667244626643386;-0.09214526631474018;10.129216334795037;-0.287607832057735;-0.11885187235550868;15.738264630698108;7;11.4;1;0;0;0;0;0;0;0;0;0;0;0;0;0;0;0;0
115;2022-05-01 10:24:13.149;5.174426923344702;52.369571913410994;15;0.03;-0.23999999;11.71997547;-1.51078737;0.15083931;0.06;0.0;0.0;27.05882263;23.13725471;916.0;115;11.5;0.00022356372825973824;-0.07060685263243366;-0.08922292322618451;10.273833085479456;-0.3988077279854659;-0.09433410494663727;15.671148604346929;7;11.5;1;0;0;0;0;0;0;0;0;0;0;0;0;0;0;0;0
116;2022-05-01 10:24:13.250;5.174426923344702;52.369571913410994;15;-0.11;-0.33000001;11.6649065;-1.78373468;-0.00478855;0.16;0.0;0.0;27.45098114;23.13725471;916.0;116;11.600000000000001;-0.009796904108288373;-0.0941883873107209;-0.09565729530950232;10.400296120578243;-0.5247119857433035;-0.08619348307869654;15.610134218893174;7;11.600000000000001;1;0;0;0;0;0;0;0;0;0;0;0;0;0;0;0;0
117;2022-05-01 10:24:13.349;5.174426923344702;52.369571913410994;15;0.09;-0.04;10.77663136;-0.31125572;-0.13886794;0.1;0.0;0.0;27.45098114;23.13725471;916.0;117;11.700000000000001;-0.0007243398689473883;-0.08926210598670963;-0.09605209179772078;10.43450886160152;-0.5053066174049772;-0.09098213257099312;15.554666747782829;7;11.700000000000001;1;0;0;0;0;0;0;0;0;0;0;0;0;0;0;0;0
118;2022-05-01 10:24:13.449;5.174426923344702;52.369571913410994;15;-0.08;-0.13;10.04158878;-0.71109962;-0.2753416;0.07;0.0;0.0;27.45098114;23.13725471;916.0;118;11.8;-0.007931303573840073;-0.09296559483917954;-0.09368369171486658;10.398788430357625;-0.5240152941661848;-0.10774228301588044;15.504241899689815;7;11.8;1;0;0;0;0;0;0;0;0;0;0;0;0;0;0;0;0
119;2022-05-01 10:24:13.552;5.174426923344702;52.369571913410994;15;-0.01;-0.09;10.08468533;-0.93855572;-0.42618093;0.08;2.7450981200000015;0.0;27.45098114;23.13725471;916.0;119;11.9;-0.008119368913863024;-0.09269599240029687;-0.09243970632262485;10.37023329504438;-0.5617011939201723;-0.13669156318294887;15.458401232533534;7;11.9;1;0;0;0;0;0;0;0;0;0;0;0;0;0;0;0;0
120;2022-05-01 10:24:13.650;5.174426923344702;52.369571913410994;15;-0.04;-0.16;9.17964935;-1.85077441;-0.28252444;0.05;2.7450981200000015;1.1764707600000008;27.45098114;21.56862831;916.0;120;12.0;-0.011017636523479483;-0.09881459854383778;-0.0885815133695379;10.261997329604162;-0.6788908172527193;-0.1499492274416667;15.416727984570825;7;12.0;1;0;0;0;0;0;0;0;0;0;0;0;0;0;0;0;0
121;2022-05-01 10:24:13.748;5.174426923344702;52.369571913410994;15;0.03;-0.19;10.2666502;-1.79091752;0.36392978;0.15000001;2.7450981200000015;1.1764707600000008;27.45098114;21.56862831;916.0;121;12.100000000000001;-0.0072887272348790355;-0.10710425439175597;-0.09416506283724325;10.262420321592687;-0.7799850550611904;-0.10323253758633762;15.378843284617517;7;12.100000000000001;1;0;0;0;0;0;0;0;0;0;0;0;0;0;0;0;0
122;2022-05-01 10:24:13.849;5.174485144641915;52.36955527909012;15;-0.16;-0.18000001;9.96975994;-2.15484738;-0.86672747;0.03;2.7450981200000015;1.1764707600000008;27.45098114;21.56862831;1059.25;122;12.200000000000001;-0.02117168272107361;-0.11373119496999541;-0.08833182803401803;10.23581461674421;-0.9049735520540002;-0.17264173029823895;15.344402706909296;7;12.200000000000001;1;0;0;0;0;0;0;0;0;0;0;0;0;0;0;0;0
123;2022-05-01 10:24:13.952;5.174485144641915;52.36955527909012;14;0.05;-0.2;9.73272705;-1.56824994;-0.87869883;0.0;2.7450981200000015;1.1764707600000008;34.50980377;21.56862831;1059.25;123;12.3;-0.01470148207866564;-0.12157387138826184;-0.08030160268820717;10.19007904645718;-0.9652718497379404;-0.23682921224903988;15.22218337858472;7;12.3;1;0;0;0;0;0;0;0;0;0;0;0;0;0;0;0;0
124;2022-05-01 10:24:14.051;5.174485144641915;52.36955527909012;14;-0.06;-0.12;9.86680603;-0.53152901;-0.40702671;0.14;2.7450981200000015;1.1764707600000008;34.50980377;21.56862831;1059.25;124;12.4;-0.01881955674333208;-0.12143079121286403;-0.08572876606511536;10.160690393584376;-0.9258404183960324;-0.25230181567273274;15.111075054562585;7;12.4;1;0;0;0;0;0;0;0;0;0;0;0;0;0;0;0;0
125;2022-05-01 10:24:14.151;5.174485144641915;52.36955527909012;14;-0.1;-0.11;8.87557697;-0.98883551;-1.27614844;-0.01;2.7450981200000015;1.1764707600000008;34.50980377;21.56862831;1059.25;125;12.5;-0.02619964197421706;-0.120391622048184;-0.0770260979807061;10.043861189198035;-0.9315672797743915;-0.3453793482380464;15.010067616420658;7;12.5;1;0;0;0;0;0;0;0;0;0;0;0;0;0;0;0;0
126;2022-05-01 10:24:14.251;5.174485144641915;52.36955527909012;14;0.03;-0.15000001;9.27302647;-1.46769047;-1.41741073;0.11;2.7450981200000015;1.1764707600000008;34.50980377;21.56862831;1059.25;126;12.600000000000001;-0.021090555333390354;-0.12308330857904193;-0.08002374202939935;9.973784917752269;-0.9803060213890744;-0.44283728602383765;14.918242779391377;7;12.600000000000001;1;0;0;0;0;0;0;0;0;0;0;0;0;0;0;0;0
127;2022-05-01 10:24:14.350;5.174485144641915;52.36955527909012;14;-0.03;-0.17;9.76385307;-1.69514656;-0.09816527;0.0;5.490196230000002;2.7450981199999998;34.50980377;31.37254906;1059.25;127;12.700000000000001;-0.021900508924182494;-0.1273484838067312;-0.07274881978331951;9.95470010828644;-1.0452918519045953;-0.41150330871430607;14.834765743030813;7;12.700000000000001;1;0;0;0;0;0;0;0;0;0;0;0;0;0;0;0;0
128;2022-05-01 10:24:14.452;5.174485144641915;52.36955527909012;14;-0.05;-0.11;8.94501114;-1.25699425;-1.5586729;-0.05;5.490196230000002;2.7450981199999998;34.50980377;31.37254906;1059.25;128;12.8;-0.024455019798502703;-0.1257713417005739;-0.06158978511965207;9.862909782183753;-1.0645376124984514;-0.515791930444923;14.758877601059538;7;12.8;1;0;0;0;0;0;0;0;0;0;0;0;0;0;0;0;0
129;2022-05-01 10:24:14.556;5.174485144641915;52.36955527909012;15;-0.09;-0.18000001;8.94740486;-1.64726102;-0.43815228;0.07;5.490196230000002;2.7450981199999998;29.01960754;31.37254906;1410.5;129;12.9;-0.030413679142171624;-0.13070124113854362;-0.062354353288335475;9.77968171586998;-1.1175126880299315;-0.5087337510520752;14.780797910303626;7;12.9;1;0;0;0;0;0;0;0;0;0;0;0;0;0;0;0;0
130;2022-05-01 10:24:14.653;5.174485144641915;52.36955527909012;15;0.07;-0.16;9.52442551;-1.35755384;-1.35515952;0.01;5.490196230000002;2.7450981199999998;29.01960754;31.37254906;1410.5;130;13.0;-0.02128512834531804;-0.13336477474110078;-0.057594848632079206;9.75647651851637;-1.1393346934361028;-0.585681839137436;14.800725448340915;7;13.0;1;0;0;0;0;0;0;0;0;0;0;0;0;0;0;0;0
131;2022-05-01 10:24:14.752;5.174532115122831;52.36952999097866;15;-0.01;-0.06;9.18443775;-0.62730002;-0.98883551;-0.03;5.490196230000002;2.7450981199999998;29.01960754;31.37254906;1410.5;131;13.100000000000001;-0.020259204060664445;-0.12669522684213846;-0.04963165320599535;9.704472815374814;-1.0927859267771298;-0.6223322988157917;14.81884137893601;7;13.100000000000001;1;0;0;0;0;0;0;0;0;0;0;0;0;0;0;0;0
132;2022-05-01 10:24:14.850;5.174532115122831;52.36952999097866;15;-0.08;-0.13;9.63216782;-1.20432019;-0.85475612;-0.03;6.274509430000002;2.7450981199999998;29.01960754;31.37254906;1410.5;132;13.200000000000001;-0.025690202478550406;-0.12699566170427262;-0.0423923893867692;9.697899613439496;-1.1029254369322774;-0.6434618031232378;14.83531039594382;7;13.200000000000001;1;0;0;0;0;0;0;0;0;0;0;0;0;0;0;0;0
133;2022-05-01 10:24:14.950;5.174532115122831;52.36952999097866;15;0.0;-0.15000001;9.94102859;-1.43177629;-1.13728058;0.0;6.274509430000002;3.1372547200000014;29.01960754;33.33333206;1410.5;133;13.3;-0.02335472289224824;-0.12908697203496053;-0.038538524859619755;9.720002310452868;-1.1328210539449877;-0.6883545467164934;14.850282220656783;7;13.3;1;0;0;0;0;0;0;0;0;0;0;0;0;0;0;0;0
134;2022-05-01 10:24:15.052;5.174532115122831;52.36952999097866;15;-0.03;-0.08;9.57709885;-0.79489923;-1.3072741;-0.01;6.274509430000002;3.1372547200000014;29.01960754;33.33333206;1501.25;134;13.4;-0.023958840552897043;-0.12462450850887195;-0.03412592029639817;9.707011053229493;-1.1021008088064235;-0.7446201059394908;14.863892963015271;7;13.4;1;0;0;0;0;0;0;0;0;0;0;0;0;0;0;0;0
135;2022-05-01 10:24:15.152;5.174532115122831;52.36952999097866;16;-0.02;-0.08;9.46935654;-0.75180227;-0.89785308;-0.01;6.274509430000002;3.1372547200000014;29.41176414;33.33333206;1501.25;135;13.5;-0.023598945112345556;-0.1205677254850037;-0.030114463580064758;9.685406046764864;-1.0702554123415364;-0.7585504090092027;14.967175663373094;7;13.5;1;0;0;0;0;0;0;0;0;0;0;0;0;0;0;0;0
136;2022-05-01 10:24:15.251;5.174532115122831;52.36952999097866;16;-0.03;-0.14;9.73751545;-1.27614844;-0.96010423;-0.02;6.274509430000002;3.1372547200000014;29.41176414;33.33333206;1501.25;136;13.600000000000001;-0.02418086043487078;-0.12233429966539422;-0.025558593532204858;9.690143275350211;-1.0889730002545301;-0.7768735227469493;15.06106898525654;7;13.600000000000001;1;0;0;0;0;0;0;0;0;0;0;0;0;0;0;0;0
137;2022-05-01 10:24:15.357;5.174532115122831;52.36952999097866;16;-0.03;-0.15000001;9.56273365;-1.38149655;-0.86672747;0.02;6.274509430000002;3.1372547200000014;29.41176414;33.33333206;1501.25;137;13.700000000000001;-0.02470987414891464;-0.12484936912058894;-0.02505326586710587;9.678560559665687;-1.1155661018229248;-0.7850420792535988;15.14642651582977;7;13.700000000000001;1;0;0;0;0;0;0;0;0;0;0;0;0;0;0;0;0
138;2022-05-01 10:24:15.454;5.174532115122831;52.36952999097866;16;-0.04;-0.12;9.87398911;-0.70631105;-1.27135992;-0.01;7.0588226400000025;3.1372547200000014;29.41176414;33.33333206;1501.25;138;13.8;-0.026099888041445016;-0.12440851660483625;-0.021866599713512423;9.696326822848047;-1.0783610314943688;-0.8292528700218701;15.224024242156396;7;13.8;1;0;0;0;0;0;0;0;0;0;0;0;0;0;0;0;0
139;2022-05-01 10:24:15.549;5.174532115122831;52.36952999097866;16;-0.05;-0.12;9.91948032;-0.94813281;-1.19234884;0.0;7.0588226400000025;3.5294113200000012;29.41176414;35.29411697;1501.25;139;13.9;-0.028272628975852764;-0.12400774172545687;-0.019878723825054467;9.7166135369337;-1.0665220832858167;-0.8622616474894409;15.294567605974043;7;13.9;1;0;0;0;0;0;0;0;0;0;0;0;0;0;0;0;0
140;2022-05-01 10:24:15.655;5.174532115122831;52.36952999097866;16;0.0;-0.13;10.00806904;-0.74222517;-0.8930645;0.0;7.0588226400000025;3.5294113200000012;29.41176414;35.29411697;1501.25;140;14.0;-0.025702386231722243;-0.12455249327170517;-0.018071564479612674;9.743109530377849;-1.0370405027427163;-0.8650619108901811;15.358697917087609;7;14.0;1;0;0;0;0;0;0;0;0;0;0;0;0;0;0;0;0
141;2022-05-01 10:24:15.749;5.174532115122831;52.36952999097866;17;-0.01;-0.11;9.7662468;-0.97925842;-0.95292139;0.01;7.0588226400000025;3.5294113200000012;29.41176414;35.29411697;1547.75;141;14.100000000000001;-0.024274894682767216;-0.12322953758490536;-0.01733778491824795;9.745212921312456;-1.0317875791692526;-0.8730491468474451;15.507907395065322;7;14.100000000000001;1;0;0;0;0;0;0;0;0;0;0;0;0;0;0;0;0
142;2022-05-01 10:24:15.848;5.17457141649482;52.36949525425813;17;-0.02;-0.1;9.82610416;-0.9433443;-0.84039044;0.02;7.0588226400000025;3.5294113200000012;31.37254906;35.29411697;1547.75;142;14.200000000000001;-0.023886267425280938;-0.12111775889695593;-0.017579804762673727;9.752566679142452;-1.0237472713775315;-0.8700801699212217;15.643552340731203;7;14.200000000000001;1;0;0;0;0;0;0;0;0;0;0;0;0;0;0;0;0
143;2022-05-01 10:24:15.949;5.17457141649482;52.36949525425813;17;0.01;-0.11;9.95778847;-1.16840613;-1.58740425;0.04;7.0588226400000025;3.5294113200000012;31.37254906;35.29411697;1547.75;143;14.3;-0.020805694285814094;-0.1201070524358637;-0.019618006561735908;9.771223226014811;-1.0368980911082948;-0.9352915213412617;15.766865899341635;7;14.3;1;0;0;0;0;0;0;0;0;0;0;0;0;0;0;0;0
144;2022-05-01 10:24:16.050;5.17457141649482;52.36949525425813;17;0.02;-0.12;10.19721603;-1.38389087;-0.95052707;0.05;7.0588226400000025;3.5294113200000012;31.37254906;35.29411697;1547.75;144;14.4;-0.01709608202129258;-0.12009732038655102;-0.022380008714910356;9.809949883113026;-1.0684429205936385;-0.9366765725982089;15.878969111005217;7;14.4;1;0;0;0;0;0;0;0;0;0;0;0;0;0;0;0;0
145;2022-05-01 10:24:16.149;5.17457141649482;52.36949525425813;17;-0.01;-0.15000001;9.72315025;-1.36234236;-0.94813281;0.02;7.0588226400000025;3.5294113200000012;31.37254906;35.29411697;1547.75;145;14.5;-0.016450983071879918;-0.12281574917533426;-0.022163644090463414;9.80205900023391;-1.095161075629772;-0.9377180496682234;15.980881102239211;7;14.5;1;0;0;0;0;0;0;0;0;0;0;0;0;0;0;0;0
146;2022-05-01 10:24:16.249;5.17457141649482;52.36949525425813;17;-0.01;-0.14;9.3831625;-1.20432019;-1.29769695;-0.02;7.0588226400000025;3.5294113200000012;31.37254906;35.29411697;1547.75;146;14.600000000000001;-0.015864529582832562;-0.1243779550810852;-0.018330582383079733;9.763977468880531;-1.1050846396463623;-0.9704434311691054;16.07352835098974;7;14.600000000000001;1;0;0;0;0;0;0;0;0;0;0;0;0;0;0;0;0
147;2022-05-01 10:24:16.350;5.17457141649482;52.36949525425813;17;-0.01;-0.09;9.48851109;-0.98165268;-0.82363051;0.0;7.0588226400000025;3.5294113200000012;31.37254906;35.29411697;1547.75;147;14.700000000000001;-0.01533139013107692;-0.12125268409974979;-0.016664164556373755;9.738935052069575;-1.0938635440127715;-0.9570967919890645;16.157753109351674;7;14.700000000000001;1;0;0;0;0;0;0;0;0;0;0;0;0;0;0;0;0
148;2022-05-01 10:24:16.459;5.17457141649482;52.36949525425813;17;-0.03;-0.12;9.82370949;-1.37191951;-1.46769047;-0.05;7.0588226400000025;3.5294113200000012;31.37254906;37.25490189;1547.75;148;14.8;-0.016664901025908573;-0.12113880364960994;-0.010603781839459828;9.746641824394535;-1.1191413762906934;-1.0035144306435813;16.234321060565453;7;14.8;1;0;0;0;0;0;0;0;0;0;0;0;0;0;0;0;0
149;2022-05-01 10:24:16.550;5.17457141649482;52.36949525425813;17;0.02;-0.20999999;10.09905148;-1.93936265;-1.25220573;-0.01;7.0588226400000025;3.5294113200000012;31.37254906;37.25490189;1470.0;149;14.9;-0.013331726144953471;-0.1292170983114636;-0.008730709605296757;9.778679085617199;-1.1937069927209947;-1.026122744560511;16.30392827990572;7;14.9;1;0;0;0;0;0;0;0;0;0;0;0;0;0;0;0;0
150;2022-05-01 10:24:16.648;5.17457141649482;52.36949525425813;19;-0.02;-0.22;9.50048256;-2.37751484;-1.01038396;-0.04;7.0588226400000025;3.5294113200000012;33.33333206;37.25490189;1470.0;150;15.0;-0.013937933199712049;-0.13747009401190208;-0.004300642606208818;9.75338847816699;-1.3013259484056052;-1.0246919451600505;16.549025846739955;7;15.0;1;0;0;0;0;0;0;0;0;0;0;0;0;0;0;0;0
151;2022-05-01 10:24:16.748;5.17460333180278;52.36945299088806;19;-0.01;-0.23999999;9.96975994;-2.52835417;-0.98404694;-0.01;7.0588226400000025;3.5294113200000012;33.33333206;37.25490189;1470.0;151;15.100000000000001;-0.013579939089576436;-0.1467909984089701;-0.003000583523299151;9.77305862110982;-1.4128740255373073;-1.0209969428032828;16.771841792684867;7;15.100000000000001;1;0;0;0;0;0;0;0;0;0;0;0;0;0;0;0;0
152;2022-05-01 10:24:16.850;5.17460333180278;52.36945299088806;19;-0.01;-0.27000001;9.26344967;-2.18597293;-1.18756032;0.03;7.0588226400000025;3.5294113200000012;33.33333206;37.25490189;1470.0;152;15.200000000000001;-0.013254489930285154;-0.15799182284650407;-0.005455077070209521;9.726730513129182;-1.4831557767656964;-1.0361390750354271;16.974401723788187;7;15.200000000000001;1;0;0;0;0;0;0;0;0;0;0;0;0;0;0;0;0
153;2022-05-01 10:24:16.948;5.17460333180278;52.36945299088806;19;-0.02;-0.28;10.04398251;-2.43737173;-0.63687712;0.03;7.450979240000002;3.9215688699999998;33.33333206;37.25490189;1470.0;153;15.3;-0.013867718377351021;-0.16908347999799037;-0.007686434642287551;9.755571615930748;-1.5699027182304335;-0.9998425183438724;17.15854709937328;7;15.3;1;0;0;0;0;0;0;0;0;0;0;0;0;0;0;0;0
154;2022-05-01 10:24:17.050;5.17460333180278;52.36945299088806;19;-0.01;-0.20999999;9.87398911;-2.4254005;-1.41022789;0.08;7.450979240000002;3.9215688699999998;33.33333206;40.39215851;1470.0;154;15.4;-0.013516107480816436;-0.17280316415315533;-0.014260397652606822;9.766336846796285;-1.6476752736969371;-1.0371502937231951;17.325951972775417;7;15.4;1;0;0;0;0;0;0;0;0;0;0;0;0;0;0;0;0
155;2022-05-01 10:24:17.150;5.17460333180278;52.36945299088806;20;-0.03;-0.22;8.96895313;-2.65764499;-0.92658436;0.01;7.450979240000002;3.9215688699999998;38.82352829;40.39215851;1499.25;155;15.5;-0.015014643687266195;-0.1770937870909143;-0.013873088639952505;9.693847392702715;-1.739490734489137;-1.0270988416956288;17.569047332801464;7;15.5;1;0;0;0;0;0;0;0;0;0;0;0;0;0;0;0;0
156;2022-05-01 10:24:17.249;5.17460333180278;52.36945299088806;20;0.0;-0.33000001;10.77663136;-2.0375278;-1.05587518;0.0;7.450979240000002;3.9215688699999998;38.82352829;40.39215851;1499.25;156;15.600000000000001;-0.013649675646349837;-0.19099435721933777;-0.01261189836352958;9.792282330045309;-1.7665850217665524;-1.0297148732804058;17.79004309992183;7;15.600000000000001;1;0;0;0;0;0;0;0;0;0;0;0;0;0;0;0;0
157;2022-05-01 10:24:17.348;5.17460333180278;52.36945299088806;20;0.0;-0.22;9.9314518;-2.11175036;-1.28093708;-0.01;7.450979240000002;3.9215688699999998;38.82352829;40.39215851;1499.25;157;15.700000000000001;-0.012408795684298991;-0.19363123459616788;-0.010556270646783243;9.80493410368963;-1.7979636979274707;-1.0525532622954519;17.99094833059201;7;15.700000000000001;1;0;0;0;0;0;0;0;0;0;0;0;0;0;0;0;0
158;2022-05-01 10:24:17.450;5.17460333180278;52.36945299088806;20;-0.04;-0.20999999;9.42386532;-2.52356553;-1.38628507;0.0;7.450979240000002;3.9215688699999998;38.82352829;40.39215851;1499.25;158;15.8;-0.014917087643295076;-0.19511930365935268;-0.009596609427311024;9.770291477908733;-1.8639275181360961;-1.0828925254949995;18.1735894393281;7;15.8;1;0;0;0;0;0;0;0;0;0;0;0;0;0;0;0;0
159;2022-05-01 10:24:17.552;5.17460333180278;52.36945299088806;20;-0.01;-0.20999999;9.75427532;-2.53314281;-1.55627859;0.0;7.450979240000002;3.9215688699999998;38.82352829;40.39215851;1499.25;159;15.9;-0.01447007956918941;-0.1964720936490885;-0.00872419018054488;9.768835463206388;-1.9247652864410925;-1.1259276325245415;18.33962680259647;7;15.9;1;0;0;0;0;0;0;0;0;0;0;0;0;0;0;0;0
