;device_time;lon;lat;raw_speed_kph;raw_g_x;raw_g_y;raw_roll;raw_yaw;raw_pitch;raw_g_z;apps_d;apps_e;engine_load;engine_load_abs;engine_rpm;num_samples;cumulative_time;g_x;g_y;g_z;roll;yaw;pitch;speed_kph;sample_nr;roundabout_1;roundabout_2;roundabout_3;roundabout_4;turning_right_1;turning_right_2;turning_right_3;turning_left_1;turning_left_2;road_50km_1;road_50km_2;road_100km;entering_highway;exiting_highway;speed_bumps;road_50km_3;road_50km_4
0;2022-05-01 10:59:06.855;5.173732040487476;52.369751620463525;0;0.05;0.02;9.96018314;0.12929083;-0.9337672;-0.02;0.0;0.0;32.94117737;26.27450943;856.75;0;0.0;0.05;0.02;0.07987573;9.96018314;0.12929083;-0.9337672;0.0;9;0;0;0;0;0;0;0;0;0;0;0;0;0;0;0;0;0
1;2022-05-01 10:59:06.953;5.173732040487476;52.369751620463525;0;0.05;0.01;9.88356686;0.03351985;-0.80687064;-0.03;0.0;0.0;32.94117737;25.88235283;856.75;1;0.1;0.05;0.014761904761904763;0.08511382523809524;9.920050802857142;0.07912507857142856;-0.8672975733333332;0.0;9;0;0;0;0;0;0;0;0;0;0;0;0;0;0;0;0;0
2;2022-05-01 10:59:07.053;5.173732040487476;52.369751620463525;0;0.07;0.03;10.00088596;0.0287313;-0.90024734;-0.02;0.0;0.0;32.94117737;25.88235283;857.5;2;0.2;0.057311178247734136;0.020332326283987918;0.08319899283987915;9.949600814984894;0.0607031836858006;-0.8793426541993956;0.0;9;0;0;0;0;0;0;0;0;0;0;0;0;0;0;0;0;0
3;2022-05-01 10:59:07.155;5.173732040487476;52.369751620463525;0;0.06;0.03;9.3783741;-0.35195839;-1.03193247;0.0;0.0;0.0;38.82352829;25.88235283;857.5;3;0.30000000000000004;0.05808230984701573;0.02310493428140487;0.07651007604611075;9.785777768735187;-0.05764470568627452;-0.9231041376793793;0.0;9;0;0;0;0;0;0;0;0;0;0;0;0;0;0;0;0;0
4;2022-05-01 10:59:07.254;5.173732040487476;52.369751620463525;0;0.04;0.0;9.67287064;-0.25379312;-1.48923898;-0.07;0.0;0.0;38.82352829;25.88235283;857.5;4;0.4;0.053745884588295025;0.017564003865620546;0.08930800793156542;9.758700844985995;-0.10468421255704248;-1.0588722696742066;0.0;9;0;0;0;0;0;0;0;0;0;0;0;0;0;0;0;0;0
5;2022-05-01 10:59:07.354;5.173732040487476;52.369751620463525;0;0.17;0.09;9.19162083;0.29689008;-2.42300606;-0.09;0.0;0.0;38.82352829;25.88235283;857.5;5;0.5;0.07801206903925936;0.03268385778959797;0.10195054974853576;9.640331975261487;-0.02086201134339346;-1.3436133479113896;0.0;9;0;0;0;0;0;0;0;0;0;0;0;0;0;0;0;0;0
6;2022-05-01 10:59:07.456;5.173732040487476;52.369751620463525;0;0.01;0.01;10.0822916;0.27055305;-2.96411228;-0.15000001;12.54901886;6.27450943;38.82352829;61.5686264;857.5;6;0.6000000000000001;0.0653120208331862;0.028448049476498313;0.12210366577933926;9.722860100322306;0.033554585288896974;-1.6462127960113375;0.0;9;0;0;0;0;0;0;0;0;0;0;0;0;0;0;0;0;0
7;2022-05-01 10:59:07.555;5.173732040487476;52.369751620463525;0;0.07;0.05;9.91948032;0.55547178;-3.10298014;-0.20999999;12.54901886;6.27450943;38.82352829;61.5686264;1871.0;7;0.7000000000000001;0.06611086960530857;0.03212058056076991;0.14728456353243363;9.756364903879422;0.12249118148710181;-1.894451272037724;0.0;9;0;0;0;0;0;0;0;0;0;0;0;0;0;0;0;0;0
8;2022-05-01 10:59:07.658;5.173732040487476;52.369751620463525;2;0.05;0.09;9.96497154;0.84757328;-3.19396257;-0.27000001;12.54901886;6.27450943;43.92156982;61.5686264;1871.0;8;0.8;0.06356768771147017;0.04125713837234986;0.1761075001797489;9.789294511834388;0.2369490419043162;-2.099585674138969;0.31571007104426085;9;0;0;0;0;0;0;0;0;0;0;0;0;0;0;0;0;0
9;2022-05-01 10:59:07.752;5.173732040487476;52.369751620463525;2;0.02;0.05;9.51245403;0.01197137;-3.45972705;-0.23;12.54901886;6.27450943;43.92156982;61.5686264;1871.0;9;0.9;0.05712183267445094;0.04255064788870902;0.19293955062264084;9.74833586316566;0.2036635145826652;-2.300819078966738;0.5649013706665692;9;0;0;0;0;0;0;0;0;0;0;0;0;0;0;0;0;0
10;2022-05-01 10:59:07.853;5.173732040487476;52.369751620463525;2;0.05;0.04;9.24668884;0.47167215;-3.36395621;-0.27000001;12.54901886;6.27450943;43.92156982;61.5686264;1871.0;10;1.0;0.05612501473305818;0.04219364264948711;0.21210602878029167;9.678122088734861;0.24117574330864913;-2.449622654509389;0.7657670925641992;9;0;0;0;0;0;0;0;0;0;0;0;0;0;0;0;0;0
11;2022-05-01 10:59:07.953;5.173732040487476;52.369751620463525;2;0.03;0.11;9.53160763;0.42378664;-3.62253785;-0.23999999;10.980392460000001;6.27450943;43.92156982;61.5686264;1871.0;11;1.1;0.05263938403372412;0.05124044791279257;0.2238163659155034;9.658573954485723;0.2655399074648844;-2.6061144021654834;0.9304399226561484;9;0;0;0;0;0;0;0;0;0;0;0;0;0;0;0;0;0
12;2022-05-01 10:59:08.053;5.173732040487476;52.369751620463525;2;0.04;0.07;9.68484116;0.27294734;-3.04072905;-0.2;10.980392460000001;5.09803868;43.92156982;46.27450943;1871.0;12;1.2000000000000002;0.051021789646818944;0.053641304321313366;0.228431260500779;9.661935643954624;0.266487914207793;-2.661736591738019;1.0673227306278839;9;0;0;0;0;0;0;0;0;0;0;0;0;0;0;0;0;0
13;2022-05-01 10:59:08.154;5.173732040487476;52.369751620463525;2;0.13;0.13;11.26266861;0.71349388;-1.84119737;-0.2;10.980392460000001;5.09803868;43.92156982;46.27450943;1871.0;13;1.3;0.060768147622236306;0.06306439936603994;0.23231168593351553;9.859475148083202;0.3216509793149342;-2.5604774095893443;1.1824203822736368;9;0;0;0;0;0;0;0;0;0;0;0;0;0;0;0;0;0
14;2022-05-01 10:59:08.258;5.173732040487476;52.369751620463525;8;0.04;0.04;10.37918091;0.18914771;-2.39427471;-0.19;10.980392460000001;5.09803868;43.92156982;46.27450943;1904.75;14;1.4000000000000001;0.05828590507055456;0.06030770509668358;0.2344109688524582;9.92159122025532;0.30581397452697134;-2.5406125944585365;1.9972685109762296;9;0;0;0;0;0;0;0;0;0;0;0;0;0;0;0;0;0
15;2022-05-01 10:59:08.355;5.173732040487476;52.369751620463525;8;-0.08;-0.06;10.3097477;-0.72307098;-2.31047511;-0.17;10.980392460000001;5.09803868;40.0;46.27450943;1904.75;15;1.5;0.04221750772781687;0.046328319360298444;0.23388398803045513;9.966693810750812;0.1862607036359941;-2.5138713257670444;2.6947674690817984;9;0;0;0;0;0;0;0;0;0;0;0;0;0;0;0;0;0
16;2022-05-01 10:59:08.464;5.173732040487476;52.369751620463525;8;0.0;0.0;10.15890789;-0.33759275;-1.86274576;-0.16;10.980392460000001;5.09803868;40.0;46.27450943;1904.75;16;1.6;0.03743295403954181;0.04107788315037386;0.23229641770162296;9.988477630575971;0.12689185150315577;-2.440078593914988;3.296014942916845;9;0;0;0;0;0;0;0;0;0;0;0;0;0;0;0;0;0
17;2022-05-01 10:59:08.554;5.173732040487476;52.369751620463525;8;0.02;-0.05;9.93863487;-1.34079385;-2.27695537;-0.15000001;10.980392460000001;5.09803868;40.0;46.27450943;1904.75;17;1.7000000000000002;0.03550058680314934;0.030982295393957675;0.2298111829611389;9.982952777054882;-0.035794733712033656;-2.4219970930590193;3.817431255044412;9;0;0;0;0;0;0;0;0;0;0;0;0;0;0;0;0;0
18;2022-05-01 10:59:08.654;5.173732040487476;52.369751620463525;8;0.14;-0.08;10.29059315;-1.15643477;-1.82204318;-0.11;10.19607735;5.09803868;40.0;46.27450943;1904.75;18;1.8;0.046857475512279124;0.018920853717738485;0.22329745959956648;10.016386816262273;-0.15758473985439497;-2.3567947190668987;4.2719885228949535;9;0;0;0;0;0;0;0;0;0;0;0;0;0;0;0;0;0
19;2022-05-01 10:59:08.754;5.173785201251409;52.36976815218938;8;0.08;-0.08;9.52442551;-1.350371;-2.61694241;-0.15000001;10.19607735;5.09803868;40.0;50.58823395;1904.75;19;1.9000000000000001;0.05039648323077241;0.008357938845133526;0.2218642685559598;9.963854461320292;-0.28495221853671404;-2.384573673760032;4.670071094939047;9;0;0;0;0;0;0;0;0;0;0;0;0;0;0;0;0;0
20;2022-05-01 10:59:08.854;5.173785201251409;52.36976815218938;8;-0.02;-0.14;8.59065819;-1.78134048;-1.91781414;-0.16;10.19607735;5.09803868;40.0;50.58823395;1904.75;20;2.0;0.04299689194148855;-0.00723642129322466;0.221655247140375;9.81951356953982;-0.4422422000349682;-2.3355111407798166;5.020090183805301;9;0;0;0;0;0;0;0;0;0;0;0;0;0;0;0;0;0
21;2022-05-01 10:59:08.956;5.173785201251409;52.36976815218938;12;-0.04;-0.15000001;8.59305191;-1.69514656;-1.84838021;-0.15000001;10.19607735;5.09803868;41.5686264;50.58823395;2031.75;21;2.1;0.03439501385923078;-0.022032577581908554;0.22043440763758948;9.692401897992378;-0.5720944186065534;-2.2850244203901084;5.743494781972525;9;0;0;0;0;0;0;0;0;0;0;0;0;0;0;0;0;0
22;2022-05-01 10:59:09.057;5.173785201251409;52.36976815218938;12;0.03;-0.14;9.91948032;-1.03911531;-1.92978549;-0.15000001;10.19607735;5.09803868;41.5686264;50.58823395;2031.75;22;2.2;0.033945236880333775;-0.034105129014718474;0.21935385458740098;9.715640652156663;-0.6198884079637326;-2.2486699746443035;6.38377308496524;9;0;0;0;0;0;0;0;0;0;0;0;0;0;0;0;0;0
23;2022-05-01 10:59:09.159;5.173785201251409;52.36976815218938;12;0.08;0.02;9.45738506;-1.620924;-0.90743017;-0.08;9.01960755;5.09803868;41.5686264;50.58823395;2031.75;23;2.3000000000000003;0.03860513218497265;-0.02863068468857004;0.2113121295952648;9.689509934294527;-0.7211748057025644;-2.1129611652901663;6.9520319936725885;9;0;0;0;0;0;0;0;0;0;0;0;0;0;0;0;0;0
24;2022-05-01 10:59:09.255;5.173785201251409;52.36976815218938;12;0.09;-0.08;11.58350182;-0.52434617;-0.967287;0.03;9.01960755;4.705882070000001;41.5686264;48.23529434;2031.75;24;2.4000000000000004;0.04375247173737493;-0.03377546508637146;0.19314076744207515;9.879198511377902;-0.7014618681142523;-1.998218697882958;7.457600087976219;9;0;0;0;0;0;0;0;0;0;0;0;0;0;0;0;0;0
25;2022-05-01 10:59:09.354;5.173785201251409;52.36976815218938;12;0.23;0.0;10.92747021;-0.9337672;-1.27614844;0.03;9.01960755;4.705882070000001;41.5686264;48.23529434;2031.75;25;2.5;0.06223483639264111;-0.03042374027181563;0.17693908151577847;9.983224266632002;-0.7245148014622897;-1.92656370231117;7.908367367237449;9;0;0;0;0;0;0;0;0;0;0;0;0;0;0;0;0;0
26;2022-05-01 10:59:09.453;5.173785201251409;52.36976815218938;14;0.06;-0.01;9.32809448;1.0606637;-2.17400146;0.01;9.01960755;4.705882070000001;41.5686264;48.23529434;2171.0;26;2.6;0.062014892648331724;-0.02841371666428128;0.1644340098295899;9.918748988372297;-0.5488246054528096;-1.9509155461816217;8.50788171854245;9;0;0;0;0;0;0;0;0;0;0;0;0;0;0;0;0;0
27;2022-05-01 10:59:09.556;5.173785201251409;52.36976815218938;14;-0.08;-0.19;8.15968895;-2.87312984;0.11253092;-0.22;9.01960755;4.705882070000001;32.94117737;48.23529434;2171.0;27;2.7;0.04814248892221181;-0.04419790744339268;0.17571067327788992;9.746919185344446;-0.7758691075827151;-1.749352443099255;9.044366876480412;9;0;0;0;0;0;0;0;0;0;0;0;0;0;0;0;0;0
28;2022-05-01 10:59:09.658;5.173785201251409;52.36976815218938;14;0.05;-0.01;7.66646814;-3.06227756;-1.4772675;-0.11;9.01960755;4.705882070000001;32.94117737;48.23529434;2171.0;28;2.8000000000000003;0.048322714905023545;-0.040879837606399246;0.17514453485778392;9.545062335701658;-0.9977090822528142;-1.7229532593394856;9.525189769447591;9;0;0;0;0;0;0;0;0;0;0;0;0;0;0;0;0;0
29;2022-05-01 10:59:09.753;5.173794736495203;52.36976441031777;14;0.30000001;-0.17;10.09905148;-1.0175668;-1.38389087;0.02;9.80392075;5.09803868;32.94117737;48.23529434;2171.0;29;2.9000000000000004;0.07259338605587028;-0.05333162829819123;0.1620997956474694;9.59848665567192;-0.9996240747715728;-1.6902555471832361;9.956721137929586;9;0;0;0;0;0;0;0;0;0;0;0;0;0;0;0;0;0
30;2022-05-01 10:59:09.854;5.173794736495203;52.36976441031777;14;0.08;-0.04;10.78381348;-0.50279772;-2.22428131;-0.18000001;9.80392075;5.09803868;32.94117737;44.70588303;2171.0;30;3.0;0.07330372217376777;-0.052053049832778545;0.1695589480744668;9.712166194147164;-0.9519756207303962;-1.7414716345988845;10.344494421662896;9;0;0;0;0;0;0;0;0;0;0;0;0;0;0;0;0;0
31;2022-05-01 10:59:09.953;5.173794736495203;52.36976441031777;15;0.25;0.01;10.51326084;0.21069619;-2.24343538;-0.13;9.80392075;5.09803868;37.64706039;44.70588303;1942.75;31;3.1;0.09016564182845904;-0.04613139967986555;0.1714977548715581;9.78861372162399;-0.8410232062342047;-1.789373449219141;10.788763887775175;9;0;0;0;0;0;0;0;0;0;0;0;0;0;0;0;0;0
32;2022-05-01 10:59:10.052;5.173794736495203;52.36976441031777;15;0.0;0.03;8.92585659;0.89785308;-0.46209505;-0.17;9.80392075;5.09803868;37.64706039;44.70588303;1942.75;32;3.2;0.08159995451893026;-0.038898957799895925;0.17704363100101578;9.706652259766747;-0.6758308975477749;-1.6632827176516463;11.188829045549365;9;0;0;0;0;0;0;0;0;0;0;0;0;0;0;0;0;0
33;2022-05-01 10:59:10.153;5.173794736495203;52.36976441031777;15;0.01;0.1;9.48851109;-0.58180881;-1.67359805;-0.08;9.80392075;5.09803868;37.64706039;44.70588303;1942.75;33;3.3000000000000003;0.07482570665949627;-0.02575738565958424;0.1735270844405118;9.68601338698707;-0.6669352365157328;-1.6642586766246608;11.549413306441574;9;0;0;0;0;0;0;0;0;0;0;0;0;0;0;0;0;0
34;2022-05-01 10:59:10.253;5.173794736495203;52.36976441031777;15;0.09;-0.03;9.31851768;-1.01517248;-1.79810035;-0.20999999;9.41176415;4.705882070000001;37.64706039;44.70588303;1942.75;34;3.4000000000000004;0.07625608666120505;-0.026157308777670744;0.18260923135857343;9.651372003814053;-0.6997612520508689;-1.6768750435746995;11.87467723075586;9;0;0;0;0;0;0;0;0;0;0;0;0;0;0;0;0;0
35;2022-05-01 10:59:10.353;5.173794736495203;52.36976441031777;15;-0.05;0.0;9.77342987;0.79729348;-2.71510768;-0.16;9.41176415;4.705882070000001;37.64706039;50.19607925;1942.75;35;3.5;0.06439454955094415;-0.023699875659190996;0.1861103533107446;9.662839125500225;-0.5591155950382045;-1.7744151723059884;12.168295803842236;9;0;0;0;0;0;0;0;0;0;0;0;0;0;0;0;0;0
36;2022-05-01 10:59:10.456;5.173794736495203;52.36976441031777;17;0.13;0.07;9.75427532;-0.22506183;-2.01358509;-0.09;9.41176415;4.705882070000001;47.05882263;50.19607925;1736.75;36;3.6;0.0705393910557492;-0.014923609647683782;0.18271648868963758;9.671403367025249;-0.5278269227374612;-1.7968166835659132;12.620850527272507;9;0;0;0;0;0;0;0;0;0;0;0;0;0;0;0;0;0
37;2022-05-01 10:59:10.552;5.173794736495203;52.36976441031777;17;0.02;0.01;8.96416473;-0.97925842;-1.83401453;-0.15000001;9.41176415;4.705882070000001;47.05882263;50.19607925;1736.75;37;3.7;0.06581869376411287;-0.012595587601833706;0.18525333374109998;9.605342825958127;-0.5699934665356612;-1.8002911965991708;13.029890656639552;9;0;0;0;0;0;0;0;0;0;0;0;0;0;0;0;0;0
38;2022-05-01 10:59:10.654;5.173794736495203;52.36976441031777;17;0.22;0.1;9.07430172;0.05985687;-1.34079385;-0.13;9.41176415;4.705882070000001;47.05882263;50.19607925;1736.75;38;3.8000000000000003;0.08018432448571348;-0.002104648902073967;0.1856840191421088;9.555863802771533;-0.511308029465203;-1.7574781645919055;13.399800123250476;9;0;0;0;0;0;0;0;0;0;0;0;0;0;0;0;0;0
39;2022-05-01 10:59:10.754;5.173850585923872;52.36973744970148;17;-0.02;0.05;9.00247288;0.56983739;-1.92978549;-0.16;9.41176415;4.705882070000001;47.05882263;50.19607925;1736.75;39;3.9000000000000004;0.07087087870806963;0.002739160993373674;0.18886258671497552;9.504418864858039;-0.41080139538221255;-1.7734963884060309;13.734485878860559;9;0;0;0;0;0;0;0;0;0;0;0;0;0;0;0;0;0
40;2022-05-01 10:59:10.854;5.173850585923872;52.36973744970148;17;0.13;0.14;9.96018314;-0.15802214;-1.78373468;-0.03;8.23529435;4.313725470000001;47.05882263;46.27450943;1736.75;40;4.0;0.07635643795036609;0.015473198766414694;0.17967932380061835;9.546701277942955;-0.3873504197829531;-1.7744462208042047;14.037435944355796;9;0;0;0;0;0;0;0;0;0;0;0;0;0;0;0;0;0
41;2022-05-01 10:59:10.958;5.173850585923872;52.36973744970148;17;-0.01;-0.1;9.85962391;0.21787901;-1.31206262;-0.05;8.23529435;4.313725470000001;47.05882263;46.27450943;1736.75;41;4.1000000000000005;0.06835983249790853;0.004780381498998524;0.17321551158191636;9.575677911128576;-0.3313061795032436;-1.731629503127139;14.311769351834176;9;0;0;0;0;0;0;0;0;0;0;0;0;0;0;0;0;0
42;2022-05-01 10:59:11.054;5.173850585923872;52.36973744970148;19;-0.09;-0.1;9.40231705;-0.26097596;-1.98724806;-0.02;8.23529435;4.313725470000001;47.05882263;46.27450943;1781.0;42;4.2;0.053720467012681995;-0.004905902429506935;0.16458683879706143;9.559651795371424;-0.324804595283787;-1.7552598228858907;14.745166639864562;9;0;0;0;0;0;0;0;0;0;0;0;0;0;0;0;0;0
43;2022-05-01 10:59:11.156;5.173850585923872;52.36973744970148;19;-0.17;-0.1;9.01444435;-0.43096948;-1.55388439;-0.01;8.23529435;4.313725470000001;36.86274338;46.27450943;1781.0;43;4.3;0.03307061304148149;-0.01368328097950996;0.1558448108895346;9.509328039654015;-0.33460382999633953;-1.7366724609962643;15.137896409884256;9;0;0;0;0;0;0;0;0;0;0;0;0;0;0;0;0;0
44;2022-05-01 10:59:11.254;5.173850585923872;52.36973744970148;19;0.23999999;0.06;8.68164062;0.52195191;-1.77894616;-0.11;8.23529435;4.313725470000001;36.86274338;46.27450943;1781.0;44;4.4;0.05214404706855379;-0.006891624718240484;0.1571380917852979;9.43303707688282;-0.2556519690403897;-1.7405689817362349;15.493880558266236;9;0;0;0;0;0;0;0;0;0;0;0;0;0;0;0;0;0
45;2022-05-01 10:59:11.355;5.173850585923872;52.36973744970148;19;0.2;0.20999999;8.66009235;-1.03193247;-0.97446984;0.02;7.0588226400000025;4.313725470000001;36.86274338;46.27450943;1781.0;45;4.5;0.06575525648767176;0.013074816474353185;0.14634324361317125;9.361881926627335;-0.32711420141623504;-1.6700440170849085;15.816644201012538;9;0;0;0;0;0;0;0;0;0;0;0;0;0;0;0;0;0
46;2022-05-01 10:59:11.458;5.173850585923872;52.36973744970148;19;0.22;0.07;8.88275909;-0.38308397;-1.2689656;0.01;7.0588226400000025;3.5294113200000012;36.86274338;46.27450943;1781.0;46;4.6000000000000005;0.07993831614795618;0.018309181391640353;0.13747289594556628;9.317825788170033;-0.3322607143470462;-1.6331641922789955;16.10935903970876;9;0;0;0;0;0;0;0;0;0;0;0;0;0;0;0;0;0
47;2022-05-01 10:59:11.562;5.173850585923872;52.36973744970148;19;-0.02;0.01;9.82131481;0.03351985;-0.57223165;-0.04;7.0588226400000025;3.5294113200000012;36.86274338;37.64706039;1781.0;47;4.7;0.07075839310933305;0.017545934134439313;0.13401937478217513;9.364074220696633;-0.2986616148309124;-1.5357112887012205;16.374881439630723;9;0;0;0;0;0;0;0;0;0;0;0;0;0;0;0;0;0
48;2022-05-01 10:59:11.655;5.173850585923872;52.36973744970148;19;0.11;0.05;9.81652641;0.33519846;-0.92179579;-0.06;7.0588226400000025;3.5294113200000012;36.86274338;37.64706039;1862.5;48;4.800000000000001;0.07435955628002441;0.020524211427208526;0.13272142659083785;9.405595307362569;-0.24049290723408742;-1.4793728749864328;16.615785954694008;9;0;0;0;0;0;0;0;0;0;0;0;0;0;0;0;0;0
49;2022-05-01 10:59:11.753;5.173913279583785;52.369703466493895;21;0.03;0.16;10.10862827;1.76936913;-0.90264159;0.05;7.0588226400000025;3.5294113200000012;27.05882263;37.64706039;1862.5;49;4.9;0.07029222154597384;0.03331276854982944;0.1214576852333177;9.470056510943303;-0.05620833903219464;-1.4264922922134426;17.017775234194882;9;0;0;0;0;0;0;0;0;0;0;0;0;0;0;0;0;0
50;2022-05-01 10:59:11.854;5.173913279583785;52.369703466493895;21;-0.28999999;-0.1;13.00091267;1.01038396;-1.22826302;0.06;7.0588226400000025;3.5294113200000012;27.05882263;37.64706039;1862.5;50;5.0;0.03728275427849712;0.021098839608929276;0.11031851696107234;9.793548601733834;0.04151135196965599;-1.408330804224268;17.38262108388599;9;0;0;0;0;0;0;0;0;0;0;0;0;0;0;0;0;0
51;2022-05-01 10:59:11.954;5.173913279583785;52.369703466493895;21;-0.01;-0.04;9.95539474;0.47406641;-0.64884847;-0.13;7.0588226400000025;3.5294113200000012;27.05882263;37.64706039;1862.5;51;5.1000000000000005;0.03295384601597378;0.015505018444116853;0.1176022694015296;9.80836620480897;0.08111334202452418;-1.3387974320247742;17.713805290846732;9;0;0;0;0;0;0;0;0;0;0;0;0;0;0;0;0;0
52;2022-05-01 10:59:12.056;5.173913279583785;52.369703466493895;21;0.04;0.18000001;10.53002071;1.73106074;-1.17319465;-0.05;7.0588226400000025;3.5294113200000012;27.05882263;31.76470566;1862.5;52;5.2;0.03359853152962847;0.030555432948999987;0.11689533225054755;9.874393743579057;0.23207473006379517;-1.3236456605996365;18.01447458204341;9;0;0;0;0;0;0;0;0;0;0;0;0;0;0;0;0;0
53;2022-05-01 10:59:12.157;5.173913279583785;52.369703466493895;21;0.07;0.15000001;10.85085297;2.5953939;-0.65603131;0.02;7.0588226400000025;3.5294113200000012;27.05882263;31.76470566;1862.5;53;5.300000000000001;0.03692712262816533;0.04147757902297131;0.10985257344886105;9.963682270271173;0.4481792852537606;-1.2625982556997446;18.287474374311525;9;0;0;0;0;0;0;0;0;0;0;0;0;0;0;0;0;0
54;2022-05-01 10:59:12.254;5.173913279583785;52.369703466493895;21;0.27000001;0.19;11.97137451;1.64247251;-2.48765159;-0.17;7.0588226400000025;3.5294113200000012;27.05882263;31.76470566;1820.0;54;5.4;0.05822823598140146;0.05505141405974039;0.12082178952344583;10.147170278932812;0.5573287262041188;-1.374558939895752;18.53537886666961;9;0;0;0;0;0;0;0;0;0;0;0;0;0;0;0;0;0
55;2022-05-01 10:59:12.354;5.173913279583785;52.369703466493895;22;0.20999999;0.2;10.04637718;-0.14365649;-0.75419658;0.06;7.0588226400000025;3.5294113200000012;27.45098114;31.76470566;1820.0;55;5.5;0.07209233368034708;0.06829222668521427;0.10977356782779313;10.13796299672131;0.4932948907528959;-1.3178898684867915;18.851866253884218;9;0;0;0;0;0;0;0;0;0;0;0;0;0;0;0;0;0
56;2022-05-01 10:59:12.455;5.173913279583785;52.369703466493895;22;-0.11;-0.06;10.38157558;0.83081335;-0.87391031;-0.03;7.0588226400000025;3.5294113200000012;27.45098114;31.76470566;1820.0;56;5.6000000000000005;0.055465804557344386;0.056578090235180976;0.10795673142703974;10.160206831092301;0.5241131046710837;-1.2773508797770474;19.139316781619154;9;0;0;0;0;0;0;0;0;0;0;0;0;0;0;0;0;0
57;2022-05-01 10:59:12.554;5.173913279583785;52.369703466493895;22;0.1;0.09;11.47575951;1.53233588;-0.3328042;-0.08;7.0588226400000025;3.5294113200000012;27.45098114;31.76470566;1820.0;57;5.7;0.059530520827892466;0.05962856816710583;0.11087003594617434;10.280279694777574;0.6161354142352825;-1.1911404022008754;19.400416494032484;9;0;0;0;0;0;0;0;0;0;0;0;0;0;0;0;0;0
58;2022-05-01 10:59:12.656;5.173913279583785;52.369703466493895;22;-0.17;-0.04;11.96658516;1.64965534;-1.13728058;0.0;7.450979240000002;3.9215688699999998;27.45098114;40.7843132;1820.0;58;5.800000000000001;0.03858845248959494;0.05053858625325518;0.10621738131821054;10.434136027976994;0.7104324377260545;-1.18622630156994;19.637599136396215;9;0;0;0;0;0;0;0;0;0;0;0;0;0;0;0;0;0
59;2022-05-01 10:59:12.753;5.173913279583785;52.369703466493895;22;-0.06;0.12;11.25309181;1.14685762;-0.62011719;-0.03;7.450979240000002;3.9215688699999998;27.45098114;40.7843132;1820.0;59;5.9;0.029596333349974045;0.05687406766354662;0.10472688144849203;10.508831874965864;0.7502381871362328;-1.1345922567227598;19.853070517522827;9;0;0;0;0;0;0;0;0;0;0;0;0;0;0;0;0;0
60;2022-05-01 10:59:12.853;5.173991659345554;52.3696744466621;23;0.23999999;0.16;10.94423008;1.10376072;-0.54350036;-0.02;7.450979240000002;3.9215688699999998;38.82352829;40.7843132;1538.0;60;6.0;0.04878121881742569;0.06627722743795059;0.10246092038172862;10.54853206283003;0.7824728422327271;-1.0806957108170614;20.140011736400467;9;0;0;0;0;0;0;0;0;0;0;0;0;0;0;0;0;0
61;2022-05-01 10:59:12.953;5.173991659345554;52.3696744466621;23;0.0;0.09;10.29777622;0.61293435;-1.45332479;-0.08;7.450979240000002;3.9215688699999998;38.82352829;40.7843132;1538.0;61;6.1000000000000005;0.044334492933469194;0.06843971270068443;0.10587152401989437;10.525674034189153;0.7670183041950486;-1.1146632789034443;20.400718298226202;9;0;0;0;0;0;0;0;0;0;0;0;0;0;0;0;0;0
62;2022-05-01 10:59:13.054;5.173991659345554;52.3696744466621;23;0.07;0.09;9.63456154;0.60575151;-0.83560193;-0.01;7.450979240000002;3.9215688699999998;38.82352829;40.7843132;1538.0;62;6.2;0.046673492378560194;0.07040458718761262;0.10259108455614668;10.44446341855553;0.7523214216765762;-1.0892313114562595;20.637601148127594;9;0;0;0;0;0;0;0;0;0;0;0;0;0;0;0;0;0
63;2022-05-01 10:59:13.155;5.173991659345554;52.3696744466621;23;-0.02;0.08;9.81652641;1.1420691;-1.16122329;0.0;7.450979240000002;3.9215688699999998;38.82352829;40.7843132;1538.0;63;6.300000000000001;0.0405986386820599;0.07127885860963164;0.09869914009267995;10.387249894537106;0.7878326876969955;-1.0957907509182225;20.852847520950267;9;0;0;0;0;0;0;0;0;0;0;0;0;0;0;0;0;0
64;2022-05-01 10:59:13.259;5.173991659345554;52.3696744466621;23;0.03;0.07;9.76385307;0.85715038;-1.14685762;0.0;7.0588226400000025;3.5294113200000012;38.82352829;38.03921509;1538.0;64;6.4;0.039633157193836;0.07116236116588491;0.09516252705409654;10.330461649181887;0.7941471730504999;-1.1004426801177212;21.04844207163776;9;0;0;0;0;0;0;0;0;0;0;0;0;0;0;0;0;0
65;2022-05-01 10:59:13.353;5.173991659345554;52.3696744466621;23;0.09;0.08;9.43104839;0.43096948;-1.08460653;-0.03;7.0588226400000025;3.5294113200000012;38.82352829;38.03921509;1538.0;65;6.5;0.04422046542701436;0.07196727509590062;0.09468101647487015;10.248544943289614;0.7610696973022404;-1.0990003562044188;21.22618594545478;9;0;0;0;0;0;0;0;0;0;0;0;0;0;0;0;0;0
66;2022-05-01 10:59:13.454;5.173991659345554;52.3696744466621;24;0.08;0.04;9.53639698;0.12210801;-1.3072741;0.02;7.0588226400000025;3.5294113200000012;32.54901886;38.03921509;1630.25;66;6.6000000000000005;0.04747864155519371;0.06905625308727324;0.08969030661177224;10.183694924377585;0.7028842082723971;-1.1179662971608912;21.47877656309102;9;0;0;0;0;0;0;0;0;0;0;0;0;0;0;0;0;0
67;2022-05-01 10:59:13.554;5.173991659345554;52.3696744466621;24;0.03;0.0;9.64174461;0.14365649;-0.79250497;-0.05;7.0588226400000025;3.5294113200000012;32.54901886;38.03921509;1630.25;67;6.7;0.04588723589065889;0.06276877862951244;0.09152816094499494;10.134351112533087;0.651967313168548;-1.088333502301215;21.70833040149345;9;0;0;0;0;0;0;0;0;0;0;0;0;0;0;0;0;0
68;2022-05-01 10:59:13.654;5.173991659345554;52.3696744466621;24;0.03;0.06;10.47016335;1.11333776;-0.86433321;0.0;7.0588226400000025;3.5294113200000012;32.54901886;38.03921509;1630.25;68;6.800000000000001;0.04444092722601523;0.06251672040176882;0.08864665371190239;10.16492207856421;0.6939685825810065;-1.0679414362509814;21.91695458380129;9;0;0;0;0;0;0;0;0;0;0;0;0;0;0;0;0;0
69;2022-05-01 10:59:13.754;5.174083749722742;52.36965093261485;24;0.03;0.1;9.7614584;0.64645422;-1.09657788;0.0;6.666666030000002;3.1372547200000014;32.54901886;38.03921509;1630.25;69;6.9;0.043126451233223125;0.06592861150764104;0.08602779912466932;10.12819706007088;0.6896436186816637;-1.0705480498872038;22.10656243575114;9;0;0;0;0;0;0;0;0;0;0;0;0;0;0;0;0;0
70;2022-05-01 10:59:13.856;5.174083749722742;52.36965093261485;24;0.03;0.11;9.48611641;0.25379312;-0.75180227;-0.02;6.666666030000002;3.1372547200000014;32.54901886;35.68627548;1630.25;70;7.0;0.04193176225832048;0.06993971862296029;0.08546787557598931;10.069758822651728;0.649975183075634;-1.0415377665850287;22.27889149426692;9;0;0;0;0;0;0;0;0;0;0;0;0;0;0;0;0;0
71;2022-05-01 10:59:13.954;5.174083749722742;52.36965093261485;24;0.11;0.07;10.10383987;0.23224466;-1.185166;0.02;6.666666030000002;3.1372547200000014;32.54901886;35.68627548;1634.25;71;7.1000000000000005;0.04812626623207264;0.06994520448893839;0.0813187931799657;10.072860345332979;0.611959899134103;-1.0546085569000139;22.435519810670268;9;0;0;0;0;0;0;0;0;0;0;0;0;0;0;0;0;0
72;2022-05-01 10:59:14.055;5.174083749722742;52.36965093261485;25;0.09;0.08;10.43424988;0.57223165;-0.79489923;0.08;6.666666030000002;3.1372547200000014;19.2156868;35.68627548;1634.25;72;7.2;0.051936594204490455;0.07086014722619398;0.07208791485933146;10.105745223966265;0.6083448009484522;-1.030976135715188;22.668876373862602;9;0;0;0;0;0;0;0;0;0;0;0;0;0;0;0;0;0
73;2022-05-01 10:59:14.154;5.174083749722742;52.36965093261485;25;0.05;0.05;9.95778847;0.3423813;-0.16281068;0.03;6.666666030000002;3.1372547200000014;19.2156868;35.68627548;1634.25;73;7.300000000000001;0.051760387793607525;0.06896212870238845;0.06824712179471162;10.092282967122866;0.5841453719615632;-0.9519836866778981;22.88098014166984;9;0;0;0;0;0;0;0;0;0;0;0;0;0;0;0;0;0
74;2022-05-01 10:59:14.256;5.174083749722742;52.36965093261485;25;0.05;0.03;9.80934429;0.28731298;-0.28013015;0.01;6.666666030000002;3.1372547200000014;19.2156868;35.68627548;1634.25;74;7.4;0.051600226616410214;0.06541732998147715;0.0665756811341488;10.066541030166018;0.5571393761806938;-0.8908580337227617;23.073769887342387;9;0;0;0;0;0;0;0;0;0;0;0;0;0;0;0;0;0
75;2022-05-01 10:59:14.354;5.174083749722742;52.36965093261485;25;0.04;0.04;10.19482231;0.20111908;-0.19154198;0.04;0.0;3.1372547200000014;19.2156868;35.68627548;1634.25;75;7.5;0.05054490626708959;0.06310501088273607;0.06232719441282669;10.078211306059956;0.5247507448414458;-0.8272383746847035;23.2490069669772;9;1;0;0;0;0;0;0;0;0;0;0;0;0;0;0;0;0
76;2022-05-01 10:59:14.454;5.174083749722742;52.36965093261485;25;0.06;0.04;10.02722263;0.11731946;-0.19393626;0.02;0.0;0.0;19.2156868;18.43137169;1634.25;76;7.6000000000000005;0.0514050191229548;0.06100318963627132;0.060284825112218145;10.07357295798837;0.4876874543154049;-0.7696280213794839;23.408291651061415;9;1;0;0;0;0;0;0;0;0;0;0;0;0;0;0;0;0
77;2022-05-01 10:59:14.556;5.174083749722742;52.36965093261485;25;0.1;0.06;9.29218006;0.00718282;-0.67757976;0.06;0.0;0.0;19.2156868;18.43137169;1648.5;77;7.7;0.0558253557716549;0.06091193667485898;0.0547898432803499;10.00249525404295;0.44397939626906585;-0.7612550516636535;23.553077936020703;9;1;0;0;0;0;0;0;0;0;0;0;0;0;0;0;0;0
78;2022-05-01 10:59:14.653;5.174083749722742;52.36965093261485;25;0.04;0.06;9.67047596;0.1053481;-0.22027329;0.04;0.0;0.0;14.90196037;18.43137169;1648.5;78;7.800000000000001;0.05438591407856763;0.06082898879740282;0.05161412760873614;9.972295464436272;0.41317819258889676;-0.7120484673584063;23.684686980113735;9;1;0;0;0;0;0;0;0;0;0;0;0;0;0;0;0;0
79;2022-05-01 10:59:14.755;5.174184685603104;52.36963079724829;25;0.04;0.0;10.34087276;0.43815228;-0.33998701;0.03;0.0;0.0;14.90196037;18.43137169;1648.5;79;7.9;0.053077464941434505;0.05529637978347719;0.04963694441144571;10.005818856951572;0.415449673076357;-0.6782081781572925;23.804319293815247;9;1;0;0;0;0;0;0;0;0;0;0;0;0;0;0;0;0
80;2022-05-01 10:59:14.854;5.174184685603104;52.36963079724829;25;0.03;0.03;9.76864147;-0.24421602;-0.32322711;0.08;0.0;0.0;14.90196037;18.43137169;1648.5;80;8.0;0.05097858208774948;0.05299568783474773;0.0432921999972732;9.984247702926735;0.3554534379666547;-0.6459228435579791;23.913065802110765;9;1;0;0;0;0;0;0;0;0;0;0;0;0;0;0;0;0
81;2022-05-01 10:59:14.954;5.174184685603104;52.36963079724829;25;0.13;0.07;9.69681263;-0.32083282;-0.35914123;0.06;0.0;0.0;14.90196037;18.43137169;1648.5;81;8.1;0.05816524687982229;0.05454215833325405;0.03934365510186305;9.958106694916687;0.29394805413655567;-0.6198412649224299;24.01191788471886;9;1;0;0;0;0;0;0;0;0;0;0;0;0;0;0;0;0
82;2022-05-01 10:59:15.055;5.174184685603104;52.36963079724829;25;0.02;0.05;8.95219326;-0.05267405;-0.21309046;0.06;0.0;0.0;14.90196037;12.54901981;1648.5;82;8.200000000000001;0.05469440594226257;0.054129083340248546;0.035754345419275586;9.866626465781945;0.2624253918388751;-0.5828503514467325;24.101776490014593;9;1;0;0;0;0;0;0;0;0;0;0;0;0;0;0;0;0
83;2022-05-01 10:59:15.154;5.174184685603104;52.36963079724829;25;0.0;0.04;9.65132141;-0.22745611;-0.98883551;0.05;0.0;0.0;14.90196037;12.54901981;1526.0;83;8.3;0.04972052874303868;0.05284419278770863;0.033400959310332434;9.847046750281205;0.21787585536726384;-0.619770403663463;24.183460409222704;9;1;0;0;0;0;0;0;0;0;0;0;0;0;0;0;0;0
84;2022-05-01 10:59:15.255;5.174184685603104;52.36963079724829;24;-0.01;0.02;11.86363125;0.87151605;-1.90344846;0.06;0.0;0.0;15.29411793;12.54901981;1526.0;84;8.4;0.04428974355961883;0.04985745172383845;0.030352287062424228;10.030428201395091;0.2773157089488166;-0.7365037935942458;24.166777133084317;9;1;0;0;0;0;0;0;0;0;0;0;0;0;0;0;0;0
85;2022-05-01 10:59:15.355;5.174184685603104;52.36963079724829;24;0.2;0.03;10.08468533;0.2370332;-0.08379962;0.06;0.0;0.0;15.29411793;12.54901981;1526.0;85;8.5;0.0584491232924143;0.04805173124073631;0.027580927267250428;10.035362027237335;0.273652653259133;-0.6771506947144688;24.15161139633664;9;1;0;0;0;0;0;0;0;0;0;0;0;0;0;0;0;0
86;2022-05-01 10:59:15.459;5.174184685603104;52.36963079724829;24;0.06;-0.08;10.65931129;-0.58899158;0.24421602;0.09;0.0;0.0;15.29411793;12.54901981;1526.0;86;8.6;0.0585901474128866;0.03640774775394211;0.022333685722199667;10.092098901013351;0.19521079925433404;-0.5933690956102144;24.137825088426172;9;1;0;0;0;0;0;0;0;0;0;0;0;0;0;0;0;0
87;2022-05-01 10:59:15.554;5.174184685603104;52.36963079724829;24;0.25;0.09;10.55396366;-0.69912827;-1.13009775;0.1;0.0;0.0;15.29411793;12.54901981;1526.0;87;8.700000000000001;0.0759950069253949;0.04128088050387215;0.016654396333015235;10.1340961709307;0.11388872702801085;-0.6421737245241848;24.12529268077352;9;1;0;0;0;0;0;0;0;0;0;0;0;0;0;0;0;0
88;2022-05-01 10:59:15.654;5.174184685603104;52.36963079724829;24;0.27000001;0.13;10.75268841;-0.22027329;-0.87151605;0.09;0.0;0.0;15.29411793;15.29411793;1526.0;88;8.8;0.09363547764254884;0.04934792519199951;0.012400909667427865;10.19034347438279;0.08350407105137672;-0.6630273443414239;24.11390007836002;9;1;0;0;0;0;0;0;0;0;0;0;0;0;0;0;0;0
89;2022-05-01 10:59:15.753;5.174290792463959;52.36961161507368;24;0.01;0.06;11.68406105;0.93137288;0.14126222;0.0;0.0;0.0;15.29411793;15.29411793;1526.0;89;8.9;0.08603082107835716;0.05031647792696603;0.016717614901287196;10.326161544496697;0.16059756397194913;-0.5898963467387003;24.103543576514426;9;1;0;0;0;0;0;0;0;0;0;0;0;0;0;0;0;0
90;2022-05-01 10:59:15.856;5.174290792463959;52.36961161507368;24;0.0;-0.02;10.54917526;-1.01277828;-0.09577099;0.04;0.0;0.0;15.29411793;15.29411793;1491.75;90;9.0;0.07820849889643257;0.043922976875268055;0.017004765407118497;10.346438988228938;0.05390877759297889;-0.5449681722749451;24.094128913197117;9;1;0;0;0;0;0;0;0;0;0;0;0;0;0;0;0;0
91;2022-05-01 10:59:15.953;5.174290792463959;52.36961161507368;24;0.1;-0.04;11.74870682;0.02394275;-1.32403398;0.07;0.0;0.0;14.50980377;15.29411793;1491.75;91;9.1;0.08018985265297265;0.03629242840127524;0.014538105769503921;10.473937714587906;0.0511841694506691;-0.6158033551011193;24.08557040798558;9;1;0;0;0;0;0;0;0;0;0;0;0;0;0;0;0;0
92;2022-05-01 10:59:16.054;5.174290792463959;52.36961161507368;24;0.18000001;-0.16;10.56832886;-1.25699425;0.44533512;0.20999999;0.0;0.0;14.50980377;15.29411793;1491.75;92;9.200000000000001;0.0892647866077617;0.01844513839677969;-0.00043331731925116274;10.482519941420327;-0.06775796102127239;-0.519322577649314;24.077790179784415;9;1;0;0;0;0;0;0;0;0;0;0;0;0;0;0;0;0
93;2022-05-01 10:59:16.154;5.174290792463959;52.36961161507368;24;-0.15000001;-0.22;9.03120422;-0.45012367;-0.62730002;-0.03;0.0;0.0;14.50980377;15.29411793;1491.75;93;9.3;0.06751064486678075;-0.0032344793809870095;0.007777651631173256;10.350565185174052;-0.10252294921822003;-0.5291399708430824;24.07071743602487;9;1;0;0;0;0;0;0;0;0;0;0;0;0;0;0;0;0
94;2022-05-01 10:59:16.253;5.174290792463959;52.36961161507368;24;0.15000001;-0.13;11.1405611;-0.83560193;0.09577099;0.13;0.0;0.0;14.50980377;16.86274529;1491.75;94;9.4;0.07501055455873903;-0.014759964577306052;0.0006948310018685677;10.422391389784087;-0.16917428232106232;-0.47232324344714566;24.06428782679007;9;1;0;0;0;0;0;0;0;0;0;0;0;0;0;0;0;0
95;2022-05-01 10:59:16.358;5.174290792463959;52.36961161507368;24;0.02;-0.15000001;10.05356026;-2.205127;-0.45970076;0.05;0.0;0.0;14.50980377;16.86274529;1491.75;95;9.5;0.07000906367767949;-0.027055820515523053;0.001529546866622343;10.388857724343644;-0.35428055935134806;-0.4711756230247807;24.058442857910322;9;1;0;0;0;0;0;0;0;0;0;0;0;0;0;0;0;0
96;2022-05-01 10:59:16.456;5.174290792463959;52.36961161507368;23;0.15000001;-0.16;9.95300007;-2.32723522;-0.66560841;0.05;0.0;0.0;14.50980377;16.86274529;1435.75;96;9.600000000000001;0.07728167031327773;-0.03914282243680402;0.002288364078174482;10.349230473824777;-0.5336573990620701;-0.48885303830420557;23.962211485414453;9;1;0;0;0;0;0;0;0;0;0;0;0;0;0;0;0;0
97;2022-05-01 10:59:16.556;5.174290792463959;52.36961161507368;23;0.0;-0.22;8.57389832;-1.99203658;0.19633053;0.05;0.0;0.0;16.07843208;16.86274529;1435.75;97;9.700000000000001;0.07025544698702141;-0.05558582780358998;0.0029781851859309177;10.187822469307134;-0.6662489667403395;-0.42655815323157514;23.87473003274651;9;1;0;0;0;0;0;0;0;0;0;0;0;0;0;0;0;0
98;2022-05-01 10:59:16.654;5.174290792463959;52.36961161507368;23;0.18000001;-0.2;8.81332588;-2.38230348;-1.3934679;0.02;0.0;0.0;16.07843208;16.86274529;1435.75;98;9.8;0.08023302187559796;-0.0687154369477903;0.006332775212804918;10.062858258986456;-0.822266376157726;-0.5144660563113445;23.795202772630823;9;1;0;0;0;0;0;0;0;0;0;0;0;0;0;0;0;0
99;2022-05-01 10:59:16.755;5.174290792463959;52.36961161507368;23;0.0;-0.1;9.01205063;-2.34160066;1.13249195;-0.03;0.0;0.0;16.07843208;16.86274529;1435.75;99;9.9;0.07293858146970798;-0.07155969452994247;0.013928140447483896;9.967323360156632;-0.9603976982871205;-0.3647317356139549;23.722906365242007;9;1;0;0;0;0;0;0;0;0;0;0;0;0;0;0;0;0
100;2022-05-01 10:59:16.856;5.174387448349441;52.36959080256874;23;0.23999999;-0.31999999;9.57949352;-3.89069653;0.04549122;0.2;0.0;0.0;16.07843208;15.29411793;1435.75;100;10.0;0.08812698420638726;-0.09414666597245022;-7.754807757329868e-05;9.932063775926965;-1.2268060758197803;-0.3274362793113349;23.657183269089533;9;1;0;0;0;0;0;0;0;0;0;0;0;0;0;0;0;0
101;2022-05-01 10:59:16.957;5.174387448349441;52.36959080256874;23;0.07;-0.31999999;9.72075558;-2.05428767;-0.96968132;0.08;0.0;0.0;16.07843208;15.29411793;1435.75;101;10.100000000000001;0.08647897771756638;-0.11468001775790694;-0.0019000866439226813;9.912852787818641;-1.3020361869658106;-0.3858256938116799;23.597435752377816;9;1;0;0;0;0;0;0;0;0;0;0;0;0;0;0;0;0
102;2022-05-01 10:59:17.056;5.174387448349441;52.36959080256874;22;0.1;-0.13;8.76783466;-1.8292259;0.07422252;0.07;0.0;0.0;18.03921509;15.29411793;1411.0;102;10.200000000000001;0.08770822857980778;-0.11607281935139904;-0.0026477804403321342;9.80875455534019;-1.3499651375862096;-0.3440008486418486;23.452206402483405;9;1;0;0;0;0;0;0;0;0;0;0;0;0;0;0;0;0
103;2022-05-01 10:59:17.157;5.174387448349441;52.36959080256874;22;0.07;-0.12;12.51008606;-1.32163966;2.68398213;0.1;0.0;0.0;18.03921509;15.29411793;1411.0;103;10.3;0.08609830982502369;-0.1164298534698098;-0.00605490290510409;10.054342318827722;-1.3473899665351508;-0.06871602472438773;23.320181095003385;9;1;0;0;0;0;0;0;0;0;0;0;0;0;0;0;0;0
104;2022-05-01 10:59:17.258;5.174387448349441;52.36959080256874;22;0.15000001;-0.06;9.90511513;-2.68637633;-1.42459357;-0.01;0.0;0.0;18.03921509;15.29411793;1411.0;104;10.4;0.09190781705793107;-0.11129963563543142;0.0008481929413844957;10.040775599468656;-1.4691214845074936;-0.19198317387138306;23.20015922392376;9;1;0;0;0;0;0;0;0;0;0;0;0;0;0;0;0;0
105;2022-05-01 10:59:17.357;5.174387448349441;52.36959080256874;22;-0.11;-0.27000001;8.11180305;-2.95932364;-1.47247899;-0.07;2.3529415200000017;0.0;18.03921509;15.29411793;1411.0;105;10.5;0.07355180907296335;-0.12572753338352882;0.012578449525997647;9.865407275266177;-1.6045999571294234;-0.3083966528939941;23.091049370632362;9;1;0;0;0;0;0;0;0;0;0;0;0;0;0;0;0;0
106;2022-05-01 10:59:17.459;5.174387448349441;52.36959080256874;22;0.12;-0.06;9.05035877;-1.90584278;0.58659732;0.02;2.3529415200000017;1.1764707600000008;18.03921509;21.1764698;1411.0;106;10.600000000000001;0.07777452912883658;-0.11975208056389818;0.015060112889581312;9.79130919736464;-1.6319866881179708;-0.22703053456310218;22.99185937060514;9;1;0;0;0;0;0;0;0;0;0;0;0;0;0;0;0;0
107;2022-05-01 10:59:17.558;5.174387448349441;52.36959080256874;22;0.05;-0.14;9.57470512;-2.41582322;-0.68715686;0.06;2.3529415200000017;1.1764707600000008;18.03921509;21.1764698;1525.5;107;10.700000000000001;0.07524948645644532;-0.12159286282760957;0.013679667713633638;9.771617250983745;-1.7032469669871593;-0.2688616165961902;22.901687284368442;9;1;0;0;0;0;0;0;0;0;0;0;0;0;0;0;0;0
108;2022-05-01 10:59:17.658;5.174387448349441;52.36959080256874;22;0.19;-0.11;8.27940273;-2.78933024;-0.53631759;0.01;2.3529415200000017;1.1764707600000008;25.49019623;21.1764698;1525.5;108;10.8;0.08568167237401292;-0.12053893377230668;0.01697032010022978;9.635957210509174;-1.80198484864143;-0.29317654428715456;22.819713190313795;9;1;0;0;0;0;0;0;0;0;0;0;0;0;0;0;0;0
109;2022-05-01 10:59:17.754;5.174466798101155;52.36955606251959;22;-0.02;-0.23;9.13894653;-2.69116497;-0.34477556;0.05;2.3529415200000017;1.1764707600000008;25.49019623;21.1764698;1525.5;109;10.9;0.07607397881613645;-0.1304902182023277;0.016325339319072943;9.590773157247561;-1.882821666718405;-0.29786749513719973;22.745191724472374;9;1;0;0;0;0;0;0;0;0;0;0;0;0;0;0;0;0
110;2022-05-01 10:59:17.853;5.174466798101155;52.36955606251959;22;0.18000001;-0.06;9.10782146;-1.54191303;-0.1699935;0.04;2.3529415200000017;1.1764707600000008;25.49019623;21.1764698;1525.5;110;11.0;0.08552204013333811;-0.12408185355824491;0.016648110317554303;9.546867340804239;-1.8518291842134134;-0.28624229081476815;22.67744529919582;9;1;0;0;0;0;0;0;0;0;0;0;0;0;0;0;0;0
111;2022-05-01 10:59:17.954;5.174466798101155;52.36955606251959;22;0.01;-0.16;9.13176441;-2.21709847;-0.73025382;-0.02;2.3529415200000017;1.1764707600000008;25.49019623;21.1764698;1525.5;111;11.100000000000001;0.07865624137245991;-0.12734721509902752;0.022396208648883455;9.509129838176916;-1.885036250724231;-0.3266079086067839;22.61585793890246;9;1;0;0;0;0;0;0;0;0;0;0;0;0;0;0;0;0
112;2022-05-01 10:59:18.054;5.174466798101155;52.36955606251959;22;0.08;-0.23999999;9.68484116;-1.98724806;-0.9241901;-0.04;2.3529415200000017;1.1764707600000008;25.49019623;21.1764698;1525.5;112;11.200000000000001;0.0787784038155091;-0.13758859172435725;0.029439949556327456;9.525103930476966;-1.8943284287044868;-0.38093470430291876;22.559869676691044;9;1;0;0;0;0;0;0;0;0;0;0;0;0;0;0;0;0
113;2022-05-01 10:59:18.155;5.174466798101155;52.36955606251959;22;0.06;-0.16;9.66808128;-1.61134696;-0.61293435;-0.02;5.882352830000002;3.1372547200000014;25.49019623;21.1764698;1525.5;113;11.3;0.07707124357409792;-0.13962603140975863;0.03402510812272648;9.538102119722767;-1.8686023490453916;-0.4020259842139638;22.508971460750598;9;1;0;0;0;0;0;0;0;0;0;0;0;0;0;0;0;0
114;2022-05-01 10:59:18.257;5.174466798101155;52.36955606251959;22;0.07;-0.17;9.07909012;-2.06147051;-0.86912173;-0.04;5.882352830000002;3.1372547200000014;25.49019623;29.41176414;1525.5;114;11.4;0.0764283920817853;-0.14238734925026084;0.04001163228922284;9.49637303120826;-1.8861361228137596;-0.4444899715006321;22.46270052415232;9;1;0;0;0;0;0;0;0;0;0;0;0;0;0;0;0;0
115;2022-05-01 10:59:18.360;5.174466798101155;52.36955606251959;22;-0.02;-0.12;9.55076218;-1.81246603;-1.21150303;-0.04;5.882352830000002;3.1372547200000014;25.49019623;29.41176414;1719.25;115;11.5;0.06766203617788276;-0.1403521035406124;0.04545390893688872;9.501317577366557;-1.879438735880965;-0.5142195325623101;22.42063617584087;9;1;0;0;0;0;0;0;0;0;0;0;0;0;0;0;0;0
116;2022-05-01 10:59:18.455;5.174466798101155;52.36955606251959;22;0.06;-0.19;9.53639698;-2.24822402;-0.85236186;-0.02;5.882352830000002;3.1372547200000014;27.84313774;29.41176414;1719.25;116;11.600000000000001;0.06696547743412608;-0.14486561347257274;0.04858321032373807;9.504506659754425;-1.9129651521309194;-0.5449601854831172;22.382395974487068;9;1;0;0;0;0;0;0;0;0;0;0;0;0;0;0;0;0
117;2022-05-01 10:59:18.557;5.174466798101155;52.36955606251959;22;0.05;-0.19;9.31851768;-2.70792484;-0.57702023;-0.02;5.882352830000002;3.1372547200000014;27.84313774;29.41176414;1719.25;117;11.700000000000001;0.06542314117382304;-0.14896879307350508;0.051428021969053925;9.487598350005651;-1.9852351579023682;-0.5478747730246298;22.347632250357563;9;1;0;0;0;0;0;0;0;0;0;0;0;0;0;0;0;0
118;2022-05-01 10:59:18.653;5.174466798101155;52.36955606251959;22;0.07;-0.19;9.26344967;-2.46131444;-1.1444633;-0.02;6.274509430000002;3.1372547200000014;27.84313774;29.41176414;1719.25;118;11.8;0.06583922418578594;-0.15269894705265002;0.05401420792988334;9.467220955498563;-2.0285156061642553;-0.6021107371725047;22.31602894353129;9;1;0;0;0;0;0;0;0;0;0;0;0;0;0;0;0;0
119;2022-05-01 10:59:18.753;5.174527754008712;52.369509516432245;22;0.08;-0.19;9.56273365;-1.69035804;-0.31365001;-0.02;6.274509430000002;3.1372547200000014;27.84313774;44.31372452;1719.25;119;11.9;0.06712658132761293;-0.15608998844328043;0.05636528075048845;9.47590402138526;-1.9977736776445327;-0.5758867518390612;22.28729872967742;9;1;0;0;0;0;0;0;0;0;0;0;0;0;0;0;0;0
120;2022-05-01 10:59:18.854;5.174527754008712;52.369509516432245;22;0.04;-0.15000001;10.16130257;-2.35836077;-0.46448931;0.04;6.274509430000002;3.1372547200000014;27.84313774;44.31372452;1743.75;120;12.0;0.064660504297675;-0.15553634861043858;0.053048016335494365;9.538213591348322;-2.030554643849247;-0.5657596123666975;22.261180407230846;9;1;0;0;0;0;0;0;0;0;0;0;0;0;0;0;0;0
121;2022-05-01 10:59:18.954;5.174527754008712;52.369509516432245;23;0.06;-0.22;10.00567436;-1.69993508;-1.42938209;0.02;6.274509430000002;3.1372547200000014;36.07843018;44.31372452;1743.75;121;12.100000000000001;0.06423681831188656;-0.16139673279678823;0.05185052508461711;9.580710403695951;-2.000498051926288;-0.6442714465833651;22.328346423500456;9;1;0;0;0;0;0;0;0;0;0;0;0;0;0;0;0;0
122;2022-05-01 10:59:19.055;5.174527754008712;52.369509516432245;23;-0.01;-0.23;10.03201103;-2.50680566;-0.5506832;-0.03;6.274509430000002;3.1372547200000014;36.07843018;44.31372452;1743.75;122;12.200000000000001;0.05748796195440076;-0.16763344399396732;0.05530738990955792;9.621738065848355;-2.0465263893105234;-0.6357633552170765;22.38940633437572;9;1;0;0;0;0;0;0;0;0;0;0;0;0;0;0;0;0
123;2022-05-01 10:59:19.153;5.174527754008712;52.369509516432245;23;0.09;-0.19;9.85722923;-1.58022141;-0.44294083;-0.02;6.274509430000002;3.1372547200000014;36.07843018;44.31372452;1743.75;123;12.3;0.06044362355190774;-0.16966678224741058;0.05754089182715426;9.643146511220467;-2.0041347152437865;-0.6182339055984736;22.44491525838213;9;1;0;0;0;0;0;0;0;0;0;0;0;0;0;0;0;0
124;2022-05-01 10:59:19.255;5.174527754008712;52.369509516432245;23;0.07;-0.20999999;10.54199219;-2.31765795;-1.05587518;-0.06;6.274509430000002;3.1372547200000014;36.07843018;41.96078491;1743.75;124;12.4;0.06131239086577981;-0.17333346205532632;0.06320773325122611;9.72486030202605;-2.0326370183892446;-0.6580197424652567;22.495377845594568;9;1;0;0;0;0;0;0;0;0;0;0;0;0;0;0;0;0
125;2022-05-01 10:59:19.356;5.174527754008712;52.369509516432245;23;0.03;-0.18000001;9.60104179;-2.10456753;-0.91221869;-0.01;6.274509430000002;3.1372547200000014;36.07843018;41.96078491;1743.75;125;12.5;0.05846579254601443;-0.17393951555853174;0.06381391846469713;9.713604005124289;-2.0391761956232264;-0.6811288783993424;22.541252866221523;9;1;0;0;0;0;0;0;0;0;0;0;0;0;0;0;0;0
126;2022-05-01 10:59:19.454;5.174527754008712;52.369509516432245;23;0.0;-0.31;10.00806904;-2.89946675;-1.53233588;0.04;6.274509430000002;3.1372547200000014;42.35293961;41.96078491;1801.0;126;12.600000000000001;0.0531506910765206;-0.18630871897308782;0.05981951558558096;9.7403737019235;-2.117384860735581;-0.7585117614157723;22.582957381951008;9;1;0;0;0;0;0;0;0;0;0;0;0;0;0;0;0;0
127;2022-05-01 10:59:19.556;5.174527754008712;52.369509516432245;23;0.06;-0.20999999;10.08947372;-2.37272644;-0.60814577;-0.05;6.274509430000002;3.1372547200000014;42.35293961;41.96078491;1801.0;127;12.700000000000001;0.05377335865734164;-0.1884624817222513;0.06437010343067592;9.772110226899782;-2.1405978483843895;-0.744842057047254;22.620870538005285;9;1;0;0;0;0;0;0;0;0;0;0;0;0;0;0;0;0
128;2022-05-01 10:59:19.653;5.174527754008712;52.369509516432245;23;0.09;-0.25;9.87398911;-3.00720906;-1.63050115;0.01;6.274509430000002;3.1372547200000014;42.35293961;41.96078491;1801.0;128;12.8;0.05706670475390351;-0.19405682715701517;0.06305242709108612;9.781371985913172;-2.2193810461977144;-0.8253568883580393;22.65533701039895;9;1;0;0;0;0;0;0;0;0;0;0;0;0;0;0;0;0
129;2022-05-01 10:59:19.754;5.174590311201593;52.36946096269609;23;-0.14;-0.31999999;10.16130257;-2.24104118;-1.37431371;0.01;7.0588226400000025;3.1372547200000014;42.35293961;41.96078491;1801.0;129;12.9;0.03915147527335411;-0.20550625321128416;0.061854540555776716;9.815911273557397;-2.221350157459467;-0.8752622615001453;22.686670139756675;9;1;0;0;0;0;0;0;0;0;0;0;0;0;0;0;0;0
130;2022-05-01 10:59:19.855;5.174590311201593;52.36946096269609;23;0.11;-0.31;11.15253162;-2.7629931;-0.95531565;0.06;7.0588226400000025;3.5294113200000012;42.35293961;49.80392075;1801.0;130;13.0;0.0455922745984503;-0.21500572065101212;0.056220081931011925;9.937422673526457;-2.270590611120545;-0.8825398697864277;22.71515478019448;9;1;0;0;0;0;0;0;0;0;0;0;0;0;0;0;0;0
131;2022-05-01 10:59:19.958;5.174590311201593;52.36946096269609;23;0.0;-0.25999999;9.39513397;-3.34959054;-0.91700727;-0.03;7.0588226400000025;3.5294113200000012;42.35293961;49.80392075;1781.5;131;13.100000000000001;0.04144750811712347;-0.21909612283190733;0.05927969681647796;9.888123531042897;-2.3686818508746943;-0.8856732805750298;22.74104988917543;9;1;0;0;0;0;0;0;0;0;0;0;0;0;0;0;0;0
132;2022-05-01 10:59:20.055;5.174590311201593;52.36946096269609;24;0.14;-0.27000001;9.43823147;-3.10058594;-0.34716985;-0.02;7.0588226400000025;3.5294113200000012;44.31372452;49.80392075;1781.5;132;13.200000000000001;0.050406853554002734;-0.22372376339690567;0.06115206931965019;9.847224124978329;-2.435218794140737;-0.8367182702927936;22.85550025684426;9;1;0;0;0;0;0;0;0;0;0;0;0;0;0;0;0;0
133;2022-05-01 10:59:20.154;5.174590311201593;52.36946096269609;24;0.01;-0.22;9.36640263;-2.45652604;-1.48445034;-0.07;7.0588226400000025;3.5294113200000012;44.31372452;49.80392075;1781.5;133;13.3;0.046733492797081236;-0.22338523849018477;0.06739969258182273;9.803512955822898;-2.4371558219935214;-0.8956031711594759;22.959545983572184;9;1;0;0;0;0;0;0;0;0;0;0;0;0;0;0;0;0
134;2022-05-01 10:59:20.254;5.174590311201593;52.36946096269609;24;0.22;-0.22;9.27063179;-2.55469131;-1.74782062;-0.01;7.0588226400000025;3.5294113200000012;44.31372452;49.80392075;1781.5;134;13.4;0.0624850341252998;-0.2230774887418646;0.06762478747380297;9.755069088384289;-2.4478408939485887;-0.9730776847440286;23.054132956579497;9;1;0;0;0;0;0;0;0;0;0;0;0;0;0;0;0;0
135;2022-05-01 10:59:20.355;5.174590311201593;52.36946096269609;24;-0.11;-0.22;8.29137325;-1.73345494;-1.40543926;-0.06;7.450979240000002;3.9215688699999998;44.31372452;49.80392075;1781.5;135;13.5;0.04680453966849842;-0.22279771638130944;0.07237488430857818;9.622005517990377;-2.382896563863869;-1.012383374762388;23.140121071469814;9;1;0;0;0;0;0;0;0;0;0;0;0;0;0;0;0;0
136;2022-05-01 10:59:20.454;5.174590311201593;52.36946096269609;24;0.1;-0.22;9.70160198;-3.39268732;-0.62730002;0.03;7.450979240000002;3.9215688699999998;44.31372452;50.58823395;1781.5;136;13.600000000000001;0.05164050092785057;-0.22254337798569537;0.0685113165809801;9.629241575433275;-2.4746959194159146;-0.9773757223490585;23.21829204997421;9;1;0;0;0;0;0;0;0;0;0;0;0;0;0;0;0;0
137;2022-05-01 10:59:20.554;5.174590311201593;52.36946096269609;24;0.08;-0.25999999;10.85085297;-2.70553064;-1.51318169;-0.07;7.450979240000002;3.9215688699999998;44.31372452;50.58823395;1826.75;137;13.700000000000001;0.054218642208819855;-0.22594853113856486;0.07408991044173725;9.740297372209598;-2.495680934726121;-1.0260854502704229;23.289356546935036;9;1;0;0;0;0;0;0;0;0;0;0;0;0;0;0;0;0
138;2022-05-01 10:59:20.657;5.174590311201593;52.36946096269609;25;0.02;-0.31;9.83568096;-2.90186095;-0.9433443;-0.1;7.450979240000002;3.9215688699999998;35.68627548;50.58823395;1826.75;138;13.8;0.05110785106707071;-0.2335895872386156;0.081888635065029;9.748968622756475;-2.532606455784459;-1.0185635142523706;23.444869862396573;9;1;0;0;0;0;0;0;0;0;0;0;0;0;0;0;0;0
139;2022-05-01 10:59:20.753;5.1746135436287055;52.36939477157614;25;0.02;-0.25;10.27622795;-2.39906335;-0.33040991;-0.01;7.450979240000002;3.9215688699999998;35.68627548;50.58823395;1826.75;139;13.9;0.048279860072213014;-0.23508144533614322;0.08079655103541425;9.796901365721734;-2.520466153975455;-0.9560039953801521;23.586245556123924;9;1;0;0;0;0;0;0;0;0;0;0;0;0;0;0;0;0
140;2022-05-01 10:59:20.854;5.1746135436287055;52.36939477157614;25;0.02;-0.20999999;7.99208927;-2.56905699;-2.32962942;-0.13;7.450979240000002;3.9215688699999998;35.68627548;50.58823395;1826.75;140;14.0;0.04570895995472793;-0.2328013097093851;0.0907128544859668;9.632827299687417;-2.5248835091435926;-1.080879215997158;23.71476887471797;9;1;0;0;0;0;0;0;0;0;0;0;0;0;0;0;0;0
141;2022-05-01 10:59:20.954;5.1746135436287055;52.36939477157614;25;-0.02;-0.14;8.95219326;-1.70951223;-1.12052059;-0.03;9.01960755;4.313725470000001;35.68627548;50.58823395;1826.75;141;14.100000000000001;0.03973541022529229;-0.22436481582958992;0.09063675215912895;9.57095139590777;-2.4507587491827962;-1.0844829820453847;23.831608222745697;9;1;0;0;0;0;0;0;0;0;0;0;0;0;0;0;0;0
142;2022-05-01 10:59:21.054;5.1746135436287055;52.36939477157614;25;0.1;-0.02;9.82370949;-1.37431371;-2.37512064;-0.06;9.01960755;4.313725470000001;35.68627548;49.80392075;1826.75;142;14.200000000000001;0.04521401589529673;-0.20578617382872294;0.09329484425571466;9.593929432141152;-2.352899991375569;-1.2018138195608334;23.937825784992146;9;1;0;0;0;0;0;0;0;0;0;0;0;0;0;0;0;0
143;2022-05-01 10:59:21.156;5.1746135436287055;52.36939477157614;25;0.11;-0.08;9.40710545;-1.06784654;-1.77176332;-0.18000001;9.01960755;4.313725470000001;35.68627548;49.80392075;1826.75;143;14.3;0.051103657263645824;-0.19435105459443452;0.10662039482526345;9.576945415165506;-2.2360768224085046;-1.2536274672509164;24.034387183009866;9;1;0;0;0;0;0;0;0;0;0;0;0;0;0;0;0;0
144;2022-05-01 10:59:21.254;5.1746135436287055;52.36939477157614;25;0.11;-0.1;9.35443211;-1.12052059;-1.49163318;-0.08;9.01960755;4.313725470000001;35.68627548;49.80392075;1826.75;144;14.4;0.0564578755700403;-0.18577367745578033;0.10964361012362106;9.55671691273936;-2.1346625184998302;-1.2752643717686059;24.122170253764555;9;1;0;0;0;0;0;0;0;0;0;0;0;0;0;0;0;0
145;2022-05-01 10:59:21.354;5.1746135436287055;52.36939477157614;25;0.02;-0.08;9.18443775;-0.98404694;-1.0175668;-0.02;9.01960755;4.313725470000001;35.68627548;49.80392075;1826.75;145;14.5;0.05314352024586571;-0.17615787989347864;0.10693743675409563;9.52287332186051;-2.0300610076039796;-1.2518372985871942;24.201973030192512;9;1;0;0;0;0;0;0;0;0;0;0;0;0;0;0;0;0
146;2022-05-01 10:59:21.454;5.1746135436287055;52.36939477157614;27;0.08;0.05;9.45499134;-0.23224466;-1.8699286;0.0;9.01960755;4.313725470000001;38.82352829;49.80392075;1908.5;146;14.600000000000001;0.055585020414110904;-0.1555980557145519;0.10265909625638603;9.51670222752311;-1.8666230233509098;-1.308027463128694;24.456339327640265;9;1;0;0;0;0;0;0;0;0;0;0;0;0;0;0;0;0
147;2022-05-01 10:59:21.554;5.1746135436287055;52.36939477157614;27;0.1;-0.05;9.78061295;-0.71109962;-1.62331831;-0.12;9.01960755;4.313725470000001;38.82352829;49.80392075;1908.5;147;14.700000000000001;0.059622748851098646;-0.14599822528741546;0.1096787954835835;9.540694129329802;-1.7615753626558872;-1.3366902888285774;24.68758137990718;9;1;0;0;0;0;0;0;0;0;0;0;0;0;0;0;0;0
148;2022-05-01 10:59:21.656;5.1746135436287055;52.36939477157614;27;0.13;0.03;9.84046936;-0.9241901;-1.43895912;-0.1;9.01960755;4.313725470000001;38.82352829;49.80392075;1908.5;148;14.8;0.06602068512413237;-0.12999837574550147;0.11424215626984366;9.567946441557854;-1.6854493779237654;-1.3459874616205076;24.897801397404432;9;1;0;0;0;0;0;0;0;0;0;0;0;0;0;0;0;0
149;2022-05-01 10:59:21.754;5.1746135436287055;52.36939477157614;27;0.02;-0.03;9.60343647;-0.25379312;-1.18756032;-0.07;9.01960755;4.313725470000001;38.82352829;49.80392075;1908.5;149;14.9;0.06183698389030908;-0.1209076086945912;0.11566339112385554;9.571172809774263;-1.55529872856836;-1.331584985297502;25.088910479411744;9;1;0;0;0;0;0;0;0;0;0;0;0;0;0;0;0;0
150;2022-05-01 10:59:21.853;5.174586753900144;52.36932857418614;27;0.11;0.01;10.34087276;-0.18435916;-1.71190643;-0.09;9.01960755;4.313725470000001;38.82352829;50.58823395;1908.5;150;15.0;0.06621544236079462;-0.10900691030737972;0.11877360549677218;9.641145571843872;-1.430667788661045;-1.3661596815181958;25.262645988006525;9;1;0;0;0;0;0;0;0;0;0;0;0;0;0;0;0;0
151;2022-05-01 10:59:21.953;5.174586753900144;52.36932857418614;27;0.02;0.02;10.22834206;0.15802214;-1.16361761;-0.05;9.01960755;4.313725470000001;38.82352829;50.58823395;1962.0;151;15.100000000000001;0.06201403636343381;-0.09727900337888928;0.11796470731109515;9.694527098038268;-1.286241357726663;-1.3477467565189898;25.420587342511887;9;1;0;0;0;0;0;0;0;0;0;0;0;0;0;0;0;0
152;2022-05-01 10:59:22.054;5.174586753900144;52.36932857418614;29;0.12;0.04;9.3592205;0.56744313;-1.21868587;-0.02;9.01960755;4.313725470000001;38.03921509;50.58823395;1962.0;152;15.200000000000001;0.06728549005133672;-0.08479908818477602;0.11450207140193855;9.664044665877867;-1.1177245078510647;-1.3360139432045703;25.74598864431837;9;1;0;0;0;0;0;0;0;0;0;0;0;0;0;0;0;0
153;2022-05-01 10:59:22.155;5.174586753900144;52.36932857418614;29;0.05;0.0;9.88835526;-0.08140534;-1.43656492;-0.06;9.01960755;4.313725470000001;38.03921509;50.58823395;1962.0;153;15.3;0.06571408120139013;-0.07709007691317175;0.11499058602619894;9.684436546680404;-1.023513634633472;-1.3451549449544684;26.041807983368546;9;1;0;0;0;0;0;0;0;0;0;0;0;0;0;0;0;0
154;2022-05-01 10:59:22.256;5.174586753900144;52.36932857418614;29;0.07;0.05;9.59385872;-0.44054657;-0.85475612;-0.1;9.01960755;4.313725470000001;38.03921509;50.58823395;1962.0;154;15.4;0.06610371033263153;-0.06553642912284446;0.1190710552263689;9.676202195639814;-0.9705166084160928;-1.3005732164833679;26.310734633555942;9;1;0;0;0;0;0;0;0;0;0;0;0;0;0;0;0;0
155;2022-05-01 10:59:22.365;5.174586753900144;52.36932857418614;29;0.08;-0.04;9.80694962;0.0287313;-1.3910737;-0.03;8.62745095;4.313725470000001;38.03921509;50.58823395;1962.0;155;15.5;0.06736700983410733;-0.06321493475617798;0.1164169338251359;9.688088329274558;-0.8796758577719074;-1.3088005360374753;26.5552133885392;9;1;0;0;0;0;0;0;0;0;0;0;0;0;0;0;0;0
156;2022-05-01 10:59:22.454;5.174586753900144;52.36932857418614;29;0.07;0.09;9.62019634;-0.11492519;-1.06305802;-0.05;8.62745095;4.313725470000001;38.03921509;49.80392075;1962.0;156;15.600000000000001;0.06760637265238975;-0.04928629990548002;0.11582227874331051;9.68191632829177;-0.8101530477392332;-1.286460300220224;26.777466787355074;9;1;0;0;0;0;0;0;0;0;0;0;0;0;0;0;0;0
157;2022-05-01 10:59:22.556;5.174586753900144;52.36932857418614;29;0.08;0.0;9.81413269;0.07422252;-1.81007171;-0.06;8.62745095;4.313725470000001;38.03921509;49.80392075;2054.5;157;15.700000000000001;0.06873306637253596;-0.04480572589472003;0.11619077441836495;9.693936001004129;-0.7297552456692317;-1.334061351199825;26.97951531949738;9;1;0;0;0;0;0;0;0;0;0;0;0;0;0;0;0;0
158;2022-05-01 10:59:22.654;5.174586753900144;52.36932857418614;31;0.1;0.02;10.22355366;-0.06464542;-1.48445034;-0.07;8.62745095;4.313725470000001;33.33333206;49.80392075;2054.5;158;15.8;0.07157551562929432;-0.038914294723441684;0.11743486161557004;9.742083073534983;-0.6692907002116755;-1.3477330810385393;27.345014022634196;9;1;0;0;0;0;0;0;0;0;0;0;0;0;0;0;0;0
159;2022-05-01 10:59:22.753;5.174545052063878;52.36925467547909;31;0.11;-0.02;9.48851109;0.00478855;-1.04869235;-0.03;8.62745095;4.313725470000001;33.33333206;49.80392075;2054.5;159;15.9;0.07506865140458881;-0.037194812975150766;0.11492948541705975;9.719031069537925;-0.6080107537696812;-1.3205475535560334;27.677285554310746;9;1;0;0;0;0;0;0;0;0;0;0;0;0;0;0;0;0
160;2022-05-01 10:59:22.853;5.174545052063878;52.36925467547909;31;0.11;0.06;9.43583679;0.05027977;-1.33361101;-0.03;8.62745095;4.313725470000001;33.33333206;49.80392075;2054.5;160;16.0;0.07824422923764522;-0.028358918972120523;0.11265187079476935;9.693286129456592;-0.548166147733809;-1.3217351407627869;27.979350569364108;9;1;0;0;0;0;0;0;0;0;0;0;0;0;0;0;0;0
161;2022-05-01 10:59:22.955;5.174545052063878;52.36925467547909;31;0.0;-0.04;10.79817963;1.1013664;-0.70870537;-0.05;8.62745095;4.313725470000001;33.33333206;49.01960754;2054.5;161;16.1;0.07113111608774714;-0.029417199274006343;0.11239949430917236;9.7937310129263;-0.39820861385826195;-1.2660051506257786;28.25395511714526;9;1;0;0;0;0;0;0;0;0;0;0;0;0;0;0;0;0
162;2022-05-01 10:59:23.056;5.174545052063878;52.36925467547909;31;0.04;0.06;10.23313046;0.12689656;-1.44135344;-0.01;8.62745095;4.313725470000001;33.33333206;49.01960754;2054.5;162;16.2;0.06830101411847392;-0.021288361520840696;0.10853369686159334;9.833676424358249;-0.3504717713235114;-1.281945907059564;28.50359560574113;9;1;0;0;0;0;0;0;0;0;0;0;0;0;0;0;0;0
163;2022-05-01 10:59:23.158;5.174545052063878;52.36925467547909;32;0.03;0.04;10.50607777;0.46927786;-1.16361761;-0.04;8.62745095;4.313725470000001;43.13725662;49.01960754;1735.25;163;16.3;0.06481910317728358;-0.015716691384719837;0.10774660883696309;9.894803829366877;-0.27594906543606185;-1.27118878739402;28.82145060241402;9;1;0;0;0;0;0;0;0;0;0;0;0;0;0;0;0;0
