;device_time;lon;lat;raw_speed_kph;raw_g_x;raw_g_y;raw_roll;raw_yaw;raw_pitch;raw_g_z;apps_d;apps_e;engine_load;engine_load_abs;engine_rpm;num_samples;cumulative_time;g_x;g_y;g_z;roll;yaw;pitch;speed_kph;sample_nr;roundabout_1;roundabout_2;roundabout_3;roundabout_4;turning_right_1;turning_right_2;turning_right_3;turning_left_1;turning_left_2;road_50km_1;road_50km_2;road_100km;entering_highway;exiting_highway;speed_bumps;road_50km_3;road_50km_4
0;2022-05-02 00:11:59.609;5.173754118005905;52.36972830168496;0;0.01;0.01;9.79737282;0.22266756;-0.5913859;0.0;0.0;0.0;0.0;0.0;0.0;0;0.0;0.01;0.01;0.03449679;9.79737282;0.22266756;-0.5913859;0.0;1;0;0;0;0;0;0;0;0;0;0;0;0;0;0;0;0;0
1;2022-05-02 00:11:59.711;5.173754118005905;52.36972830168496;0;0.02;0.01;9.84525776;0.22027329;-0.57223165;0.0;0.0;0.0;0.0;0.0;0.0;1;0.1;0.015238095238095238;0.01;0.03449679;9.822455407619048;0.22141341857142854;-0.5813527214285714;0.0;1;0;0;0;0;0;0;0;0;0;0;0;0;0;0;0;0;0
2;2022-05-02 00:11:59.814;5.173754118005905;52.36972830168496;0;0.02;0.0;9.79258442;0.10055954;-0.58659732;0.01;0.0;0.0;0.0;0.0;0.0;2;0.2;0.01697885196374622;0.00634441087613293;0.03084120087613293;9.811535801873113;0.17723420616314198;-0.5832699311782478;0.0;1;0;0;0;0;0;0;0;0;0;0;0;0;0;0;0;0;0
3;2022-05-02 00:11:59.912;5.173754118005905;52.36972830168496;0;0.01;0.0;9.81173801;0.15802214;-0.50998056;0.01;0.0;0.0;0.0;0.0;0.0;3;0.30000000000000004;0.014977375565610858;0.004524886877828054;0.029021676877828053;9.81159379347339;0.17172434620555915;-0.5622511522430511;0.0;1;0;0;0;0;0;0;0;0;0;0;0;0;0;0;0;0;0
4;2022-05-02 00:12:00.012;5.173754118005905;52.36972830168496;0;0.01;0.01;9.69920731;0.13168511;-0.76137936;0.0;0.0;0.0;0.0;0.0;0.0;4;0.4;0.013783721806358616;0.00583790601300552;0.03033469601300552;9.784641728731879;0.16212230107467526;-0.6100052609352835;0.0;1;0;0;0;0;0;0;0;0;0;0;0;0;0;0;0;0;0
5;2022-05-02 00:12:00.119;5.173754118005905;52.36972830168496;0;-0.03;0.01;10.14933109;-0.02394275;-0.71109962;0.0;0.0;0.0;0.0;0.0;0.0;5;0.5;0.004644571200462437;0.006706676464984622;0.031203466464984623;9.86076479135634;0.12328420202530971;-0.6311070890755494;0.0;1;0;0;0;0;0;0;0;0;0;0;0;0;0;0;0;0;0
6;2022-05-02 00:12:00.211;5.173754118005905;52.36972830168496;0;-0.01;0.01;10.12778282;0.39026681;-0.74222517;0.0;0.0;0.0;0.0;0.0;0.0;6;0.6000000000000001;0.0019099571410697653;0.007321646252607863;0.031818436252607864;9.910625674631447;0.17313847111840924;-0.6518564208374202;0.0;1;0;0;0;0;0;0;0;0;0;0;0;0;0;0;0;0;0
7;2022-05-02 00:12:00.308;5.173754118005905;52.36972830168496;0;0.03;0.03;9.96736622;0.46448931;-0.53871185;0.0;0.0;0.0;0.0;0.0;0.0;7;0.7000000000000001;0.006696603038639385;0.011186120560238778;0.03227483751342399;9.920294470798055;0.22278571817637063;-0.6325761727241983;0.0;1;0;0;0;0;0;0;0;0;0;0;0;0;0;0;0;0;0
8;2022-05-02 00:12:00.408;5.173754118005905;52.36972830168496;0;0.05;0.02;9.74230385;0.14844504;-0.58180881;0.0;0.0;0.0;0.0;0.0;0.0;8;0.8;0.013532262304203879;0.01257743581229006;0.03262558390212093;9.892197755029372;0.21105066778210035;-0.6245622888780051;0.0;1;0;0;0;0;0;0;0;0;0;0;0;0;0;0;0;0;0
9;2022-05-02 00:12:00.511;5.173754118005905;52.36972830168496;0;-0.01;0.0;9.68005276;0.0574626;-0.60575151;0.0;0.0;0.0;0.0;0.0;0.0;9;0.9;0.010050655648588877;0.01071659966876225;0.03290242951603538;9.860810826858096;0.1883272580180641;-0.6217792273902337;0.0;1;0;0;0;0;0;0;0;0;0;0;0;0;0;0;0;0;0
10;2022-05-02 00:12:00.611;5.173754118005905;52.36972830168496;0;0.0;0.0;9.98651981;0.18675344;-0.5411061;0.0;0.0;0.0;0.0;0.0;0.0;10;1.0;0.008643900627621437;0.009216634798923541;0.033125586561154545;9.878405872335593;0.18810697622984945;-0.610487692690277;0.0;1;0;0;0;0;0;0;0;0;0;0;0;0;0;0;0;0;0
11;2022-05-02 00:12:00.710;5.173754118005905;52.36972830168496;0;0.02;0.03;9.87638378;0.42618093;-0.77335078;-0.01;0.0;0.0;0.0;0.0;0.0;11;1.1;0.010159044982620137;0.011989576231514386;0.03464274611875886;9.878136082358672;0.2198710877701584;-0.6322170805094066;0.0;1;0;0;0;0;0;0;0;0;0;0;0;0;0;0;0;0;0
12;2022-05-02 00:12:00.808;5.173754118005905;52.36972830168496;0;0.03;0.01;9.58907032;0.06464542;-1.16122329;-0.04;0.0;0.0;0.0;0.0;0.0;12;1.2000000000000002;0.012698299853056667;0.011734949318064288;0.0397432856312665;9.841141308452741;0.20000523289790692;-0.6999195470874265;0.0;1;0;0;0;0;0;0;0;0;0;0;0;0;0;0;0;0;0
13;2022-05-02 00:12:00.908;5.173754118005905;52.36972830168496;0;0.01;0.0;9.78779507;0.15323359;-1.07981789;-0.04;0.0;0.0;0.0;0.0;865.75;13;1.3;0.012365314385605553;0.010286790181945959;0.044032064687707415;9.83455808082227;0.19423334755455882;-0.7468011518710258;0.0;1;0;0;0;0;0;0;0;0;0;0;0;0;0;0;0;0;0
14;2022-05-02 00:12:01.013;5.173754118005905;52.36972830168496;0;0.0;0.0;9.85962391;0.12929083;-0.77095652;-0.02;0.0;0.0;0.0;0.0;865.75;14;1.4000000000000001;0.010887392035900717;0.009057296402611072;0.045282825561249226;9.837553989215731;0.18647131295140215;-0.7496882404892268;0.0;1;0;0;0;0;0;0;0;0;0;0;0;0;0;0;0;0;0
15;2022-05-02 00:12:01.112;5.173754118005905;52.36972830168496;0;0.02;0.0;9.84046936;0.11253092;-0.90982443;-0.02;0.0;0.0;24.70588303;0.0;865.75;15;1.5;0.011946249086596058;0.00800486638543868;0.04635345992292307;9.837892746344588;0.17787966644183842;-0.7682955737579226;0.0;1;0;0;0;0;0;0;0;0;0;0;0;0;0;0;0;0;0
16;2022-05-02 00:12:01.212;5.173754118005905;52.36972830168496;0;0.0;0.0;9.93863487;0.33759275;-0.99122977;-0.03;0.0;0.0;24.70588303;0.0;865.75;16;1.6;0.010592368357851264;0.007097666622830141;0.04840966223115816;9.849309955110385;0.1959801149081624;-0.7935609361225006;0.0;1;0;0;0;0;0;0;0;0;0;0;0;0;0;0;0;0;0
17;2022-05-02 00:12:01.309;5.173754118005905;52.36972830168496;0;0.0;0.0;9.82370949;0.21787901;-1.02953815;-0.03;0.0;0.0;24.70588303;0.0;865.75;17;1.7000000000000002;0.009418250332639624;0.006310921105938166;0.05019285047095154;9.846472254746837;0.19840751231268025;-0.8197179853292937;0.0;1;0;0;0;0;0;0;0;0;0;0;0;0;0;0;0;0;0
18;2022-05-02 00:12:01.408;5.173754118005905;52.36972830168496;0;0.03;0.03;9.61780167;0.14844504;-0.93137288;-0.03;0.0;0.0;24.70588303;0.0;865.75;18;1.8;0.011655053710387445;0.008885425826982507;0.05174738790196576;9.821620570870591;0.19297764222700603;-0.8318525244028876;0.0;1;0;0;0;0;0;0;0;0;0;0;0;0;0;0;0;0;0
19;2022-05-02 00:12:01.507;5.173754118005905;52.36972830168496;0;0.01;0.01;9.75427532;0.20351335;-0.95292139;-0.03;0.0;0.0;24.70588303;0.0;865.75;19;1.9000000000000001;0.011478324630568791;0.009004441703476876;0.05310878788970159;9.814429345509254;0.19410266066494156;-0.8447804366980464;0.0;1;0;0;0;0;0;0;0;0;0;0;0;0;0;0;0;0;0
20;2022-05-02 00:12:01.608;5.173754118005905;52.36972830168496;0;0.02;0.01;9.78779507;0.1699935;-0.73743665;-0.03;0.0;0.0;24.70588303;0.0;865.75;20;2.0;0.012374064189419139;0.009109087903980632;0.05430581588528298;9.811629734733122;0.1915684724916002;-0.8334972004828828;0.0;1;0;0;0;0;0;0;0;0;0;0;0;0;0;0;0;0;0
21;2022-05-02 00:12:01.709;5.173754118005905;52.36972830168496;0;0.02;0.02;9.9266634;0.09337672;-0.65363705;-0.02;0.0;0.0;24.70588303;0.0;865.75;21;2.1;0.013164423545911491;0.010237832557703202;0.054325608627074085;9.823551934960554;0.1813917843788522;-0.8148563206846249;0.0;1;0;0;0;0;0;0;0;0;0;0;0;0;0;0;0;0;0
22;2022-05-02 00:12:01.810;5.173754118005905;52.36972830168496;0;0.0;0.0;9.98412609;0.2083019;-0.86672747;-0.01;0.0;0.0;24.70588303;0.0;865.75;22;2.2;0.011817202617594103;0.009190113131611773;0.05331974687332168;9.83998477468662;0.18414571210092937;-0.820164710960115;0.0;1;0;0;0;0;0;0;0;0;0;0;0;0;0;0;0;0;0
23;2022-05-02 00:12:01.909;5.173754118005905;52.36972830168496;0;0.0;0.0;9.63695621;0.13168511;-1.19474316;-0.05;5.882352830000002;3.5294113200000012;24.70588303;39.2156868;865.75;23;2.3000000000000003;0.010621518973567752;0.008260242644170038;0.05647429044357173;9.819442016648054;0.17883766366360587;-0.8580651633273211;0.0;1;0;0;0;0;0;0;0;0;0;0;0;0;0;0;0;0;0
24;2022-05-02 00:12:02.011;5.173754118005905;52.36972830168496;0;0.02;0.01;9.97215462;0.26097596;-1.60416412;-0.08;5.882352830000002;3.5294113200000012;24.70588303;39.2156868;865.75;24;2.4000000000000004;0.01156080004152478;0.00843448420232476;0.06228540582518813;9.834736610384784;0.18706404344574515;-0.9327890576178801;0.0;1;0;0;0;0;0;0;0;0;0;0;0;0;0;0;0;0;0
25;2022-05-02 00:12:02.108;5.173754118005905;52.36972830168496;0;0.06;0.02;9.77342987;0.08619389;-2.35836077;-0.11;5.882352830000002;3.5294113200000012;24.70588303;39.2156868;865.75;25;2.5;0.016367687765583505;0.009582193825066481;0.07044369278505844;9.828652805986481;0.1770541443818066;-1.0742563644662464;0.0;1;0;0;0;0;0;0;0;0;0;0;0;0;0;0;0;0;0
26;2022-05-02 00:12:02.209;5.173754118005905;52.36972830168496;0;-0.01;0.0;9.52681923;0.32083282;-3.24424243;-0.16;5.882352830000002;3.5294113200000012;24.70588303;39.2156868;865.75;26;2.6;0.013772684393059419;0.008639152269307346;0.08265250716828307;9.79894754117186;0.19120427204727664;-1.28781779649065;0.0;1;0;0;0;0;0;0;0;0;0;0;0;0;0;0;0;0;0
27;2022-05-02 00:12:02.310;5.173754118005905;52.36972830168496;0;0.02;0.0;9.7470932;0.36392978;-3.20353961;-0.15000001;5.882352830000002;3.5294113200000012;24.70588303;39.2156868;865.75;27;2.7;0.014380985639629152;0.0077952562109690985;0.09260093666758426;9.79388226708494;0.2080765727999362;-1.474950750847381;0.0;1;0;0;0;0;0;0;0;0;0;0;0;0;0;0;0;0;0
28;2022-05-02 00:12:02.408;5.173754118005905;52.36972830168496;0;0.01;0.02;9.82610416;0.31365001;-2.61694241;-0.2;5.882352830000002;3.5294113200000012;24.70588303;39.2156868;865.75;28;2.8000000000000003;0.01395591821902113;0.008979427853682886;0.10636845597314631;9.79700861307992;0.21831989070297161;-1.5857530882302926;0.0;1;0;0;0;0;0;0;0;0;0;0;0;0;0;0;0;0;0
29;2022-05-02 00:12:02.508;5.173754118005905;52.36972830168496;0;0.0;-0.01;9.3735857;-0.37111259;-2.71271324;-0.20999999;5.882352830000002;3.5294113200000012;24.70588303;39.2156868;865.75;29;2.9000000000000004;0.012610069752340221;0.0071491338182430855;0.11968895485965984;9.756175536432231;0.16147756847692038;-1.6944322570579333;0.0;1;0;0;0;0;0;0;0;0;0;0;0;0;0;0;0;0;0
30;2022-05-02 00:12:02.608;5.173754118005905;52.36972830168496;0;-0.03;-0.03;9.65132141;0.17717634;-2.94495797;-0.20999999;5.882352830000002;3.5294113200000012;24.70588303;39.2156868;865.75;30;3.0;0.00852352335481831;0.0035863220261393436;0.13165873034170514;9.746119433376604;0.16298316934981352;-1.8143647372658838;0.0;1;0;0;0;0;0;0;0;0;0;0;0;0;0;0;0;0;0
31;2022-05-02 00:12:02.710;5.173754118005905;52.36972830168496;0;0.04;0.02;10.08468533;-0.21548474;-3.15565419;-0.25;5.882352830000002;3.5294113200000012;24.70588303;39.2156868;865.75;31;3.1;0.011527286799828607;0.005152660166580498;0.14624388807021999;9.778428381911992;0.12686641829062334;-1.9423624249587133;0.0;1;0;0;0;0;0;0;0;0;0;0;0;0;0;0;0;0;0
32;2022-05-02 00:12:02.811;5.173754118005905;52.36972830168496;0;-0.03;-0.04;9.75427532;-0.95770991;-2.7605989;-0.25;5.882352830000002;3.5294113200000012;24.70588303;39.2156868;865.75;32;3.2;0.00758221696694043;0.0008631818205363838;0.15937783913573178;9.776133854066236;0.02383225247024467;-2.0200944484692758;0.0;1;0;0;0;0;0;0;0;0;0;0;0;0;0;0;0;0;0
33;2022-05-02 00:12:02.912;5.173754118005905;52.36972830168496;0;0.01;-0.05;9.64174461;-0.74940801;-3.00242066;-0.20999999;5.882352830000002;3.5294113200000012;24.70588303;39.2156868;865.75;33;3.3000000000000003;0.007810969368339641;-0.003949108953763939;0.16743115155501;9.763418957037832;-0.04932591121940312;-2.1130347482283844;0.0;1;0;0;0;0;0;0;0;0;0;0;0;0;0;0;0;0;0
34;2022-05-02 00:12:03.007;5.173754118005905;52.36972830168496;0;0.02;-0.1;10.12778282;-0.78053361;-2.60257673;-0.23;5.882352830000002;3.5294113200000012;24.70588303;39.2156868;1988.0;34;3.4000000000000004;0.008959948451879878;-0.01300318947111632;0.1765808855801333;9.797765122044098;-0.11825201182663848;-2.159180624349938;0.0;1;0;0;0;0;0;0;0;0;0;0;0;0;0;0;0;0;0
35;2022-05-02 00:12:03.109;5.173754118005905;52.36972830168496;7;0.03;-0.1;9.5818882;-1.16122329;-2.99763203;-0.22;5.882352830000002;3.5294113200000012;32.54901886;39.2156868;1988.0;35;3.5;0.010936624260861007;-0.02117638669155392;0.1839009476555229;9.77748386519708;-0.21623732760936587;-2.2379516580978462;0.657637678844194;1;0;0;0;0;0;0;0;0;0;0;0;0;0;0;0;0;0
36;2022-05-02 00:12:03.225;5.173754118005905;52.36972830168496;7;-0.02;-0.11;9.69441891;-1.0606637;-2.84918714;-0.2;5.882352830000002;3.5294113200000012;32.54901886;39.2156868;1988.0;36;3.6;0.008038989209573383;-0.029495924503253355;0.18863993549694225;9.769703703933098;-0.2953293266018461;-2.2952021629368984;1.2516860538311652;1;0;0;0;0;0;0;0;0;0;0;0;0;0;0;0;0;0
37;2022-05-02 00:12:03.311;5.173754118005905;52.36972830168496;7;0.05;-0.11;8.90670204;-1.34318817;-2.67440486;-0.2;5.882352830000002;3.5294113200000012;32.54901886;39.2156868;1988.0;37;3.7;0.011958411779864855;-0.03701551196215187;0.1929232543959918;9.689093915558072;-0.39320593929372266;-2.330622082085357;1.7886147644921484;1;0;0;0;0;0;0;0;0;0;0;0;0;0;0;0;0;0
38;2022-05-02 00:12:03.410;5.173754118005905;52.36972830168496;7;0.0;-0.17;9.32570076;-1.77655196;-2.82524419;-0.16;5.882352830000002;3.5294113200000012;32.54901886;39.2156868;1988.0;38;3.8000000000000003;0.010844203242913237;-0.04940615836081481;0.19306986640730717;9.655235259103847;-0.5220972982971174;-2.3767078153205548;2.2741784016737485;1;0;0;0;0;0;0;0;0;0;0;0;0;0;0;0;0;0
39;2022-05-02 00:12:03.508;5.173813759152633;52.36973933114197;7;0.02;-0.13;10.49650097;-0.89067024;-2.24822402;-0.18000001;11.37254906;5.88235283;32.54901886;39.2156868;1988.0;39;3.9000000000000004;0.011695354529164759;-0.05689841204393072;0.19506178066356566;9.73344193088851;-0.5563609830130432;-2.364763562892177;2.713505446466132;1;0;0;0;0;0;0;0;0;0;0;0;0;0;0;0;0;0
40;2022-05-02 00:12:03.610;5.173813759152633;52.36973933114197;7;0.14;0.0;11.09267521;0.0383084;-2.29850388;-0.17;11.37254906;5.88235283;32.54901886;60.0;1988.0;40;4.0;0.02359850340765426;-0.05161980138238225;0.19593709051995775;9.859541465496081;-0.5011919891429596;-2.35861648328167;3.1111744681162166;1;0;0;0;0;0;0;0;0;0;0;0;0;0;0;0;0;0
41;2022-05-02 00:12:03.710;5.173813759152633;52.36973933114197;12;0.2;-0.05;10.54678059;-1.27375424;-1.57303858;-0.04;11.37254906;5.88235283;32.54901886;60.0;2158.0;41;4.1000000000000005;0.03993328055863848;-0.051469807787536424;0.18469171967865314;9.923179802840528;-0.5727312472943561;-2.28587197582152;3.934279640136625;1;0;0;0;0;0;0;0;0;0;0;0;0;0;0;0;0;0
42;2022-05-02 00:12:03.811;5.173813759152633;52.36973933114197;12;0.06;-0.17;10.441432;-0.58420306;-2.33441782;-0.09;11.37254906;5.88235283;36.07843018;60.0;2158.0;42;4.2;0.04178832192460779;-0.06242717480076134;0.17912707893596386;9.971088942475665;-0.5737917438630058;-2.290359732246287;4.679904502118165;1;0;0;0;0;0;0;0;0;0;0;0;0;0;0;0;0;0
43;2022-05-02 00:12:03.909;5.173813759152633;52.36973933114197;12;0.0;0.04;9.46696281;-1.12052059;-1.63768399;-0.22;11.37254906;5.88235283;36.07843018;60.0;2158.0;43;4.3;0.03793117484742173;-0.05297293831287465;0.18608385650802076;9.924557075464596;-0.6242559279643731;-2.230116434223998;5.355564199708255;1;0;0;0;0;0;0;0;0;0;0;0;0;0;0;0;0;0
44;2022-05-02 00:12:04.014;5.173813759152633;52.36973933114197;12;0.07;-0.20999999;10.34326744;-2.05668211;-1.64247251;-0.1;11.37254906;5.88235283;36.07843018;60.0;2158.0;44;4.4;0.040887075212385535;-0.06744669334389884;0.1813288887786772;9.963151134132344;-0.7562878640929223;-2.1759511543355696;5.968006037337655;1;0;0;0;0;0;0;0;0;0;0;0;0;0;0;0;0;0
45;2022-05-02 00:12:04.108;5.173813759152633;52.36973933114197;12;-0.06;-0.23999999;10.18285084;-1.31924546;-2.38469768;-0.1;11.37254906;5.88235283;36.07843018;60.0;2158.0;45;4.5;0.031599690557438505;-0.08333147180685556;0.17701765550483706;9.983376080416853;-0.8081121808015446;-2.195167781194342;6.523294691009378;1;0;0;0;0;0;0;0;0;0;0;0;0;0;0;0;0;0
46;2022-05-02 00:12:04.210;5.173813759152633;52.36973933114197;12;0.03;-0.07;9.5435791;-0.40702671;-2.68877053;-0.03;12.54901886;5.88235283;36.07843018;60.0;2158.0;46;4.6000000000000005;0.03145259636092003;-0.08210562089167725;0.1666711755396745;9.942936019578303;-0.7712317073947027;-2.2405553715612805;7.026886815904071;1;0;0;0;0;0;0;0;0;0;0;0;0;0;0;0;0;0
47;2022-05-02 00:12:04.309;5.173813759152633;52.36973933114197;12;0.08;0.0;10.36242104;-0.16759923;-3.0934031;-0.18000001;12.54901886;6.27450943;36.07843018;62.74509811;2158.0;47;4.7;0.035911961360345634;-0.07456373595829398;0.17106424086979174;9.981468189738399;-0.7157845085656466;-2.318894459235534;7.483696556672315;1;0;0;0;0;0;0;0;0;0;0;0;0;0;0;0;0;0
48;2022-05-02 00:12:04.409;5.173813759152633;52.36973933114197;16;0.14;0.02;11.09985828;0.2753416;-1.73584926;-0.11;12.54901886;6.27450943;36.07843018;62.74509811;2447.75;48;4.800000000000001;0.04546401697068237;-0.06588571611662984;0.16862617237076194;10.084101734147971;-0.6248298529721176;-2.265388982148794;8.265229239469711;1;0;0;0;0;0;0;0;0;0;0;0;0;0;0;0;0;0
49;2022-05-02 00:12:04.507;5.173860369337723;52.36971848963445;16;-0.12;0.19;9.15570641;1.0606637;-1.03193247;-0.13;12.54901886;6.27450943;30.58823586;62.74509811;2447.75;49;4.9;0.030292595074304006;-0.04242351431869965;0.1682475486478204;9.998977019982659;-0.47028668241500127;-2.152293159387762;8.974431594327132;1;0;0;0;0;0;0;0;0;0;0;0;0;0;0;0;0;0
50;2022-05-02 00:12:04.609;5.173860369337723;52.36971848963445;16;0.03;-0.03;9.0479641;-1.74782062;-0.9337672;-0.14;12.54901886;6.27450943;30.58823586;62.74509811;2447.75;50;5.0;0.030265787923834612;-0.04128528935543864;0.1688200953786426;9.911846549639119;-0.5873325505864302;-2.0406535194455353;9.61810432132663;1;0;0;0;0;0;0;0;0;0;0;0;0;0;0;0;0;0
51;2022-05-02 00:12:04.710;5.173860369337723;52.36971848963445;16;-0.01;-0.02;8.84445095;-0.57462597;-3.19635677;-0.19;12.54901886;6.27450943;30.58823586;62.74509811;2447.75;51;5.1000000000000005;0.02657930847270479;-0.03933654363689953;0.1739174994333381;9.81412259719246;-0.5861692168820307;-2.1464623587716636;10.202390100688156;1;0;0;0;0;0;0;0;0;0;0;0;0;0;0;0;0;0
52;2022-05-02 00:12:04.811;5.173860369337723;52.36971848963445;16;0.05;0.05;10.14933109;0.58180881;-2.38230348;-0.17;12.54901886;6.27450943;30.58823586;62.35293961;2447.75;52;5.2;0.028722176849077498;-0.031162726309992412;0.17671534144627968;9.844792386677186;-0.47930545604103136;-2.1680405636653792;10.732840488854618;1;0;0;0;0;0;0;0;0;0;0;0;0;0;0;0;0;0
53;2022-05-02 00:12:04.908;5.173860369337723;52.36971848963445;16;0.0;0.13;9.09106159;0.81405342;-2.72947335;-0.23;12.54901886;6.27450943;30.58823586;62.35293961;2447.75;53;5.300000000000001;0.02609578878816021;-0.01642582588390092;0.18474217554255817;9.775870397374616;-0.3610392700076885;-2.2193786072539567;11.21447546129103;1;0;0;0;0;0;0;0;0;0;0;0;0;0;0;0;0;0
54;2022-05-02 00:12:05.009;5.173860369337723;52.36971848963445;16;-0.05;0.02;9.42386532;0.91461295;-2.16921306;-0.18000001;12.54901886;6.27450943;30.58823586;62.35293961;2072.25;54;5.4;0.019141204576507313;-0.013096778670870257;0.18746152499370128;9.743699774104698;-0.24445422725949134;-2.214793852585436;11.651836502307813;1;0;0;0;0;0;0;0;0;0;0;0;0;0;0;0;0;0
55;2022-05-02 00:12:05.112;5.173860369337723;52.36971848963445;19;0.0;0.02;10.86043072;0.77813929;-0.62011719;-0.15000001;12.54901886;6.27450943;36.86274338;62.35293961;2072.25;55;5.5;0.01739268732413582;-0.010073442899465155;0.18719070228871929;9.845711291580018;-0.1510420075663811;-2.069122787562337;12.323079035535349;1;0;0;0;0;0;0;0;0;0;0;0;0;0;0;0;0;0
56;2022-05-02 00:12:05.210;5.173860369337723;52.36971848963445;19;0.16;0.13;11.23633194;1.44135344;-0.45251793;0.01;12.54901886;6.27450943;36.86274338;62.35293961;2072.25;56;5.6000000000000005;0.03041390897271263;0.0027164155786821337;0.17233540873444933;9.972686404934278;-0.005643193958025112;-1.9215134555196622;12.932736886713958;1;0;0;0;0;0;0;0;0;0;0;0;0;0;0;0;0;0
57;2022-05-02 00:12:05.311;5.173860369337723;52.36971848963445;19;0.19;0.15000001;10.68804264;1.02474964;-1.97048819;-0.18000001;12.54901886;6.27450943;36.86274338;62.35293961;2072.25;57;5.7;0.04497961908163429;0.01615925465275963;0.17618355489185994;10.037978257610808;0.08840261680863234;-1.9259834677902181;13.486506924527385;1;0;0;0;0;0;0;0;0;0;0;0;0;0;0;0;0;0
58;2022-05-02 00:12:05.411;5.173860369337723;52.36971848963445;19;-0.03;0.01;9.26584339;-0.48843205;-1.44853628;-0.22;12.54901886;6.27450943;36.86274338;62.35293961;2072.25;58;5.800000000000001;0.03813857545430554;0.015597292211399653;0.18332875334090443;9.967529669311682;0.03577296664867207;-1.882421802881489;13.989550913417451;1;0;0;0;0;0;0;0;0;0;0;0;0;0;0;0;0;0
59;2022-05-02 00:12:05.510;5.17392088339885;52.369686078915024;19;0.03;-0.01;8.94261646;-0.48603779;-1.87471712;-0.14;12.15686226;6.27450943;36.86274338;62.35293961;2072.25;59;5.9;0.03739626701691899;0.01326259787951643;0.1825232019340948;9.87404872450352;-0.011820685281464498;-1.8817190691976364;14.446547184195817;1;0;0;0;0;0;0;0;0;0;0;0;0;0;0;0;0;0
60;2022-05-02 00:12:05.609;5.17392088339885;52.369686078915024;19;-0.16;-0.18000001;8.03997517;-1.78134048;-1.28093708;-0.06;12.15686226;6.27450943;36.86274338;69.41176605;2072.25;60;6.0;0.0193974126494722;-0.004359343945747393;0.17449683652793008;9.706815456592405;-0.17316785545223284;-1.826938967762251;14.861737072734467;1;0;0;0;0;0;0;0;0;0;0;0;0;0;0;0;0;0
61;2022-05-02 00:12:05.711;5.17392088339885;52.369686078915024;23;-0.04;-0.01;12.62501144;2.04710507;-2.20991564;-0.11;12.15686226;6.27450943;36.86274338;69.41176605;2284.0;61;6.1000000000000005;0.013982951537768644;-0.004873526491550882;0.17176213684945482;9.972828031277007;0.029224485829929495;-1.8618497863657166;15.603592755852166;1;0;0;0;0;0;0;0;0;0;0;0;0;0;0;0;0;0
62;2022-05-02 00:12:05.810;5.17392088339885;52.369686078915024;23;0.01;0.18000001;12.21080112;1.69275224;-1.34797668;-0.20999999;12.15686226;6.27450943;36.47058868;69.41176605;2284.0;62;6.2;0.013619969368255465;0.011974732073721963;0.17839073333605496;10.176783394367336;0.18082836740573258;-1.8150184922276005;16.277656681216385;1;0;0;0;0;0;0;0;0;0;0;0;0;0;0;0;0;0
63;2022-05-02 00:12:05.910;5.17392088339885;52.369686078915024;23;0.18000001;0.16;10.62100315;1.25938857;-1.90823698;-0.11;12.15686226;6.27450943;36.47058868;69.41176605;2284.0;63;6.300000000000001;0.028779433329087938;0.025461828878726837;0.1753025383185368;10.217257800736235;0.2790997373292737;-1.8235119527442785;16.89015275277943;1;0;0;0;0;0;0;0;0;0;0;0;0;0;0;0;0;0
64;2022-05-02 00:12:06.011;5.17392088339885;52.369686078915024;23;-0.06;0.17;9.05035877;1.80288899;-2.06625915;-0.14;12.15686226;6.27450943;36.47058868;69.41176605;2284.0;64;6.4;0.020692083435810568;0.03862851308653358;0.17522913878968677;10.110959298957015;0.4179091032809948;-1.8456249742651787;17.446728421601147;1;0;0;0;0;0;0;0;0;0;0;0;0;0;0;0;0;0
65;2022-05-02 00:12:06.110;5.17392088339885;52.369686078915024;23;0.13;0.16;10.89395046;3.19156837;-2.01837373;-0.03;11.37254906;5.88235283;36.47058868;69.41176605;2284.0;65;6.5;0.030647623185169535;0.04968277795943736;0.16514386468908454;10.182272520104933;0.6705282725868466;-1.8613585748901653;17.95250895127824;1;0;0;0;0;0;0;0;0;0;0;0;0;0;0;0;0;0
66;2022-05-02 00:12:06.211;5.17392088339885;52.369686078915024;23;0.0;0.06;8.90670204;2.66961646;-0.75180227;-0.12;11.37254906;5.88235283;36.47058868;64.31372833;2284.0;66;6.6000000000000005;0.02785677206205995;0.05062229064351424;0.16417431477735625;10.066115802649303;0.8525703669877225;-1.7603195337564794;18.412146423884188;1;0;0;0;0;0;0;0;0;0;0;0;0;0;0;0;0;0
67;2022-05-02 00:12:06.310;5.17392088339885;52.369686078915024;26;0.06;0.30000001;8.54995537;2.81087852;-1.78373468;-0.07;11.37254906;5.88235283;36.47058868;64.31372833;2140.0;67;6.7;0.03078336763616919;0.07332778030868566;0.15874076030596307;9.928071533405468;1.030871562636558;-1.7624514498009947;19.10300979130094;1;0;0;0;0;0;0;0;0;0;0;0;0;0;0;0;0;0
68;2022-05-02 00:12:06.414;5.17392088339885;52.369686078915024;26;0.11;0.34999999;10.74550533;3.58901787;-0.09098244;0.05;11.37254906;5.88235283;32.54901886;64.31372833;2140.0;68;6.800000000000001;0.037994924294622506;0.09851488125542304;0.14287830532953766;10.002487346887683;1.2637546893950213;-1.6102877802869098;19.730883435744587;1;0;0;0;0;0;0;0;0;0;0;0;0;0;0;0;0;0
69;2022-05-02 00:12:06.508;5.1740018759535005;52.369648605922855;26;-0.16;0.11;9.72554398;1.88429427;-3.0981915;-0.22;11.37254906;5.88235283;32.54901886;64.31372833;2140.0;69;6.9;0.01997256530017254;0.0995603067068384;0.1530383051796056;9.977278757339425;1.3202389004512949;-1.7457232470362714;20.301525686810276;1;0;0;0;0;0;0;0;0;0;0;0;0;0;0;0;0;0
70;2022-05-02 00:12:06.609;5.1740018759535005;52.369648605922855;26;0.08;0.20999999;9.97454929;1.86514008;-2.04471064;-0.12;11.37254906;5.88235283;32.54901886;64.31372833;2140.0;70;7.0;0.025435893746939886;0.10961184841280504;0.15317104751064617;9.977030337985264;1.3698324592930502;-1.7729352433071737;20.820165821510418;1;0;0;0;0;0;0;0;0;0;0;0;0;0;0;0;0;0
71;2022-05-02 00:12:06.711;5.1740018759535005;52.369648605922855;26;-0.06;0.08;9.591465;1.81007171;-2.88988972;-0.11;11.37254906;5.88235283;32.54901886;65.88235474;2140.0;71;7.1000000000000005;0.017660857975851804;0.10691704216030015;0.15238165256813327;9.941942224974982;1.4098961347808032;-1.8745829305975608;21.2915531302843;1;0;0;0;0;0;0;0;0;0;0;0;0;0;0;0;0;0
72;2022-05-02 00:12:06.811;5.1740018759535005;52.369648605922855;26;0.1;0.28999999;10.62579155;2.9258039;-1.35994804;-0.07;11.37254906;5.88235283;32.54901886;65.88235474;2140.0;72;7.2;0.025153362413557315;0.12357679553439839;0.14802433797302328;10.00416954452817;1.547837159897704;-1.8277533899099803;21.72000135307121;1;0;0;0;0;0;0;0;0;0;0;0;0;0;0;0;0;0
73;2022-05-02 00:12:06.911;5.1740018759535005;52.369648605922855;26;-0.06;0.1;10.03680038;1.63768399;-1.02474964;-0.09;11.37254906;5.88235283;32.54901886;65.88235474;1944.75;73;7.300000000000001;0.01740544685607226;0.12143159520714127;0.14588361857213394;10.00713855186552;1.556012123669064;-1.754689859941188;22.109428935995112;1;0;0;0;0;0;0;0;0;0;0;0;0;0;0;0;0;0
74;2022-05-02 00:12:07.009;5.1740018759535005;52.369648605922855;29;0.1;0.18000001;9.77582359;1.56346142;-2.0351336;-0.03;11.37254906;5.88235283;38.4313736;65.88235474;1944.75;74;7.4;0.024919950711219385;0.12676018604029052;0.1384789942502641;9.986093372655425;1.5566898652859888;-1.780204805971001;22.736337380361903;1;0;0;0;0;0;0;0;0;0;0;0;0;0;0;0;0;0
75;2022-05-02 00:12:07.113;5.1740018759535005;52.369648605922855;29;0.0;0.1;8.92825031;0.8930645;-1.88429427;-0.1;11.37254906;5.88235283;38.4313736;65.88235474;1944.75;75;7.5;0.022652880251370463;0.12432570180013146;0.13811671674315834;9.889857036304145;1.4963171350394169;-1.7896742528337273;23.30616854335246;1;1;0;0;0;0;0;0;0;0;0;0;0;0;0;0;0;0
76;2022-05-02 00:12:07.212;5.1740018759535005;52.369648605922855;29;0.0;0.12;9.73751545;1.25220573;-1.84119737;-0.12;11.37254906;5.88235283;38.4313736;65.88235474;1944.75;76;7.6000000000000005;0.02059218851451749;0.12393220049448264;0.13960678251999825;9.875998796442703;1.4741107599712457;-1.794361218050657;23.82412614095364;1;1;0;0;0;0;0;0;0;0;0;0;0;0;0;0;0;0
77;2022-05-02 00:12:07.309;5.1740018759535005;52.369648605922855;29;0.02;0.15000001;9.89793205;1.52275872;-1.43895912;-0.1;11.37254906;5.88235283;38.4313736;65.88235474;1944.75;77;7.7;0.020538321375434047;0.12630340203894094;0.1391419631743979;9.877993907105877;1.4785359157531504;-1.762032839878986;24.294938239142958;1;1;0;0;0;0;0;0;0;0;0;0;0;0;0;0;0;0
78;2022-05-02 00:12:07.409;5.1740018759535005;52.369648605922855;29;-0.01;0.04;9.63695621;0.59856868;-0.59856868;-0.01;0.0;5.88235283;38.4313736;65.88235474;1944.75;78;7.800000000000001;0.017760618702649125;0.11845342274352232;0.1305332335962162;9.856069615745465;1.3984959124843086;-1.6562065416075609;24.722900944364337;1;1;0;0;0;0;0;0;0;0;0;0;0;0;0;0;0;0
79;2022-05-02 00:12:07.509;5.174110654498746;52.36961755396192;29;0.0;0.05;9.97933769;0.31125572;-0.33759275;0.03;0.0;0.0;38.4313736;33.72549057;1944.75;79;7.9;0.01614522839171619;0.1122273448291539;0.1190697787910407;9.867281277688775;1.299607619120179;-1.5362740111880164;25.111918043883723;1;1;0;0;0;0;0;0;0;0;0;0;0;0;0;0;0;0
80;2022-05-02 00:12:07.611;5.174110654498746;52.36961755396192;29;0.02;0.04;9.86920071;0.53392327;-0.59617442;0.0;0.0;0.0;38.4313736;33.72549057;1944.75;80;8.0;0.016495817767717025;0.10565830719812182;0.11137791157300399;9.867455849010932;1.229969045048818;-1.450772465948612;25.465536977857816;1;1;0;0;0;0;0;0;0;0;0;0;0;0;0;0;0;0
81;2022-05-02 00:12:07.709;5.174110654498746;52.36961755396192;30;0.01;0.07;9.44301987;0.74701375;-0.95770991;0.0;0.0;0.0;12.94117641;33.72549057;1917.75;81;8.1;0.015905050529158835;0.1024153344996285;0.104385897709151;9.82885518621045;1.1860462971815668;-1.405930505316367;25.877927271694006;1;1;0;0;0;0;0;0;0;0;0;0;0;0;0;0;0;0
82;2022-05-02 00:12:07.813;5.174110654498746;52.36961755396192;30;0.0;0.0;9.78540134;0.15802214;-0.81644773;0.03;0.0;0.0;12.94117641;33.72549057;1917.75;82;8.200000000000001;0.014458606316066469;0.09310143338077799;0.09530173783603535;9.824903387109122;1.0925552648614656;-1.3523214993273065;26.25279865188065;1;1;0;0;0;0;0;0;0;0;0;0;0;0;0;0;0;0
83;2022-05-02 00:12:07.910;5.174110654498746;52.36961755396192;30;0.08;0.09;10.6497345;0.52434617;-0.22985038;-0.02;0.0;0.0;12.94117641;33.72549057;1917.75;83;8.3;0.020418902218978477;0.09281939084805813;0.09159095981110485;9.899913044768613;1.0408826630179326;-1.2502446340423436;26.593566944820644;1;1;0;0;0;0;0;0;0;0;0;0;0;0;0;0;0;0
84;2022-05-02 00:12:08.008;5.174110654498746;52.36961755396192;30;0.06;0.04;10.30256462;0.51476908;-0.09816527;0.05;0.0;0.0;12.94117641;33.72549057;1917.75;84;8.4;0.02401827489529157;0.08801617206797771;0.08185217412246351;9.936528832586838;0.9930396530582668;-1.145478389133733;26.90333657603035;1;1;0;0;0;0;0;0;0;0;0;0;0;0;0;0;0;0
85;2022-05-02 00:12:08.110;5.174110654498746;52.36961755396192;30;0.02;0.01;9.61061954;0.12929083;0.00478855;0.09;0.0;0.0;12.94117641;18.43137169;1917.75;85;8.5;0.02365287648536103;0.08092183781625446;0.06936187909248517;9.906892548261851;0.9144953884797812;-1.0408798433628517;27.184929030676603;1;1;0;0;0;0;0;0;0;0;0;0;0;0;0;0;0;0
86;2022-05-02 00:12:08.222;5.174110654498746;52.36961755396192;30;0.05;0.01;9.68244743;0.25858167;0.04549122;0.06;0.0;0.0;12.94117641;18.43137169;1580.25;86;8.6;0.02604866971795879;0.07447278241978317;0.06073561906332943;9.88648333375604;0.8548519269448333;-0.942094090138268;27.44090870048155;1;1;0;0;0;0;0;0;0;0;0;0;0;0;0;0;0;0
87;2022-05-02 00:12:08.315;5.174110654498746;52.36961755396192;30;0.05;0.01;9.81892109;0.30646718;-0.22266756;0.07;0.0;0.0;8.62745094;18.43137169;1580.25;87;8.700000000000001;0.02822655937756703;0.06861028524301878;0.051984641635282866;9.880339912479497;0.8049874118722178;-0.8766767800187214;27.673606359174588;1;1;0;0;0;0;0;0;0;0;0;0;0;0;0;0;0;0
88;2022-05-02 00:12:08.409;5.174110654498746;52.36961755396192;30;-0.1;0.0;8.60502338;0.11013664;-0.42378664;0.02;0.0;0.0;8.62745094;18.43137169;1580.25;88;8.8;0.016567185495381505;0.062371694956459924;0.0485759493926044;9.764378037322826;0.7418060789181907;-0.8354964231904196;27.885140485857765;1;1;0;0;0;0;0;0;0;0;0;0;0;0;0;0;0;0
89;2022-05-02 00:12:08.508;5.174232928251966;52.36959459802449;30;0.07;0.03;10.17806244;0.4764607;-0.2466103;0.05;0.0;0.0;8.62745094;18.43137169;1580.25;89;8.9;0.021425628527206347;0.05942825959285995;0.042749474625693465;9.801992790021055;0.7176792306661568;-0.7819512429808775;28.077436635050592;1;1;0;0;0;0;0;0;0;0;0;0;0;0;0;0;0;0
90;2022-05-02 00:12:08.609;5.174232928251966;52.36959459802449;30;0.09;0.06;10.71677399;0.40702671;0.1053481;0.03;-0.39215659999999986;0.0;8.62745094;12.15686321;1580.25;90;9.0;0.027660729161601148;0.05948024488851348;0.0392713627151586;9.885168949245264;0.6894332593640302;-0.701273861949203;28.252245033567462;1;1;0;0;0;0;0;0;0;0;0;0;0;0;0;0;0;0
91;2022-05-02 00:12:08.711;5.174232928251966;52.36959459802449;30;0.02;0.01;9.591465;0.409421;-0.43336374;0.0;-0.39215659999999986;0.0;8.62745094;12.15686321;1580.25;91;9.1;0.026964190890555205;0.054981340998485916;0.03883724312238284;9.858464436307763;0.663973639151021;-0.6769146072096447;28.41115656755471;1;1;0;0;0;0;0;0;0;0;0;0;0;0;0;0;0;0
92;2022-05-02 00:12:08.811;5.174232928251966;52.36959459802449;30;-0.08;-0.05;8.78459454;-0.48603779;-0.73025382;-0.01;-0.39215659999999986;0.0;8.23529434;12.15686321;1513.25;92;9.200000000000001;0.017238798268597314;0.04543623295167628;0.0393518201503484;9.760826093236668;0.5594123595759127;-0.681764312351276;28.5556173077959;1;1;0;0;0;0;0;0;0;0;0;0;0;0;0;0;0;0
93;2022-05-02 00:12:08.909;5.174232928251966;52.36959459802449;30;0.05;-0.02;10.13496494;1.26417708;-1.21868587;-0.09;-0.39215659999999986;0.0;8.23529434;12.15686321;1513.25;93;9.3;0.02021747225730847;0.03948671966426927;0.04709326715342492;9.79484308871068;0.6234901171044561;-0.7305816387381019;28.68694170762367;1;1;0;0;0;0;0;0;0;0;0;0;0;0;0;0;0;0
94;2022-05-02 00:12:09.010;5.174232928251966;52.36959459802449;30;0.14;0.01;7.79336452;-1.28572559;-0.28970724;0.09;-0.39215659999999986;0.0;8.23529434;12.15686321;1513.25;94;9.4;0.031108065721009385;0.03680579547195721;0.037765224537009166;9.612869224667993;0.4499047662822403;-0.6904974633938962;28.806324595311015;1;1;0;0;0;0;0;0;0;0;0;0;0;0;0;0;0;0
95;2022-05-02 00:12:09.110;5.174232928251966;52.36959459802449;30;0.09;-0.1;10.94423008;-1.43656492;1.63768399;0.01;-0.39215659999999986;0.0;8.23529434;12.15686321;1513.25;95;9.5;0.03646244679618685;0.024367583495772133;0.036558875048713656;9.733914890009041;0.27838929967735043;-0.47882211487204274;28.914852071526916;1;1;0;0;0;0;0;0;0;0;0;0;0;0;0;0;0;0
96;2022-05-02 00:12:09.208;5.174232928251966;52.36959459802449;30;0.02;-0.11;9.85722923;-1.07981789;-2.32962942;-0.17;-0.39215659999999986;0.0;8.23529434;12.15686321;1513.25;96;9.600000000000001;0.034965716162126036;0.012151168710490658;0.05182743293927654;9.745126367413858;0.15490399197311486;-0.6470935769228846;29.013511412215536;1;1;0;0;0;0;0;0;0;0;0;0;0;0;0;0;0;0
97;2022-05-02 00:12:09.310;5.174232928251966;52.36959459802449;30;-0.05;-0.14;9.20598698;-1.65204966;-0.48843205;0.03;-0.39215659999999986;0.0;8.23529434;12.94117641;1513.25;97;9.700000000000001;0.027240881872049424;-0.0016819703298172962;0.047524269380329526;9.69610939191896;-0.009378946626573277;-0.6326685351642635;29.103200067992248;1;1;0;0;0;0;0;0;0;0;0;0;0;0;0;0;0;0
98;2022-05-02 00:12:09.409;5.174232928251966;52.36959459802449;29;-0.01;-0.2;9.21077538;-2.00400805;0.19633053;0.0;-0.39215659999999986;0.0;8.23529434;12.94117641;1488.0;98;9.8;0.023855076893710192;-0.01971232134187779;0.046339858530643485;9.651984595965997;-0.1907233404394046;-0.557298967614405;29.093817494690853;1;1;0;0;0;0;0;0;0;0;0;0;0;0;0;0;0;0
99;2022-05-02 00:12:09.509;5.174353936282187;52.36957341870954;29;0.03;-0.22;9.71117878;-2.10696173;-1.10854924;-0.05;-0.39215659999999986;0.0;8.62745094;12.94117641;1488.0;99;9.9;0.024413746807291498;-0.03792161349930128;0.04980892221749311;9.657366275949094;-0.3649394725178047;-0.6074162655379711;29.08528801258916;1;1;0;0;0;0;0;0;0;0;0;0;0;0;0;0;0;0
100;2022-05-02 00:12:09.611;5.174353936282187;52.36957341870954;29;-0.01;-0.2;9.46696281;-1.97767103;-0.01675992;0.06;-0.39215659999999986;0.0;8.62745094;12.94117641;1488.0;100;10.0;0.02128501797167607;-0.052656984347305404;0.04296191305397398;9.640055727997082;-0.511561104746831;-0.5537166916272243;29.077534045379075;1;1;0;0;0;0;0;0;0;0;0;0;0;0;0;0;0;0
101;2022-05-02 00:12:09.709;5.174353936282187;52.36957341870954;29;0.05;-0.25999999;9.61540794;-2.54511404;0.1340794;0.17;-0.39215659999999986;0.0;8.62745094;12.94117641;1488.0;101;10.100000000000001;0.023895627445941422;-0.07150747899311985;0.026736837913370448;9.637814885610295;-0.6964406409400111;-0.49118602413825996;29.070485073060546;1;1;0;0;0;0;0;0;0;0;0;0;0;0;0;0;0;0
102;2022-05-02 00:12:09.811;5.174353936282187;52.36957341870954;29;0.02;-0.27000001;10.22355366;-2.205127;0.21787901;0.09;-0.39215659999999986;0.0;8.62745094;12.94117641;1488.0;102;10.200000000000001;0.023541460187218963;-0.08955323838852333;0.01926006228970884;9.691066768376748;-0.8336014242733657;-0.4267220519331342;29.064076989779196;1;1;0;0;0;0;0;0;0;0;0;0;0;0;0;0;0;0
103;2022-05-02 00:12:09.915;5.174353936282187;52.36957341870954;29;0.20999999;-0.25999999;9.66089916;-3.00002623;0.65603131;0.13;-0.39215659999999986;0.0;8.62745094;10.98039246;1488.0;103;10.3;0.040493075803777985;-0.10504916565615757;0.008826520414703175;9.688324122589574;-1.0305588957590124;-0.32828504925239455;29.05825152016033;1;1;0;0;0;0;0;0;0;0;0;0;0;0;0;0;0;0
104;2022-05-02 00:12:10.010;5.174353936282187;52.36957341870954;28;-0.07;-0.30000001;8.88036537;-2.93777514;-0.96010423;-0.03;-0.39215659999999986;0.0;8.62745094;10.98039246;1483.0;104;10.4;0.03044779811459997;-0.12277276827041891;0.013887682057164993;9.614870017233892;-1.203950003277234;-0.3857257447329854;28.962042501561882;1;1;0;0;0;0;0;0;0;0;0;0;0;0;0;0;0;0
105;2022-05-02 00:12:10.109;5.174353936282187;52.36957341870954;28;0.25;-0.22;9.30175781;-1.65444386;-0.88827598;0.04;-0.39215659999999986;0.0;9.01960754;10.98039246;1483.0;105;10.5;0.05040790679018104;-0.13161196958510812;0.012124801478178581;9.586404105116547;-1.244905667855636;-0.43141400121471407;28.87458050975855;1;1;0;0;0;0;0;0;0;0;0;0;0;0;0;0;0;0
106;2022-05-02 00:12:10.210;5.174353936282187;52.36957341870954;28;-0.11;-0.64999998;11.58110714;-4.35279179;-0.46927786;0.03;-0.39215659999999986;0.0;9.01960754;10.98039246;1483.0;106;10.600000000000001;0.03582482676909755;-0.1787399072854546;0.011431320065610012;9.767747497459748;-1.5274512912140257;-0.4348562983783763;28.79507022991074;1;1;0;0;0;0;0;0;0;0;0;0;0;0;0;0;0;0
107;2022-05-02 00:12:10.309;5.174353936282187;52.36957341870954;28;0.03;-0.34999999;11.01845264;-3.00002623;0.30167863;0.16;-0.39215659999999986;0.0;9.01960754;10.98039246;1483.0;107;10.700000000000001;0.035295279136335414;-0.19430953278389407;-0.0010176950062790804;9.881451814132195;-1.6613262721896;-0.36789631085761065;28.722788671193396;1;1;0;0;0;0;0;0;0;0;0;0;0;0;0;0;0;0
108;2022-05-02 00:12:10.409;5.174353936282187;52.36957341870954;28;-0.1;-0.18000001;8.655303;-1.78373468;-0.12450229;0.05;-0.39215659999999986;0.0;9.01960754;10.98039246;1483.0;108;10.8;0.02299532977546622;-0.19300862704096167;-0.0023346005334064363;9.769980309590501;-1.6724546517385668;-0.3457689007188563;28.657078587951467;1;1;0;0;0;0;0;0;0;0;0;0;0;0;0;0;0;0
109;2022-05-02 00:12:10.508;5.174460718135776;52.36954148448695;28;0.04;-0.25;10.90592194;-2.370332;-1.37431371;0.25;-0.39215659999999986;0.0;9.01960754;10.98039246;1483.0;109;10.9;0.02454125213740493;-0.19818980590133456;-0.02171410721518461;9.873250619753502;-1.735899822054854;-0.4392755903475462;28.597342499614996;1;1;0;0;0;0;0;0;0;0;0;0;0;0;0;0;0;0
110;2022-05-02 00:12:10.610;5.174460718135776;52.36954148448695;28;-0.13;-0.49000001;10.54678059;-2.4517374;-0.83320761;0.0;-0.39215659999999986;0.0;9.01960754;19.6078434;1483.0;110;11.0;0.010491690063316654;-0.22471868100512477;-0.016603895677861462;9.934482174402246;-1.8009776206827783;-0.47508850299404937;28.54303725482269;1;1;0;0;0;0;0;0;0;0;0;0;0;0;0;0;0;0
111;2022-05-02 00:12:10.712;5.174460718135776;52.36954148448695;28;0.06;-0.25999999;9.48132801;-2.5977881;-0.33519846;0.0;-0.39215659999999986;0.0;9.01960754;19.6078434;1483.0;111;11.100000000000001;0.014992549579509783;-0.2279261468939103;-0.011958271383448217;9.893285388736146;-1.8734166118950397;-0.46237093230671084;28.493669090182415;1;1;0;0;0;0;0;0;0;0;0;0;0;0;0;0;0;0
112;2022-05-02 00:12:10.808;5.174460718135776;52.36954148448695;27;0.04;-0.27000001;10.09426212;-2.62891364;0.21548474;0.08;-0.39215659999999986;0.0;9.01960754;19.6078434;1793.5;112;11.200000000000001;0.017266001950484534;-0.23175112393980027;-0.015007875359450307;9.911556384720134;-1.9420996036006744;-0.40074639404023993;28.357878136789402;1;1;0;0;0;0;0;0;0;0;0;0;0;0;0;0;0;0
113;2022-05-02 00:12:10.910;5.174460718135776;52.36954148448695;27;-0.12;-0.25;8.98331928;-2.27934957;0.2466103;0.04;-0.39215659999999986;0.0;7.84313726;19.6078434;1793.5;113;11.3;0.004787036042114825;-0.2334101443744702;-0.014143798360734865;9.827169580849612;-1.9727592773253755;-0.34189466090389387;28.23443231090436;1;1;0;0;0;0;0;0;0;0;0;0;0;0;0;0;0;0
114;2022-05-02 00:12:11.009;5.174460718135776;52.36954148448695;27;0.09;-0.27000001;9.95539474;-1.82443738;0.02394275;0.04;-0.39215659999999986;0.0;7.84313726;19.6078434;1793.5;114;11.4;0.01253380370337391;-0.23673655358020748;-0.013358276682128842;9.838826616001645;-1.9592752342374635;-0.30863613670246237;28.122209242230756;1;1;0;0;0;0;0;0;0;0;0;0;0;0;0;0;0;0
115;2022-05-02 00:12:11.110;5.174460718135776;52.36954148448695;27;-0.04;-0.2;9.9314518;-2.72707891;-0.32801566;0.0;-0.39215659999999986;0.0;7.84313726;19.6078434;1793.5;115;11.5;0.007757927944096162;-0.23339681414854985;-0.009007747369302384;9.847247220255893;-2.0290766707308796;-0.3103979393708103;28.0201886090577;1;1;0;0;0;0;0;0;0;0;0;0;0;0;0;0;0;0
116;2022-05-02 00:12:11.210;5.174460718135776;52.36954148448695;27;0.04;-0.22;10.05116558;-2.16203022;-0.22266756;0.04;0.0;0.0;7.84313726;19.6078434;1793.5;116;11.600000000000001;0.010689067485332188;-0.23217890446801448;-0.008689148488960866;9.86578551910944;-2.041163530555977;-0.30242233583343364;27.927442858525826;1;1;0;0;0;0;0;0;0;0;0;0;0;0;0;0;0;0
117;2022-05-02 00:12:11.311;5.174460718135776;52.36954148448695;27;-0.02;-0.33000001;9.84046936;-3.54113245;-0.2657645;0.03;0.0;0.0;7.84313726;12.15686321;1793.5;117;11.700000000000001;0.007899115846110718;-0.241071848310634;-0.00749041116272791;9.863484020061287;-2.177526121162037;-0.2990897618077588;27.8431287709549;1;1;0;0;0;0;0;0;0;0;0;0;0;0;0;0;0;0
118;2022-05-02 00:12:11.411;5.174460718135776;52.36954148448695;27;0.01;-0.25;9.83328629;-2.43258309;-0.11492519;0.02;0.0;0.0;7.84313726;12.15686321;1645.25;118;11.8;0.00809010758077725;-0.24188350809461645;-0.005491550976764167;9.860738739300938;-2.2007133934478356;-0.28234732935684664;27.766479791422242;1;1;0;0;0;0;0;0;0;0;0;0;0;0;0;0;0;0
119;2022-05-02 00:12:11.508;5.174539845029508;52.36949295758883;27;-0.03;-0.30000001;9.13894653;-2.91622663;-0.31125572;0.04;0.0;0.0;12.15686321;12.15686321;1645.25;119;11.9;0.004627333177001166;-0.24716688343841642;-0.005492610899400202;9.795120557942122;-2.2657607529450874;-0.2849753932172909;27.69679905877742;1;1;0;0;0;0;0;0;0;0;0;0;0;0;0;0;0;0
120;2022-05-02 00:12:11.609;5.174539845029508;52.36949295758883;27;0.02;-0.27000001;9.84525776;-2.57863402;-0.39505535;0.02;0.0;0.0;12.15686321;12.15686321;1645.25;120;12.0;0.006024862046682076;-0.24924264257131787;-0.0036753748162800665;9.799678530096704;-2.294204056133475;-0.29498276014642416;27.633453068636594;1;1;0;0;0;0;0;0;0;0;0;0;0;0;0;0;0;0
121;2022-05-02 00:12:11.711;5.174539845029508;52.36949295758883;27;-0.05;-0.27000001;10.21876526;-2.43258309;-0.06464542;0.02;8.62745095;0.0;12.15686321;12.15686321;1645.25;121;12.100000000000001;0.0009316473667273833;-0.25112969279585723;-0.0020233451061182905;9.83777766335542;-2.3067840804466035;-0.2740428152841242;27.575865912677976;1;1;0;0;0;0;0;0;0;0;0;0;0;0;0;0;0;0
122;2022-05-02 00:12:11.810;5.174539845029508;52.36949295758883;27;0.1;-0.25999999;9.75427532;-3.22508812;-0.14844504;0.03;8.62745095;4.313725470000001;12.15686321;29.80392075;1645.25;122;12.200000000000001;0.00993793422947745;-0.2519360899858265;-0.0014306007474131008;9.830186479713205;-2.390266942406119;-0.2626247431807214;27.52351404181104;1;1;0;0;0;0;0;0;0;0;0;0;0;0;0;0;0;0
123;2022-05-02 00:12:11.909;5.174539845029508;52.36949295758883;27;0.02;-0.31;9.67287064;-3.10776877;-0.49082634;0.03;8.62745095;4.313725470000001;12.15686321;29.80392075;1956.75;123;12.3;0.010852674220486674;-0.25721466614857874;-0.0008917430731886916;9.815884934375822;-2.4554948618304864;-0.28337049573128503;27.475921505564422;1;1;0;0;0;0;0;0;0;0;0;0;0;0;0;0;0;0
124;2022-05-02 00:12:12.011;5.174539845029508;52.36949295758883;26;0.0;-0.28;9.65850449;-2.72707891;-1.21150303;-0.06;8.62745095;4.313725470000001;23.92156792;29.80392075;1956.75;124;12.4;0.009866060865301911;-0.25928607400837783;0.007779999830863124;9.801577525426515;-2.480184486114368;-0.3677467457768641;27.341745924596054;1;1;0;0;0;0;0;0;0;0;0;0;0;0;0;0;0;0
125;2022-05-02 00:12:12.115;5.174539845029508;52.36949295758883;26;0.0;-0.23999999;9.83568096;-2.55708551;-1.47966182;-0.07;8.62745095;4.313725470000001;23.92156792;29.80392075;1956.75;125;12.5;0.008969140780142775;-0.2575327829687881;0.01657248883525423;9.804677856537328;-2.487175530851878;-0.46883054980744293;27.21976827967973;1;1;0;0;0;0;0;0;0;0;0;0;0;0;0;0;0;0
126;2022-05-02 00:12:12.211;5.174539845029508;52.36949295758883;26;0.02;-0.28;9.65132141;-2.88988972;-2.00161386;-0.07;8.62745095;4.313725470000001;23.92156792;29.80392075;1956.75;126;12.600000000000001;0.009971951714469868;-0.2595752685498063;0.024565651366270244;9.790736284228949;-2.5237861143284057;-0.6081752583908117;27.108879640469628;1;1;0;0;0;0;0;0;0;0;0;0;0;0;0;0;0;0
127;2022-05-02 00:12:12.314;5.174539845029508;52.36949295758883;26;0.03;-0.27000001;9.7662468;-3.69436598;-1.3096683;-0.06;10.588233950000003;5.4901962300000005;23.92156792;29.80392075;1956.75;127;12.700000000000001;0.011792692538667214;-0.2605229770868275;0.030923059595859288;9.788509956278093;-2.630203001237529;-0.6719476739821499;27.008071893167408;1;1;0;0;0;0;0;0;0;0;0;0;0;0;0;0;0;0
128;2022-05-02 00:12:12.410;5.174539845029508;52.36949295758883;26;-0.01;-0.34999999;9.46696281;-3.39987016;-1.29051411;-0.06;10.588233950000003;5.4901962300000005;23.92156792;52.94117737;1956.75;128;12.8;0.009811529608686188;-0.2686572881984297;0.03670251607072194;9.759278263805166;-2.700173063021243;-0.7281812435878628;26.916428574566208;1;1;0;0;0;0;0;0;0;0;0;0;0;0;0;0;0;0
129;2022-05-02 00:12:12.508;5.1745897071794325;52.36943163815828;28;0.03;-0.33000001;8.95937634;-4.20434666;-1.41262209;0.0;10.588233950000003;5.4901962300000005;23.92156792;52.94117737;2273.25;129;12.9;0.011646852731246798;-0.27423392246249284;0.03650199468494263;9.686559604685158;-2.836916685959019;-0.7904033974755404;27.014935477441835;1;1;0;0;0;0;0;0;0;0;0;0;0;0;0;0;0;0
130;2022-05-02 00:12:12.610;5.1745897071794325;52.36943163815828;28;-0.03;-0.40000001;8.6505146;-3.85957098;-2.10696173;-0.01;10.588233950000003;5.4901962300000005;29.41176414;52.94117737;2273.25;130;13.0;0.007860760896607496;-0.28566724637229773;0.03722879700677189;9.592373339089766;-2.9298856096208636;-0.9100909711023787;27.10448713623146;1;1;0;0;0;0;0;0;0;0;0;0;0;0;0;0;0;0
131;2022-05-02 00:12:12.713;5.1745897071794325;52.36943163815828;28;0.05;-0.41999999;10.11102295;-3.25381947;-2.24582982;-0.02;10.588233950000003;5.4901962300000005;29.41176414;52.94117737;2273.25;131;13.100000000000001;0.01169161398131616;-0.2978793559464863;0.03879861994691866;9.639523465767741;-2.9593342435943017;-1.0315221928932983;27.185897676373077;1;1;0;0;0;0;0;0;0;0;0;0;0;0;0;0;0;0
132;2022-05-02 00:12:12.812;5.1745897071794325;52.36943163815828;28;-0.05;-0.41;9.12697601;-4.04393005;-1.75021493;-0.11;10.588233950000003;5.4901962300000005;29.41176414;52.94117737;2273.25;132;13.200000000000001;0.006083267914591727;-0.30807217361643047;0.04840757451984816;9.592928096931464;-3.0579341704284975;-1.0968581004050797;27.25990720975969;1;1;0;0;0;0;0;0;0;0;0;0;0;0;0;0;0;0
133;2022-05-02 00:12:12.910;5.1745897071794325;52.36943163815828;28;0.0;-0.37;9.98412609;-3.84759951;-1.350371;-0.12;10.588233950000003;5.09803868;29.41176414;52.94117737;2273.25;133;13.3;0.005530241987902433;-0.3137019920058982;0.05805207604869275;9.628491651861665;-3.1297221324782107;-1.1199047931029107;27.327188563615064;1;1;0;0;0;0;0;0;0;0;0;0;0;0;0;0;0;0
134;2022-05-02 00:12:13.013;5.1745897071794325;52.36943163815828;28;0.0;-0.44;9.57470512;-4.33842611;-0.75180227;-0.03;10.588233950000003;5.09803868;29.41176414;52.54901886;2273.25;134;13.4;0.0050274914180795105;-0.32518365874406896;0.05863796064803818;9.623601954520861;-3.2396045959898654;-1.0864408409561375;27.388353397589032;1;1;0;0;0;0;0;0;0;0;0;0;0;0;0;0;0;0
135;2022-05-02 00:12:13.111;5.1745897071794325;52.36943163815828;28;0.0;-0.31;8.94979954;-3.23705959;-1.61134696;-0.13;10.588233950000003;5.09803868;29.41176414;52.54901886;2326.75;135;13.5;0.004570445670820392;-0.32380332289071384;0.06826151317985431;9.562347045772091;-3.239373231265853;-1.1341596910682537;27.44395776469986;1;1;0;0;0;0;0;0;0;0;0;0;0;0;0;0;0;0
136;2022-05-02 00:12:13.209;5.1745897071794325;52.36943163815828;30;0.11;-0.33000001;10.75747681;-3.2586081;-1.06545234;-0.04;10.588233950000003;5.09803868;35.29411697;52.54901886;2326.75;136;13.600000000000001;0.014154971063577411;-0.32436665928464836;0.06882835773680807;9.670995438016236;-3.2411218594278695;-1.1279135549143755;27.6763257365183;1;1;0;0;0;0;0;0;0;0;0;0;0;0;0;0;0;0
137;2022-05-02 00:12:13.312;5.1745897071794325;52.36943163815828;30;0.0;-0.34999999;9.86680603;-3.62014341;-1.67359805;-0.07;10.588233950000003;5.09803868;35.29411697;52.54901886;2326.75;137;13.700000000000001;0.01286815301587172;-0.3266969665978296;0.07207094877874576;9.688796435458398;-3.275578430872272;-1.177521332526595;27.887569261199996;1;1;0;0;0;0;0;0;0;0;0;0;0;0;0;0;0;0
138;2022-05-02 00:12:13.411;5.1745897071794325;52.36943163815828;30;0.12;-0.16;11.3344965;-2.49243999;-1.33600533;-0.1;12.54901886;5.09803868;35.29411697;52.54901886;2326.75;138;13.8;0.022607429009457218;-0.3115426701799746;0.077746035262372;9.838405796096104;-3.204383901593119;-1.1919289940708684;28.079608757966586;1;1;0;0;0;0;0;0;0;0;0;0;0;0;0;0;0;0
139;2022-05-02 00:12:13.509;5.174601607450314;52.36935711780422;30;-0.03;-0.34999999;10.11102295;-2.21470428;-1.28811979;-0.11;12.54901886;6.27450943;35.29411697;64.31372833;2326.75;139;13.9;0.01782492779519479;-0.3150387957690713;0.08381429542251499;9.863189213459833;-3.114412882649216;-1.2006736259031756;28.254190059881807;1;1;0;0;0;0;0;0;0;0;0;0;0;0;0;0;0;0
140;2022-05-02 00:12:13.611;5.174601607450314;52.36935711780422;30;-0.15000001;-0.36000001;8.09025478;-3.48366976;-1.81007171;-0.12;12.54901886;6.27450943;35.29411697;64.31372833;2378.75;140;14.0;0.0025680930303532876;-0.3191261848386566;0.09023998611367742;9.702013120946072;-3.147981738610285;-1.256073532479768;28.41290028577032;1;1;0;0;0;0;0;0;0;0;0;0;0;0;0;0;0;0
141;2022-05-02 00:12:13.713;5.174601607450314;52.36935711780422;32;0.07;-0.2;10.63057995;-2.03034496;-3.61056638;-0.17;12.54901886;6.27450943;36.86274338;64.31372833;2378.75;141;14.100000000000001;0.00869827451414771;-0.30829651732144225;0.10062698204865439;9.786428399079826;-3.0463782604685736;-1.4701186204244394;28.73900069189695;1;1;0;0;0;0;0;0;0;0;0;0;0;0;0;0;0;0
142;2022-05-02 00:12:13.813;5.174601607450314;52.36935711780422;32;0.01;-0.28999999;10.21397591;-1.92739117;-1.8268317;-0.03;12.54901886;6.27450943;36.86274338;64.31372833;2378.75;142;14.200000000000001;0.00881661333723172;-0.3066331946522035;0.09734241517852228;9.82529640143876;-2.944652038794768;-1.5025471212676926;29.035455531563876;1;1;0;0;0;0;0;0;0;0;0;0;0;0;0;0;0;0
143;2022-05-02 00:12:13.914;5.174601607450314;52.36935711780422;32;0.02;-0.23;9.68723583;-1.76697481;-2.04949927;-0.1;12.54901886;6.27450943;36.86274338;64.31372833;2378.75;143;14.3;0.009833285965385899;-0.29966653296372886;0.10072008931572562;9.812745426654315;-2.837590355297568;-1.5522700983312974;29.30495986928288;1;1;0;0;0;0;0;0;0;0;0;0;0;0;0;0;0;0
144;2022-05-02 00:12:14.010;5.174601607450314;52.36935711780422;32;0.0;-0.1;9.69202423;-0.99841261;-1.54670155;-0.09;12.54901886;6.27450943;36.86274338;64.31372833;2378.75;144;14.4;0.00893934998767055;-0.28151501189638034;0.10288160971164018;9.801770761487248;-2.670392211999152;-1.5517638661608393;29.54996376144215;1;1;0;0;0;0;0;0;0;0;0;0;0;0;0;0;0;0
145;2022-05-02 00:12:14.109;5.174601607450314;52.36935711780422;32;0.01;-0.04;10.5970602;-0.66081983;-1.81725454;-0.1;12.54901886;6.27450943;36.86274338;64.31372833;2378.75;145;14.5;0.00903577280333068;-0.2595590818529784;0.10575571961176755;9.874069866785655;-2.487703648295062;-1.5758994038080358;29.772694530164113;1;1;0;0;0;0;0;0;0;0;0;0;0;0;0;0;0;0
146;2022-05-02 00:12:14.209;5.174601607450314;52.36935711780422;32;0.05;-0.02;9.3687973;-0.73983091;-1.68796372;-0.14;12.54901886;6.27450943;36.86274338;64.31372833;2378.75;146;14.600000000000001;0.012759796521566004;-0.23778096558445752;0.11200491297049094;9.828135959285103;-2.328805995896606;-1.5860870772984472;29.975177012199037;1;1;0;0;0;0;0;0;0;0;0;0;0;0;0;0;0;0
147;2022-05-02 00:12:14.312;5.174601607450314;52.36935711780422;32;0.0;-0.05;9.72793865;-0.59856868;-2.15484738;-0.11;12.54901886;6.27450943;36.86274338;65.88235474;2378.75;147;14.700000000000001;0.011599814151976607;-0.22070995594458662;0.1149587221825262;9.819027106173333;-2.171511576800382;-1.6377925980362622;30.159251966953896;1;1;0;0;0;0;0;0;0;0;0;0;0;0;0;0;0;0
148;2022-05-02 00:12:14.409;5.174601607450314;52.36935711780422;32;-0.01;-0.07;9.48132801;-0.66800267;-1.52275872;-0.09;12.54901886;6.27450943;36.86274338;65.88235474;2421.75;148;14.8;0.009636193348411369;-0.2070090415425009;0.11582581984644262;9.788327167464349;-2.0348288559692542;-1.6273349656493592;30.32659281101761;1;1;0;0;0;0;0;0;0;0;0;0;0;0;0;0;0;0
149;2022-05-02 00:12:14.508;5.174572794403598;52.36927281776845;36;-0.01;-0.02;10.07271385;-0.62011719;-1.18037748;-0.07;12.54901886;6.27450943;37.25490189;65.88235474;2421.75;149;14.9;0.00785108375871814;-0.19000820907494603;0.11479590740557527;9.81418051822169;-1.9062186250164757;-1.5867024418367743;30.84235741974745;1;1;0;0;0;0;0;0;0;0;0;0;0;0;0;0;0;0
150;2022-05-02 00:12:14.609;5.174572794403598;52.36927281776845;36;-0.04;-0.04;9.5866766;-0.32801566;-1.76458049;-0.06;12.54901886;6.27450943;37.25490189;65.88235474;2421.75;150;15.0;0.0035009827906204247;-0.17637109149554248;0.11295053205895245;9.793498332215362;-1.7627455475708254;-1.6028731825752682;31.311234281441745;1;1;0;0;0;0;0;0;0;0;0;0;0;0;0;0;0;0
151;2022-05-02 00:12:14.709;5.174572794403598;52.36927281776845;36;0.06;-0.01;10.08947372;0.11013664;-1.40543926;-0.09;12.54901886;6.27450943;37.25490189;65.88235474;2421.75;151;15.100000000000001;0.008637259706360789;-0.16124643908737243;0.11400019240801673;9.820405199396287;-1.5924834435368396;-1.5849246349899297;31.737485928161494;1;1;0;0;0;0;0;0;0;0;0;0;0;0;0;0;0;0
152;2022-05-02 00:12:14.811;5.174572794403598;52.36927281776845;36;-0.04;-0.02;9.24908352;-0.15323359;-1.41980493;-0.08;12.54901886;6.27450943;37.25490189;65.88235474;2421.75;152;15.200000000000001;0.004215688588641072;-0.14840584775225232;0.11404533766461833;9.768466840784045;-1.4616424869944509;-1.5699137457466283;32.12498738738639;1;1;0;0;0;0;0;0;0;0;0;0;0;0;0;0;0;0
153;2022-05-02 00:12:14.911;5.174572794403598;52.36927281776845;36;0.05;0.02;9.35203743;0.01675992;-1.88668859;-0.07;12.54901886;6.27450943;37.25490189;66.66666412;2421.75;153;15.3;0.008377900474265699;-0.13309621876547204;0.113177287510428;9.73060960563823;-1.3272422114318982;-1.5987114710192019;32.477261409993275;1;1;0;0;0;0;0;0;0;0;0;0;0;0;0;0;0;0
154;2022-05-02 00:12:15.010;5.174572794403598;52.36927281776845;38;-0.02;-0.04;9.93863487;0.19154198;-1.23065722;-0.09;12.54901886;6.27450943;36.07843018;66.66666412;2517.0;154;15.4;0.0057980903500446865;-0.12463292290200054;0.11420633358627229;9.749521000566157;-1.1891708683064262;-1.565251980811215;32.979328747245575;1;1;0;0;0;0;0;0;0;0;0;0;0;0;0;0;0;0
155;2022-05-02 00:12:15.109;5.174572794403598;52.36927281776845;38;0.04;-0.02;9.90750885;0.08858817;-1.66880953;-0.07;12.54901886;6.27450943;36.07843018;66.66666412;2517.0;155;15.5;0.008907355948600041;-0.11512083568274464;0.11332364749770443;9.763883537344421;-1.0730109152011604;-1.5746663067497029;33.43575356584823;1;1;0;0;0;0;0;0;0;0;0;0;0;0;0;0;0;0
156;2022-05-02 00:12:15.211;5.174572794403598;52.36927281776845;38;0.0;-0.03;9.62019634;-0.26815879;-1.6017698;-0.1;12.54901886;6.27450943;36.07843018;66.66666412;2517.0;156;15.600000000000001;0.00809759606004427;-0.10738257543874187;0.11524847924485483;9.750821060715001;-0.999842516973042;-1.577130261463142;33.85068519148296;1;1;0;0;0;0;0;0;0;0;0;0;0;0;0;0;0;0
157;2022-05-02 00:12:15.327;5.174572794403598;52.36927281776845;38;0.04;-0.03;9.43823147;-0.09577099;-1.81246603;-0.08;12.54901886;6.27450943;36.07843018;66.66666412;2517.0;157;15.700000000000001;0.010997815436387424;-0.10034779382475525;0.1151801438392528;9.722403817000668;-0.9176541726381668;-1.5985244284087363;34.2278957373985;1;1;0;0;0;0;0;0;0;0;0;0;0;0;0;0;0;0
158;2022-05-02 00:12:15.409;5.174572794403598;52.36927281776845;38;0.06;0.02;10.37439251;0.03351985;-0.84996754;-0.13;12.94117546;6.27450943;36.07843018;66.66666412;2517.0;158;15.8;0.015452560655471879;-0.08940708242703739;0.11966347648375301;9.781675531902795;-0.8311837842748869;-1.5304737843497418;34.57081439662476;1;1;0;0;0;0;0;0;0;0;0;0;0;0;0;0;0;0
159;2022-05-02 00:12:15.508;5.174532281369867;52.36917907290714;38;0.0;0.0;7.66167927;-0.70870537;-2.46849728;-0.15000001;12.94117546;6.27450943;36.07843018;69.01960754;2517.0;159;15.9;0.014047782079270895;-0.08127916390567164;0.12555741638990575;9.588948553070802;-0.8200493803235585;-1.615748667913847;34.88255861668272;1;1;0;0;0;0;0;0;0;0;0;0;0;0;0;0;0;0
160;2022-05-02 00:12:15.607;5.174532281369867;52.36917907290714;40;0.03;-0.03;10.02482891;-0.2849187;-1.37191951;-0.07;12.94117546;6.27450943;36.07843018;69.01960754;2087.25;160;16.0;0.01549798402262808;-0.07661742072241792;0.12364281357600657;9.628574048649604;-0.7714011261176752;-1.5935823760282328;35.34778066141542;1;1;0;0;0;0;0;0;0;0;0;0;0;0;0;0;0;0
161;2022-05-02 00:12:15.709;5.174532281369867;52.36917907290714;40;-0.05;-0.04;9.58428192;0.14365649;-1.44135344;-0.11;12.94117546;6.27450943;40.0;69.01960754;2087.25;161;16.1;0.009543620665962572;-0.073288563637445;0.12553862998795742;9.624547490706556;-0.6882140537221888;-1.5797433791180755;35.77070977549729;1;1;0;0;0;0;0;0;0;0;0;0;0;0;0;0;0;0
162;2022-05-02 00:12:15.808;5.174532281369867;52.36917907290714;40;0.11;0.03;8.82529736;-0.42618093;-2.07344198;-0.13;12.94117546;6.27450943;40.0;69.01960754;2087.25;162;16.2;0.018676020422462632;-0.06389869253453301;0.12908028153230208;9.551888374904898;-0.6643928563911732;-1.6246250781437424;36.15519077384171;1;1;0;0;0;0;0;0;0;0;0;0;0;0;0;0;0;0
163;2022-05-02 00:12:15.908;5.174532281369867;52.36917907290714;40;-0.07;-0.04;9.38076878;-0.68236834;-1.69275224;-0.16;13.725490570000002;6.27450943;40.0;69.01960754;2087.25;163;16.3;0.010614562708180744;-0.061726083768646633;0.13502723781558976;9.53633204556311;-0.6660269915307065;-1.6308184575024665;36.50471894220666;1;1;0;0;0;0;0;0;0;0;0;0;0;0;0;0;0;0
164;2022-05-02 00:12:16.009;5.174532281369867;52.36917907290714;40;0.07;0.0;10.36960411;0.13647367;-1.60416412;-0.1;13.725490570000002;6.66666603;40.0;73.72548676;2087.25;164;16.400000000000002;0.01601323962452229;-0.056114620777468774;0.13497901527976375;9.612084062630895;-0.5930723751410842;-1.6283953355527563;36.82247181266391;1;1;0;0;0;0;0;0;0;0;0;0;0;0;0;0;0;0
165;2022-05-02 00:12:16.110;5.174532281369867;52.36917907290714;42;-0.01;-0.06;10.22594738;0.28013015;-1.64965534;-0.15000001;13.725490570000002;6.66666603;44.70588303;73.72548676;2205.75;165;16.5;0.013648399340518235;-0.056467837117943814;0.1394806326781083;9.667889826262824;-0.5136903167218373;-1.6303280634897854;37.293156256651294;1;1;0;0;0;0;0;0;0;0;0;0;0;0;0;0;0;0
166;2022-05-02 00:12:16.210;5.174532281369867;52.36917907290714;42;0.05;-0.04;9.34724903;-0.42139238;-1.70472372;-0.12;13.725490570000002;6.66666603;44.70588303;73.72548676;2205.75;166;16.6;0.01695309071372125;-0.05497076083322219;0.14084573805613987;9.6387406594013;-0.5052995941754964;-1.6370913058178493;37.721051194741236;1;1;0;0;0;0;0;0;0;0;0;0;0;0;0;0;0;0
167;2022-05-02 00:12:16.311;5.174532281369867;52.36917907290714;42;0.05;-0.01;9.91948032;-0.10295381;-1.89626563;-0.09;13.725490570000002;6.66666603;44.70588303;73.72548676;2205.75;167;16.7;0.019957355528307918;-0.05088250939384969;0.13935946988579212;9.664262449565982;-0.46872270063835686;-1.660652610635786;38.11004658392258;1;1;0;0;0;0;0;0;0;0;0;0;0;0;0;0;0;0
168;2022-05-02 00:12:16.409;5.174532281369867;52.36917907290714;42;0.08;-0.03;10.50847244;-0.22027329;-1.71190643;-0.11;14.509803780000002;6.66666603;44.70588303;73.72548676;2205.75;168;16.8;0.0254157783047077;-0.048984099257075794;0.1398264990342879;9.741008820089716;-0.4461363882974525;-1.66531204923075;38.463678748399644;1;1;0;0;0;0;0;0;0;0;0;0;0;0;0;0;0;0
