;device_time;lon;lat;raw_speed_kph;raw_g_x;raw_g_y;raw_roll;raw_yaw;raw_pitch;raw_g_z;apps_d;apps_e;engine_load;engine_load_abs;engine_rpm;num_samples;cumulative_time;g_x;g_y;g_z;roll;yaw;pitch;speed_kph;sample_nr;roundabout_1;roundabout_2;roundabout_3;roundabout_4;turning_right_1;turning_right_2;turning_right_3;turning_left_1;turning_left_2;road_50km_1;road_50km_2;road_100km;entering_highway;exiting_highway;speed_bumps;road_50km_3;road_50km_4
0;2022-05-01 23:48:24.406;5.173827058232995;52.369760441318725;0;-0.01;-0.02;9.82849789;-0.03112557;-0.62969428;0.01;0.0;0.0;0.0;0.0;0.0;0;0.0;-0.01;-0.02;-0.01;9.82849789;-0.03112557;-0.62969428;0.0;10;0;0;0;0;0;0;0;0;0;0;0;0;0;0;0;0;0
1;2022-05-01 23:48:24.505;5.173827058232995;52.369760441318725;0;-0.01;-0.01;9.81652641;0.0;-0.58180881;0.01;0.0;0.0;0.0;0.0;0.0;1;0.1;-0.01;-0.014761904761904763;-0.01;9.822227114761903;-0.0148217;-0.6046114147619047;0.0;10;0;0;0;0;0;0;0;0;0;0;0;0;0;0;0;0;0
2;2022-05-01 23:48:24.607;5.173827058232995;52.369760441318725;0;-0.02;-0.02;9.81892109;-0.04070267;-0.60814577;0.01;0.0;0.0;0.0;0.0;0.0;2;0.2;-0.01365558912386707;-0.016676737160120848;-0.01;9.821018567945618;-0.02428271924471299;-0.6059034298187311;0.0;10;0;0;0;0;0;0;0;0;0;0;0;0;0;0;0;0;0
3;2022-05-01 23:48:24.705;5.173827058232995;52.369760441318725;0;-0.01;-0.02;9.83089256;-0.04549122;-0.63208854;0.01;0.0;0.0;0.0;0.0;0.0;3;0.30000000000000004;-0.012607196724843785;-0.017629821159232922;-0.01;9.823850346317604;-0.030365139952596425;-0.6134131005042017;0.0;10;0;0;0;0;0;0;0;0;0;0;0;0;0;0;0;0;0
4;2022-05-01 23:48:24.805;5.173827058232995;52.369760441318725;0;-0.01;-0.01;9.82849789;-0.0287313;-0.61532861;0.01;0.0;0.0;0.0;0.0;0.0;4;0.4;-0.011981949517616419;-0.01580006879494193;-0.01;9.824964901149693;-0.0299733191675812;-0.6138724701218653;0.0;10;0;0;0;0;0;0;0;0;0;0;0;0;0;0;0;0;0
5;2022-05-01 23:48:24.905;5.173827058232995;52.369760441318725;0;-0.02;-0.01;9.79018974;-0.00478855;-0.65842557;0.0;0.0;0.0;0.0;0.0;0.0;5;0.5;-0.013655589123867067;-0.014589397338642045;-0.007912660178521205;9.817706143283083;-0.02471640200975684;-0.6231722160764605;0.0;10;0;0;0;0;0;0;0;0;0;0;0;0;0;0;0;0;0
6;2022-05-01 23:48:25.006;5.173827058232995;52.369760441318725;0;-0.01;-0.01;9.81413269;-0.0478855;-0.61293435;0.0;0.0;0.0;0.0;0.0;0.0;6;0.6000000000000001;-0.012972972659605269;-0.013732408744398086;-0.006435111162221066;9.817038864231021;-0.029042820328209533;-0.6212604760789121;0.0;10;0;0;0;0;0;0;0;0;0;0;0;0;0;0;0;0;0
7;2022-05-01 23:48:25.107;5.173827058232995;52.369760441318725;0;-0.02;-0.01;9.91229725;0.00239427;-0.54828894;0.0;0.0;0.0;0.0;0.0;0.0;7;0.7000000000000001;-0.014170403783506764;-0.013096392662324137;-0.005338544716959936;9.833271241082139;-0.023685825317316892;-0.6088258598141514;0.0;10;0;0;0;0;0;0;0;0;0;0;0;0;0;0;0;0;0
8;2022-05-01 23:48:25.205;5.173827058232995;52.369760441318725;0;-0.02;-0.02;9.83089256;0.11731946;-0.9241901;0.01;0.0;0.0;0.0;0.0;0.0;8;0.8;-0.015090634901340981;-0.014186161843843801;-0.006074378906249047;9.832895754295421;-0.0014274309947436962;-0.6586076931510981;0.0;10;0;0;0;0;0;0;0;0;0;0;0;0;0;0;0;0;0
9;2022-05-01 23:48:25.305;5.173827058232995;52.369760441318725;0;0.01;-0.03;10.18524456;-0.1699935;-0.83320761;0.0;0.0;0.0;0.0;0.0;492.25;9;0.9;-0.01137846646054856;-0.01652582487596359;-0.0051756723664640476;9.885025886587034;-0.026366841416610186;-0.6844398135274874;0.0;10;0;0;0;0;0;0;0;0;0;0;0;0;0;0;0;0;0
10;2022-05-01 23:48:25.405;5.173827058232995;52.369760441318725;0;0.02;-0.02;9.77582359;-0.17238778;-0.62969428;0.02;0.0;0.0;53.72549057;0.0;492.25;10;1.0;-0.006986532562203064;-0.017012092983273046;-0.007250581512701789;9.869741224133538;-0.04680488005813926;-0.6767772732059366;0.0;10;0;0;0;0;0;0;0;0;0;0;0;0;0;0;0;0;0
11;2022-05-01 23:48:25.503;5.173827058232995;52.369760441318725;0;-0.03;-0.06;9.59385872;0.01675992;-0.62011719;0.01;0.0;0.0;53.72549057;0.0;492.25;11;1.1;-0.01005701690140633;-0.02274759093145282;-0.0076174122143326094;9.832932650601895;-0.038323988439757935;-0.6692176171648809;0.0;10;0;0;0;0;0;0;0;0;0;0;0;0;0;0;0;0;0
12;2022-05-01 23:48:25.604;5.173827058232995;52.369760441318725;0;0.0;-0.04;10.17806244;0.1340794;-0.35195839;0.03;0.0;0.0;53.72549057;0.0;492.25;12;1.2000000000000002;-0.008769915089694701;-0.024955562458816177;-0.010481946456658339;9.877102525383338;-0.016259720697003488;-0.6286146302086745;0.0;10;0;0;0;0;0;0;0;0;0;0;0;0;0;0;0;0;0
13;2022-05-01 23:48:25.705;5.173827058232995;52.369760441318725;0;-0.05;-0.02;9.45499134;-0.0478855;-0.74701375;0.0;0.0;0.0;53.72549057;0.0;492.25;13;1.3;-0.013857940826105981;-0.02434401801539088;-0.009188414962479135;9.825011617020435;-0.020162520785282956;-0.64322575143186;0.0;10;0;0;0;0;0;0;0;0;0;0;0;0;0;0;0;0;0
14;2022-05-01 23:48:25.805;5.173827058232995;52.369760441318725;0;0.02;0.01;9.51005936;-0.09577099;-0.62251145;0.0;0.0;0.0;53.72549057;0.0;492.25;14;1.4000000000000001;-0.009811185046072061;-0.020239165504507793;-0.008090200763637702;9.787368014502544;-0.029199367160129736;-0.6407499446638326;0.0;10;0;0;0;0;0;0;0;0;0;0;0;0;0;0;0;0;0
15;2022-05-01 23:48:25.906;5.173827058232995;52.369760441318725;0;-0.02;-0.03;9.99130917;0.05506832;-1.09418356;-0.01;0.0;0.0;53.72549057;0.0;492.25;15;1.5;-0.01099509404278298;-0.021373344486742083;-0.005988175009590536;9.811065350246183;-0.01940772078986782;-0.6934375377779557;0.0;10;0;0;0;0;0;0;0;0;0;0;0;0;0;0;0;0;0
16;2022-05-01 23:48:26.005;5.173827058232995;52.369760441318725;0;0.0;0.0;10.02243423;0.22745611;-0.9864412;0.0;0.0;0.0;53.72549057;28.62745094;492.25;16;1.6;-0.009749008696047409;-0.018951081314455498;-0.0053095289603521745;9.835020003366228;0.00856961173583047;-0.7266439449823032;0.0;10;0;0;0;0;0;0;0;0;0;0;0;0;0;0;0;0;0
17;2022-05-01 23:48:26.106;5.173827058232995;52.369760441318725;0;-0.02;-0.02;9.78540134;-0.05985687;-1.11094356;-0.03;0.0;0.0;53.72549057;28.62745094;492.25;17;1.7000000000000002;-0.01088528655758319;-0.019067349394838697;-0.001395621039716769;9.829519990047489;0.000984833441342296;-0.7692418881268809;0.0;10;0;0;0;0;0;0;0;0;0;0;0;0;0;0;0;0;0
18;2022-05-01 23:48:26.205;5.173827058232995;52.369760441318725;0;0.0;0.0;9.86920071;0.00478855;-1.07263517;-0.03;0.0;0.0;53.72549057;28.62745094;492.25;18;1.8;-0.009702284814132402;-0.01699512948057604;0.002016422752628876;9.833832449865325;0.0013982174433785064;-0.8022143578463041;0.0;10;0;0;0;0;0;0;0;0;0;0;0;0;0;0;0;0;0
19;2022-05-01 23:48:26.308;5.173827058232995;52.369760441318725;0;-0.01;0.0;10.02243423;-0.02394275;-1.02714384;-0.02;0.0;0.0;53.72549057;28.62745094;492.25;19;1.9000000000000001;-0.009734075281424307;-0.015180364451713045;0.003936735694032789;9.853971626525373;-0.0013077284905056194;-0.8262326601863552;0.0;10;0;0;0;0;0;0;0;0;0;0;0;0;0;0;0;0;0
20;2022-05-01 23:48:26.404;5.173827058232995;52.369760441318725;0;-0.02;-0.03;9.921875;0.02154847;-1.13249195;0.0;0.0;0.0;27.05882263;28.62745094;931.75;20;2.0;-0.010813158264518704;-0.016738102013033867;0.0035229332736152284;9.861109159365313;0.0010947569674974592;-0.8584245179207581;0.0;10;0;0;0;0;0;0;0;0;0;0;0;0;0;0;0;0;0
21;2022-05-01 23:48:26.505;5.173827058232995;52.369760441318725;0;0.0;-0.01;9.9266634;0.0383084;-1.00080693;-0.02;0.0;0.0;27.05882263;28.62745094;931.75;21;2.1;-0.009692472093027838;-0.016039758609249614;0.005230632391234089;9.867903264210975;0.004951614891622118;-0.8731811686954264;0.0;10;0;0;0;0;0;0;0;0;0;0;0;0;0;0;0;0;0
22;2022-05-01 23:48:26.606;5.173827058232995;52.369760441318725;0;-0.01;-0.02;9.49569416;-0.07661679;-1.16840613;-0.04;0.0;0.0;27.05882263;28.62745094;931.75;22;2.2;-0.009723943887510111;-0.01644504183826458;0.00878886033365227;9.829812124621423;-0.0033959334667401932;-0.9033939041824077;0.0;10;0;0;0;0;0;0;0;0;0;0;0;0;0;0;0;0;0
23;2022-05-01 23:48:26.706;5.173827058232995;52.369760441318725;0;-0.05;-0.04;9.66568756;-0.21548474;-1.15404046;-0.03;1.5686264100000002;0.7843132000000015;27.05882263;28.62745094;931.75;23;2.3000000000000003;-0.013799140285335455;-0.01882837054312909;0.010935037698204728;9.813205736134133;-0.024855421406409388;-0.928754727460197;0.0;10;0;0;0;0;0;0;0;0;0;0;0;0;0;0;0;0;0
24;2022-05-01 23:48:26.805;5.173827058232995;52.369760441318725;0;0.01;-0.02;10.14454269;0.08140534;-0.9337672;-0.02;1.5686264100000002;0.7843132000000015;27.05882263;27.45098114;931.75;24;2.4000000000000004;-0.011415589917139757;-0.01894571250547864;0.01184291899026291;9.846390057454784;-0.014213109375874942;-0.929256740584393;0.0;10;0;0;0;0;0;0;0;0;0;0;0;0;0;0;0;0;0
25;2022-05-01 23:48:26.906;5.173827058232995;52.369760441318725;0;0.0;-0.01;9.95060635;0.03112557;-1.16601181;-0.04;1.5686264100000002;0.7843132000000015;25.49019623;27.45098114;968.75;25;2.5;-0.010282758262557761;-0.018057980345112516;0.01463710071017282;9.856732012270552;-0.00971390332986765;-0.9527512458148296;0.0;10;0;0;0;0;0;0;0;0;0;0;0;0;0;0;0;0;0
26;2022-05-01 23:48:27.007;5.173827058232995;52.369760441318725;0;-0.01;0.0;9.5435791;-0.01436565;-1.22347438;-0.06;1.5686264100000002;0.7843132000000015;25.49019623;27.45098114;968.75;26;2.6;-0.01025493031452266;-0.016280785457447565;0.01910153755010773;9.825912743221162;-0.010171709808935461;-0.9793947441934696;0.0;10;0;0;0;0;0;0;0;0;0;0;0;0;0;0;0;0;0
27;2022-05-01 23:48:27.110;5.173827058232995;52.369760441318725;0;-0.04;-0.02;10.17087936;-0.00478855;-1.44853628;-0.08;1.5686264100000002;0.7843132000000015;25.49019623;27.45098114;968.75;27;2.7;-0.013160510200149956;-0.016644088521768474;0.02505026617744147;9.859610027292911;-0.009645868013056369;-1.0252217745001857;0.0;10;0;0;0;0;0;0;0;0;0;0;0;0;0;0;0;0;0
28;2022-05-01 23:48:27.206;5.173827058232995;52.369760441318725;0;0.04;0.02;10.26904488;0.14126222;-1.5179702;-0.08;7.843135840000002;0.7843132000000015;25.49019623;27.45098114;968.75;28;2.8000000000000003;-0.008002583923336802;-0.0130886766875953;0.030381792811030168;9.899335657793257;0.004996068070995357;-1.0730309479293871;0.0;10;0;0;0;0;0;0;0;0;0;0;0;0;0;0;0;0;0
29;2022-05-01 23:48:27.309;5.173827058232995;52.369760441318725;0;0.03;0.0;10.30735302;0.18914771;-2.04471064;-0.13;7.843135840000002;3.9215688699999998;25.49019623;45.49019623;968.75;29;2.9000000000000004;-0.004337778892204803;-0.011826461247920859;0.039988542384558394;9.93868308966318;0.02275485692582902;-1.1667355399995702;0.0;10;0;0;0;0;0;0;0;0;0;0;0;0;0;0;0;0;0
30;2022-05-01 23:48:27.404;5.173827058232995;52.369760441318725;0;-0.02;0.0;9.71596718;-0.17957062;-2.08780766;-0.14;7.843135840000002;3.9215688699999998;25.49019623;45.49019623;1458.25;30;3.0;-0.005839874373795439;-0.01069223680545866;0.049580206143964745;9.917323375783461;0.0033507007330844827;-1.255071559530233;0.0;10;0;0;0;0;0;0;0;0;0;0;0;0;0;0;0;0;0
31;2022-05-01 23:48:27.505;5.17383412583509;52.36977571032964;2;0.01;-0.02;9.29936314;-0.58180881;-2.10935616;-0.14;7.843135840000002;3.9215688699999998;27.84313774;45.49019623;1458.25;31;3.1;-0.004328293641494977;-0.011580465788446034;0.05820886158566905;9.858352151410404;-0.05249038871455574;-1.3365949423234316;0.19085766675032875;10;0;0;0;0;0;0;0;0;0;0;0;0;0;0;0;0;0
32;2022-05-01 23:48:27.606;5.17383412583509;52.36977571032964;2;0.02;0.0;10.05834866;-0.10774237;-2.29610944;-0.13;7.843135840000002;3.9215688699999998;27.84313774;45.49019623;1458.25;32;3.2;-0.0020171188760127494;-0.010480327788749397;0.06502898098793748;9.877351711784357;-0.05773929711608916;-1.427748301733811;0.3627252119792568;10;0;0;0;0;0;0;0;0;0;0;0;0;0;0;0;0;0
33;2022-05-01 23:48:27.707;5.17383412583509;52.36977571032964;2;0.0;0.0;9.98651981;0.09816527;-2.87791824;-0.20999999;7.843135840000002;3.9215688699999998;27.84313774;45.49019623;1458.25;33;3.3000000000000003;-0.0018262742962939099;-0.009488758191169113;0.07874504483292642;9.887680374150479;-0.04298878243827719;-1.564952447548149;0.5176318079760789;10;0;0;0;0;0;0;0;0;0;0;0;0;0;0;0;0;0
34;2022-05-01 23:48:27.809;5.17383412583509;52.36977571032964;2;0.0;0.0;9.8787775;-0.46448931;-1.89387143;-0.20999999;9.01960755;4.705882070000001;27.84313774;45.49019623;1458.25;34;3.4000000000000004;-0.0016541235297023065;-0.008594315883172443;0.09111757806920112;9.886841159245586;-0.08272084190260104;-1.5959574587288485;0.6573648268034207;10;0;0;0;0;0;0;0;0;0;0;0;0;0;0;0;0;0
35;2022-05-01 23:48:27.905;5.17383412583509;52.36977571032964;2;-0.03;-0.05;9.67287064;-0.41899809;-2.57623959;-0.18000001;9.01960755;4.705882070000001;27.84313774;50.58823395;1458.25;35;3.5;-0.004317168730663854;-0.01248430702510764;0.09946792610134365;9.866739005585908;-0.11431349745787056;-1.6880532395033627;0.7835030380656451;10;0;0;0;0;0;0;0;0;0;0;0;0;0;0;0;0;0
36;2022-05-01 23:48:28.004;5.17383412583509;52.36977571032964;5;-0.03;-0.08;9.31133461;-0.74701375;-2.18118429;-0.16;9.01960755;4.705882070000001;27.84313774;50.58823395;1726.5;36;3.6;-0.006722714709915535;-0.018808068687866927;0.10513757698428706;9.814717840292673;-0.17357446960744088;-1.734241660216256;1.1784352481066098;10;0;0;0;0;0;0;0;0;0;0;0;0;0;0;0;0;0
37;2022-05-01 23:48:28.109;5.17383412583509;52.36977571032964;5;-0.02;-0.05;9.48611641;-0.67757976;-2.64806795;-0.19;9.01960755;4.705882070000001;29.01960754;50.58823395;1726.5;37;3.7;-0.00796289674218509;-0.021721591438935827;0.11306426153911416;9.784024398017134;-0.22065173665844318;-1.8195987886084368;1.5353934543140393;10;0;0;0;0;0;0;0;0;0;0;0;0;0;0;0;0;0
38;2022-05-01 23:48:28.205;5.17383412583509;52.36977571032964;5;-0.06;-0.06;9.63934994;0.07661679;-2.95214081;-0.17;9.01960755;4.705882070000001;29.01960754;50.58823395;1726.5;38;3.8000000000000003;-0.012811382122636297;-0.025288129402737374;0.11836917050349507;9.770544554776333;-0.1929541513714436;-1.9251218306244045;1.8582033944167526;10;0;0;0;0;0;0;0;0;0;0;0;0;0;0;0;0;0
39;2022-05-01 23:48:28.306;5.17383412583509;52.36977571032964;5;-0.02;-0.08;9.79497814;-0.71109962;-1.786129;-0.1;9.01960755;4.705882070000001;29.01960754;50.58823395;1726.5;39;3.9000000000000004;-0.013479658354079823;-0.030374314719819953;0.11666151539534499;9.772815976700892;-0.24112256246545744;-1.9122006256539976;2.150274559049477;10;0;0;0;0;0;0;0;0;0;0;0;0;0;0;0;0;0
40;2022-05-01 23:48:28.404;5.17383412583509;52.36977571032964;5;0.05;-0.06;9.84765244;-0.51237482;-2.39666915;-0.13;8.62745095;3.9215688699999998;29.01960754;50.58823395;1726.5;40;4.0;-0.007590488703429736;-0.033122765029028875;0.11789896059836173;9.779758746083248;-0.26628732554329904;-1.9571460050755356;2.414650849260759;10;0;0;0;0;0;0;0;0;0;0;0;0;0;0;0;0;0
41;2022-05-01 23:48:28.508;5.173855885243691;52.36976997398055;5;-0.04;-0.13;9.66568756;-0.47406641;-2.46849728;-0.07;8.62745095;3.9215688699999998;29.01960754;44.31372452;1726.5;41;4.1000000000000005;-0.01059160918612723;-0.042093596200100766;0.11346351723618811;9.769195755178899;-0.28552766707554317;-2.004497128978218;2.6540541596102485;10;0;0;0;0;0;0;0;0;0;0;0;0;0;0;0;0;0
42;2022-05-01 23:48:28.604;5.173855885243691;52.36976997398055;5;0.01;-0.06;10.34326744;-0.94573855;-1.58740425;-0.04;8.62745095;3.9215688699999998;29.01960754;44.31372452;1699.0;42;4.2;-0.00868804508120406;-0.04374893004087277;0.10667227944762199;9.822265053600434;-0.3465599898558977;-1.9659395288574417;2.8709220232868917;10;0;0;0;0;0;0;0;0;0;0;0;0;0;0;0;0;0
43;2022-05-01 23:48:28.705;5.173855885243691;52.36976997398055;9;0.07;-0.1;10.75268841;-0.8930645;-0.97446984;-0.02;8.62745095;3.9215688699999998;29.01960754;44.31372452;1699.0;43;4.3;-0.0014249785325632688;-0.048941018167141144;0.09867225183350557;9.908145021122387;-0.39700346728900376;-1.8744248607309126;3.4366483821097176;10;0;0;0;0;0;0;0;0;0;0;0;0;0;0;0;0;0
44;2022-05-01 23:48:28.805;5.173855885243691;52.36976997398055;9;-0.03;-0.08;10.70001411;-0.7685622;-1.1827718;-0.06;8.62745095;3.9215688699999998;25.09803963;44.31372452;1699.0;44;4.4;-0.004058842292229378;-0.05180383759686293;0.09510768959074312;9.981134477944714;-0.4312513883899619;-1.8106726800721062;3.949442754822238;10;0;0;0;0;0;0;0;0;0;0;0;0;0;0;0;0;0
45;2022-05-01 23:48:28.905;5.173855885243691;52.36976997398055;9;-0.05;-0.06;8.56671524;-0.36871833;-2.39427471;-0.04;8.62745095;3.9215688699999998;25.09803963;44.31372452;1699.0;45;4.5;-0.008288057999270406;-0.052558353601733734;0.09003462835274799;9.850926961288142;-0.4254947682709307;-1.8643974661850735;4.41438306317243;10;0;0;0;0;0;0;0;0;0;0;0;0;0;0;0;0;0
46;2022-05-01 23:48:29.004;5.173855885243691;52.36976997398055;9;-0.2;0.03;10.55396366;-1.47008479;-0.96249849;-0.17;8.62745095;3.9215688699999998;25.09803963;44.31372452;1699.0;46;4.6000000000000005;-0.025916288622040443;-0.044966976236613616;0.09738757673208216;9.915572350259875;-0.5215465510504005;-1.7814663613999049;4.836038136228698;10;0;0;0;0;0;0;0;0;0;0;0;0;0;0;0;0;0
47;2022-05-01 23:48:29.105;5.173855885243691;52.36976997398055;9;0.25;-0.03;12.49332619;-0.21787901;0.05267405;0.08;8.62745095;3.9215688699999998;25.09803963;44.31372452;1699.0;47;4.7;-0.0005717521891573924;-0.043592171304243095;0.08109348288325688;10.152354225054486;-0.49365289860939304;-1.6129897603557912;5.218522561807686;10;0;0;0;0;0;0;0;0;0;0;0;0;0;0;0;0;0
48;2022-05-01 23:48:29.204;5.173855885243691;52.36976997398055;9;0.08;-0.22;9.67526436;-2.39906335;-0.57941449;0.05;8.62745095;3.9215688699999998;25.09803963;44.31372452;1699.0;48;4.800000000000001;0.006822237241246743;-0.059780942000885566;0.06906316455831785;10.108572163429661;-0.6685105175064987;-1.5181395874739083;5.565544979089413;10;0;0;0;0;0;0;0;0;0;0;0;0;0;0;0;0;0
49;2022-05-01 23:48:29.304;5.173855885243691;52.36976997398055;9;-0.03;-0.1;9.96257782;-1.00080693;-1.21150303;-0.06;9.80392075;4.705882070000001;25.09803963;44.31372452;1699.0;49;4.9;0.0034460004824445377;-0.06346863379243436;0.06823216156595784;10.095185918980825;-0.6989788281452108;-1.4900240330019412;5.880450703369042;10;0;0;0;0;0;0;0;0;0;0;0;0;0;0;0;0;0
50;2022-05-01 23:48:29.404;5.173855885243691;52.36976997398055;9;0.05;-0.13;10.04158878;-1.52515304;-2.01119089;-0.05;9.80392075;4.705882070000001;25.09803963;52.15686417;1699.0;50;5.0;0.007711212646346076;-0.06956414428283782;0.06656175648602444;10.090275424254262;-0.7746717510824975;-1.537772609728463;6.166259436104526;10;0;0;0;0;0;0;0;0;0;0;0;0;0;0;0;0;0
51;2022-05-01 23:48:29.504;5.173892768350677;52.36975569382279;9;-0.05;-0.14;9.47893429;-1.24262857;-2.90425539;-0.22;9.80392075;4.705882070000001;25.09803963;52.15686417;1699.0;51;5.1000000000000005;0.002427541060855905;-0.07601280325892014;0.08060958619201909;10.034304918143174;-0.8175149012083218;-1.6628790822336712;6.425698699490952;10;0;0;0;0;0;0;0;0;0;0;0;0;0;0;0;0;0
52;2022-05-01 23:48:29.604;5.173892768350677;52.36975569382279;9;0.05;0.0;10.54438591;-0.01197137;-2.37990928;-0.2;9.80392075;4.705882070000001;25.09803963;52.15686417;1699.0;52;5.2;0.00678016735834055;-0.06905803712346473;0.09153317236764555;10.08097460872703;-0.7438119639228801;-1.7284835215350063;6.661233540197384;10;0;0;0;0;0;0;0;0;0;0;0;0;0;0;0;0;0
53;2022-05-01 23:48:29.703;5.173892768350677;52.36975569382279;13;-0.04;0.08;9.34485435;1.35755384;-1.52994156;-0.07;9.80392075;4.705882070000001;25.09803963;52.15686417;2136.5;53;5.300000000000001;0.0025025363945299305;-0.0554280030511201;0.08956415493845737;10.013662946763565;-0.5516607182828692;-1.7103286219218392;7.240857453748465;10;0;0;0;0;0;0;0;0;0;0;0;0;0;0;0;0;0
54;2022-05-01 23:48:29.803;5.173892768350677;52.36975569382279;13;-0.11;0.07;10.12538815;-0.15802214;-2.45892024;-0.06;9.80392075;4.705882070000001;29.80392075;52.15686417;2136.5;54;5.4;-0.0077793514187157724;-0.04396482455451724;0.08686221297241462;10.023873792157849;-0.5156851053715608;-1.7787442797521988;7.767199876406303;10;0;0;0;0;0;0;0;0;0;0;0;0;0;0;0;0;0
55;2022-05-01 23:48:29.904;5.173892768350677;52.36975569382279;13;-0.02;-0.22;9.75906372;-2.00400805;-1.65204966;-0.09;9.80392075;4.705882070000001;29.80392075;52.15686417;2136.5;55;5.5;-0.008895687373129553;-0.06004534550921432;0.08714884460680686;9.99968383180718;-0.6516409348692057;-1.767170936625651;8.245207478161156;10;0;0;0;0;0;0;0;0;0;0;0;0;0;0;0;0;0
56;2022-05-01 23:48:30.004;5.173892768350677;52.36975569382279;13;-0.04;-0.14;10.45340347;0.52913475;-3.13410568;-0.12;9.80392075;4.705882070000001;29.80392075;52.15686417;2136.5;56;5.6000000000000005;-0.011735767179287024;-0.06734586368338578;0.09014842553824814;10.041112169978375;-0.5438263942160307;-1.8919833318572619;8.679359178786658;10;0;0;0;0;0;0;0;0;0;0;0;0;0;0;0;0;0
57;2022-05-01 23:48:30.103;5.173892768350677;52.36975569382279;13;0.03;0.11;9.62498474;0.98883551;-3.08143163;-0.16;12.54901886;5.88235283;29.80392075;52.15686417;2136.5;57;5.7;-0.007926468499222256;-0.051159187120283285;0.09652390461485302;10.003131469565083;-0.4039375802968944;-2.0005464214647075;9.073711852515634;10;0;0;0;0;0;0;0;0;0;0;0;0;0;0;0;0;0
58;2022-05-01 23:48:30.203;5.173892768350677;52.36975569382279;13;-0.06;0.0;9.43583679;-0.49800915;-2.56905699;-0.16;12.54901886;5.88235283;29.80392075;56.07843018;2136.5;58;5.800000000000001;-0.012677590273234524;-0.04649148894689715;0.10231538159407705;9.951372235522683;-0.4125205488463822;-2.0524165916467276;9.431941313259633;10;0;0;0;0;0;0;0;0;0;0;0;0;0;0;0;0;0
59;2022-05-01 23:48:30.303;5.173892768350677;52.36975569382279;15;-0.17;-0.01;8.32968235;-0.00718282;-2.66482782;-0.19;12.54901886;5.88235283;35.29411697;56.07843018;1918.5;59;5.9;-0.02702675405328912;-0.04316314969512433;0.11031297680434236;9.803460098858633;-0.3755502439320749;-2.1082737898147927;9.93979639996824;10;0;0;0;0;0;0;0;0;0;0;0;0;0;0;0;0;0
60;2022-05-01 23:48:30.402;5.173892768350677;52.36975569382279;15;-0.16;0.14;9.85244083;0.78532213;-2.07823062;-0.22;12.54901886;5.88235283;35.29411697;56.07843018;1918.5;60;6.0;-0.03915143161042041;-0.026462089909820317;0.12031438557631363;9.807926227119047;-0.26970035571810597;-2.1055344136026446;10.401192499514515;10;0;0;0;0;0;0;0;0;0;0;0;0;0;0;0;0;0
61;2022-05-01 23:48:30.504;5.173924092186384;52.369743532895605;15;-0.05;-0.07;7.9777236;-0.90743017;-2.15963578;-0.2;12.54901886;5.88235283;35.29411697;56.07843018;1918.5;61;6.1000000000000005;-0.04014034929290732;-0.030430854045377636;0.12757824844868215;9.641091334670886;-0.32783358282650815;-2.1104661055969944;10.820403762445014;10;0;0;0;0;0;0;0;0;0;0;0;0;0;0;0;0;0
62;2022-05-01 23:48:30.604;5.173924092186384;52.369743532895605;15;0.04;0.1;10.14693642;1.06305802;-2.535537;-0.12;12.54901886;5.88235283;35.29411697;67.45098114;1918.5;62;6.2;-0.03283684143547046;-0.018544173044139158;0.12688761261318976;9.687191003413833;-0.20107611496274616;-2.1492045019807353;11.20130694331745;10;0;0;0;0;0;0;0;0;0;0;0;0;0;0;0;0;0
63;2022-05-01 23:48:30.704;5.173924092186384;52.369743532895605;15;-0.04;-0.12;9.57231045;-1.10854924;-1.79570615;-0.1;12.54901886;5.88235283;35.29411697;67.45098114;1795.75;63;6.300000000000001;-0.03348950171667005;-0.0277881661728461;0.12443778874696873;9.67672383678336;-0.28375914642608585;-2.116996038112605;11.54741907475094;10;0;0;0;0;0;0;0;0;0;0;0;0;0;0;0;0;0
64;2022-05-01 23:48:30.803;5.173924092186384;52.369743532895605;18;-0.04;0.04;9.82610416;1.01996112;-1.89865994;-0.13;12.54901886;5.88235283;38.03921509;67.45098114;1795.75;64;6.4;-0.03408257463482777;-0.021613012785334975;0.12494447759253553;9.690331616149845;-0.16499693357819198;-2.0971067422075023;12.135216019384949;10;0;0;0;0;0;0;0;0;0;0;0;0;0;0;0;0;0
65;2022-05-01 23:48:30.905;5.173924092186384;52.369743532895605;18;-0.1;-0.06;9.11500454;-0.22266756;-3.50042987;-0.15000001;12.54901886;5.88235283;38.03921509;67.45098114;1795.75;65;6.5;-0.04008619787663575;-0.02510922046256494;0.1272264838429921;9.637932011843702;-0.17024945536947125;-2.224918520339133;12.669368456606913;10;0;0;0;0;0;0;0;0;0;0;0;0;0;0;0;0;0
66;2022-05-01 23:48:31.005;5.173924092186384;52.369743532895605;18;0.07;0.01;9.18204403;0.09816527;-1.79810035;-0.09;12.54901886;5.88235283;38.03921509;67.45098114;1795.75;66;6.6000000000000005;-0.030061466525476855;-0.02191208485542701;0.12383654480547125;9.59641768368672;-0.14580692247775148;-2.1860513637293844;13.154789428402237;10;0;0;0;0;0;0;0;0;0;0;0;0;0;0;0;0;0
67;2022-05-01 23:48:31.104;5.173924092186384;52.369743532895605;18;0.01;0.13;10.14214802;1.50839317;-1.65204966;-0.09;10.58823395;5.09803868;38.03921509;62.35293961;1795.75;67;6.7;-0.02641392649458288;-0.008080703761718107;0.12075577511855513;9.646105661197728;0.004805663124524981;-2.137431261674962;13.59593901804031;10;0;0;0;0;0;0;0;0;0;0;0;0;0;0;0;0;0
68;2022-05-01 23:48:31.204;5.173924092186384;52.369743532895605;18;0.01;0.2;11.3201313;2.16921306;-1.51078737;-0.08;10.58823395;5.09803868;38.03921509;62.35293961;1975.5;68;6.800000000000001;-0.02309895227469495;0.010862108371679485;0.11704553684338152;9.79850207570926;0.20184441759788072;-2.080384177058537;13.996866630726696;10;0;0;0;0;0;0;0;0;0;0;0;0;0;0;0;0;0
69;2022-05-01 23:48:31.306;5.173924092186384;52.369743532895605;21;-0.01;0.18000001;10.89873886;2.00161386;-1.46769047;-0.08;10.58823395;5.09803868;34.50980377;62.35293961;1975.5;69;6.9;-0.021906628677578723;0.026257775677663776;0.11367349098658944;9.898650412218538;0.3656672585811482;-2.0246141315304094;14.634322283272853;10;0;0;0;0;0;0;0;0;0;0;0;0;0;0;0;0;0
70;2022-05-01 23:48:31.403;5.173924092186384;52.369743532895605;21;0.04;0.17;9.74469852;1.71669507;-1.89626563;-0.11;10.58823395;5.09803868;34.50980377;62.35293961;1975.5;70;7.0;-0.01627226753606136;0.0393403101399284;0.11333915239780357;9.884638656487228;0.48862951261396387;-2.0129326391758298;15.21368717412081;10;0;0;0;0;0;0;0;0;0;0;0;0;0;0;0;0;0
71;2022-05-01 23:48:31.503;5.173924092186384;52.369743532895605;21;-0.09;0.13;9.10542679;1.49163318;-1.57543278;-0.08;10.58823395;5.09803868;34.50980377;62.35293961;1975.5;71;7.1000000000000005;-0.022981810002208582;0.04759073394594209;0.11030514536513336;9.813727007185127;0.5799071835137113;-1.9731182601630286;15.740266662329512;10;0;0;0;0;0;0;0;0;0;0;0;0;0;0;0;0;0
72;2022-05-01 23:48:31.603;5.1739889968875685;52.36970705181593;21;0.14;0.19;8.98571301;1.52515304;-1.3934679;-0.01;10.58823395;5.09803868;34.50980377;62.35293961;1975.5;72;7.2;-0.008151172899520638;0.06054935886782294;0.10117781262522517;9.738381328375741;0.6659204525415717;-1.920372594018422;16.218879560215743;10;0;0;0;0;0;0;0;0;0;0;0;0;0;0;0;0;0
73;2022-05-01 23:48:31.704;5.1739889968875685;52.36970705181593;21;-0.11;0.09;9.55555058;1.33361101;-1.6185298;-0.22;10.58823395;5.09803868;34.50980377;61.17647171;1975.5;73;7.300000000000001;-0.017418171754727017;0.0632290073765655;0.11198917988121564;9.721745964139068;0.7266721352830439;-1.8929085877431073;16.65390310347534;10;0;0;0;0;0;0;0;0;0;0;0;0;0;0;0;0;0
74;2022-05-01 23:48:31.802;5.1739889968875685;52.36970705181593;21;0.04;-0.01;10.9849329;1.49163318;-1.40783358;-0.25999999;10.58823395;5.09803868;34.50980377;61.17647171;1975.5;74;7.4;-0.012194230749143681;0.056566586704818636;0.1254552955135977;9.836671497821143;0.7962687672733647;-1.8487761616087928;17.049313704303547;10;0;0;0;0;0;0;0;0;0;0;0;0;0;0;0;0;0
75;2022-05-01 23:48:31.903;5.1739889968875685;52.36970705181593;21;0.04;0.13;10.49171257;1.45571911;-0.43096948;0.03;10.58823395;5.09803868;34.50980377;61.17647171;1975.5;75;7.5;-0.007445906802714339;0.06324712648503703;0.11131288759433591;9.896263279600065;0.8562616785378208;-1.7197924536191698;17.408723893388352;10;1;0;0;0;0;0;0;0;0;0;0;0;0;0;0;0;0
76;2022-05-01 23:48:32.003;5.1739889968875685;52.36970705181593;21;-0.04;0.12;11.55237579;1.68556952;-2.4254005;0.04;10.58823395;5.09803868;34.50980377;61.17647171;2085.25;76;7.6000000000000005;-0.010407294057137745;0.06840983322242292;0.09754822660266592;10.046916853344777;0.9317023199593503;-1.7839803473659694;17.735415815807553;10;1;0;0;0;0;0;0;0;0;0;0;0;0;0;0;0;0
77;2022-05-01 23:48:32.104;5.1739889968875685;52.36970705181593;24;0.01;0.11;9.79976654;1.27135992;-1.49881601;0.0;10.58823395;5.09803868;32.15686417;61.17647171;2085.25;77;7.7;-0.008550988978022528;0.07219299220539754;0.08867496452322449;10.024435363114751;0.9625985341438573;-1.7580409941938702;18.305260078702066;10;1;0;0;0;0;0;0;0;0;0;0;0;0;0;0;0;0
78;2022-05-01 23:48:32.203;5.1739889968875685;52.36970705181593;24;0.04;0.16;10.53959751;1.5371244;-0.87151605;-0.07;10.58823395;5.09803868;32.15686417;61.17647171;2085.25;78;7.800000000000001;-0.004134891243223983;0.08017973637649385;0.08697632830047346;10.071293448558567;1.0148562209221632;-1.6774045153021806;18.823241866428255;10;1;0;0;0;0;0;0;0;0;0;0;0;0;0;0;0;0
79;2022-05-01 23:48:32.303;5.1739889968875685;52.36970705181593;24;0.0;0.16;10.1062336;1.7430321;-1.55627859;-0.08;10.58823395;5.09803868;32.15686417;61.17647171;2085.25;79;7.9;-0.0037588084409920335;0.08743966817460695;0.08634180687241132;10.074471377382217;1.0810863607281578;-1.666387689288865;19.294086101700742;10;1;0;0;0;0;0;0;0;0;0;0;0;0;0;0;0;0
80;2022-05-01 23:48:32.404;5.1739889968875685;52.36970705181593;24;-0.07;0.14;9.90750885;2.09738469;-1.67599237;-0.06;10.58823395;5.09803868;32.15686417;61.17647171;2085.25;80;8.0;-0.009783408695989758;0.09222000169617336;0.08394603389995113;10.059286226551318;1.1735181396497476;-1.667261229762694;19.72208640490235;10;1;0;0;0;0;0;0;0;0;0;0;0;0;0;0;0;0
81;2022-05-01 23:48:32.503;5.174074094195825;52.369674192808326;24;-0.05;0.04;10.79817963;0.90264159;-0.89785308;-0.03;10.58823395;5.09803868;32.15686417;61.17647171;2085.25;81;8.1;-0.013440938115452444;0.08747081270985815;0.07903986956193257;10.126485466301181;1.1488830595183368;-1.5972868024906646;20.11114461000261;10;1;0;0;0;0;0;0;0;0;0;0;0;0;0;0;0;0
82;2022-05-01 23:48:32.603;5.174074094195825;52.369674192808326;24;-0.05;0.0;10.48213482;0.9337672;-1.60655844;0.0;10.58823395;5.09803868;32.15686417;61.17647171;2085.25;82;8.200000000000001;-0.016765708659377657;0.07951600297022812;0.07185179042179801;10.158829088762776;1.129319896888061;-1.5981299878924766;20.464806634785393;10;1;0;0;0;0;0;0;0;0;0;0;0;0;0;0;0;0
83;2022-05-01 23:48:32.704;5.174074094195825;52.369674192808326;24;-0.04;0.06;9.5962534;0.76377368;-0.29449579;0.04;10.58823395;5.09803868;32.15686417;61.17647171;2085.25;83;8.3;-0.0188786214874508;0.07774122910585753;0.061680054199657844;10.107668785565979;1.0960773383097409;-1.479578258491287;20.786295046098434;10;1;0;0;0;0;0;0;0;0;0;0;0;0;0;0;0;0
84;2022-05-01 23:48:32.806;5.174074094195825;52.369674192808326;24;0.05;0.09;9.0240221;0.86912173;-0.36392978;0.05;0.0;0.0;32.15686417;26.66666603;2085.25;84;8.4;-0.012615029973753179;0.07885600073866239;0.0515242435195368;10.009125579604834;1.075438754210697;-1.3781249164928435;21.078538628244647;10;1;0;0;0;0;0;0;0;0;0;0;0;0;0;0;0;0
85;2022-05-01 23:48:32.904;5.174074094195825;52.369674192808326;24;-0.07;0.08;10.05834866;1.42938209;-0.7589851;0.05;0.0;0.0;32.15686417;26.66666603;2085.25;85;8.5;-0.017833283415316425;0.07896002933848374;0.04229222278474132;10.013601638554746;1.1076242904104396;-1.321823963878511;21.34419923328781;10;1;0;0;0;0;0;0;0;0;0;0;0;0;0;0;0;0
86;2022-05-01 23:48:33.004;5.174074094195825;52.369674192808326;26;0.0;0.07;10.19961071;0.57941449;-0.39026681;0.0;0.0;0.0;9.8039217;26.66666603;1746.0;86;8.6;-0.01621166959103408;0.07814527710790002;0.03844651184468736;10.030515791415597;1.059593185059906;-1.2371157290763275;21.767559907291368;10;1;0;0;0;0;0;0;0;0;0;0;0;0;0;0;0;0
87;2022-05-01 23:48:33.104;5.174074094195825;52.369674192808326;26;-0.01;0.04;9.84525776;0.62969428;-0.66321415;0.0;0.0;0.0;9.8039217;26.66666603;1746.0;87;8.700000000000001;-0.01564684372074162;0.07467673470971527;0.03495057823229284;10.013670315768596;1.0205025638300325;-1.1849309735748617;22.15241483619413;10;1;0;0;0;0;0;0;0;0;0;0;0;0;0;0;0;0
88;2022-05-01 23:48:33.205;5.174074094195825;52.369674192808326;26;0.0;0.06;9.90511513;0.7685622;0.0383084;0.02;0.0;0.0;9.8039217;26.66666603;1746.0;88;8.8;-0.01422410882165511;0.07334220980176427;0.029954036644008794;10.003799618903063;0.9975941514686063;-1.0737043659738248;22.50226773863589;10;1;0;0;0;0;0;0;0;0;0;0;0;0;0;0;0;0
89;2022-05-01 23:48:33.303;5.174074094195825;52.369674192808326;26;0.02;0.09;9.95539474;0.64166564;-0.11253092;0.08;0.0;0.0;9.8039217;26.66666603;1746.0;89;8.9;-0.01111224049567327;0.07485683944395209;0.019956333395419423;9.999398346973196;0.9652309227597204;-0.9863085124283792;22.82030325838087;10;1;0;0;0;0;0;0;0;0;0;0;0;0;0;0;0;0
90;2022-05-01 23:48:33.404;5.174074094195825;52.369674192808326;26;0.0;0.07;10.08708;0.75419658;-0.44054657;0.01;0.0;0.0;9.8039217;16.47058868;1746.0;90;9.0;-0.010101863932592286;0.07441523302383121;0.017232564305796404;10.007370770470057;0.9460426992855577;-0.9366852995519216;23.109416067511294;10;1;0;0;0;0;0;0;0;0;0;0;0;0;0;0;0;0
91;2022-05-01 23:48:33.504;5.174177819170912;52.36964951757584;26;-0.01;-0.01;9.82370949;0.05027977;-0.25379312;0.04;0.0;0.0;9.8039217;16.47058868;1367.75;91;9.1;-0.0100926021344014;0.06673992702879841;0.012028794462462952;9.99067169286816;0.8645970367552815;-0.8745945340357477;23.372237307131787;10;1;0;0;0;0;0;0;0;0;0;0;0;0;0;0;0;0
92;2022-05-01 23:48:33.606;5.174177819170912;52.36964951757584;26;0.02;0.04;9.99609756;0.32322711;-0.57941449;0.07;0.0;0.0;12.94117641;16.47058868;1367.75;92;9.200000000000001;-0.00735652412234154;0.06430868076897622;0.004570576662548954;9.991165023278388;0.815374628325129;-0.8477561893662519;23.611158610539068;10;1;0;0;0;0;0;0;0;0;0;0;0;0;0;0;0;0
93;2022-05-01 23:48:33.704;5.174177819170912;52.36964951757584;26;-0.03;-0.01;9.42625999;0.27773589;-0.56504887;0.05;0.0;0.0;12.94117641;16.47058868;1367.75;93;9.3;-0.009415286592771282;0.05755247761267298;-0.0003910226886096131;9.939803417482791;0.7664920953123825;-0.8220522196059686;23.828353931036833;10;1;0;0;0;0;0;0;0;0;0;0;0;0;0;0;0;0
94;2022-05-01 23:48:33.805;5.174177819170912;52.36964951757584;26;0.02;0.04;9.82610416;-0.06464542;-0.21548474;0.06;0.0;0.0;12.94117641;16.47058868;1367.75;94;9.4;-0.006740857075068355;0.055956611324302755;-0.005810654006457916;9.929465913226496;0.6909253080498727;-0.7669032763236847;24.02579937595954;10;1;0;0;0;0;0;0;0;0;0;0;0;0;0;0;0;0
95;2022-05-01 23:48:33.904;5.174177819170912;52.36964951757584;26;0.0;-0.03;9.98412609;-0.18675344;0.10774237;0.08;0.0;0.0;12.94117641;14.11764717;1367.75;95;9.5;-0.006127986772961499;0.048141543631316126;-0.012555856639568352;9.934435548197143;0.6111278529963344;-0.687381587089025;24.205291229799645;10;1;0;0;0;0;0;0;0;0;0;0;0;0;0;0;0;0
96;2022-05-01 23:48:34.005;5.174177819170912;52.36964951757584;26;-0.01;-0.01;9.62737942;-0.05506832;0.28252444;0.07;0.0;0.0;12.94117641;14.11764717;1367.75;96;9.600000000000001;-0.006480021976728387;0.042855438197418466;-0.017778555924759316;9.906518658372768;0.5505587144738244;-0.5991997948635452;24.368462332420837;10;1;0;0;0;0;0;0;0;0;0;0;0;0;0;0;0;0
97;2022-05-01 23:48:34.107;5.174177819170912;52.36964951757584;25;-0.01;-0.01;10.0822916;-0.17238778;0.28970724;0.07;0.0;0.0;12.94117641;14.11764717;1332.0;97;9.700000000000001;-0.0068000480785810466;0.03804997642004284;-0.022526376811715557;9.92249941988555;0.48483053465426246;-0.5183829683390476;24.425879889176105;10;1;0;0;0;0;0;0;0;0;0;0;0;0;0;0;0;0
98;2022-05-01 23:48:34.212;5.174177819170912;52.36964951757584;25;0.0;0.0;9.68963051;0.21548474;0.59378016;0.13;0.0;0.0;8.62745094;14.11764717;1332.0;98;9.8;-0.0061818125406442855;0.03459061152016482;-0.03229748614476699;9.901327829022051;0.4603425986389881;-0.417269158263517;24.478076792999996;10;1;0;0;0;0;0;0;0;0;0;0;0;0;0;0;0;0
99;2022-05-01 23:48:34.310;5.174177819170912;52.36964951757584;25;0.01;-0.04;10.18763924;-0.24421602;0.69673395;0.14;0.0;0.0;8.62745094;14.11764717;1332.0;99;9.9;-0.004710631916037741;0.027809154735247022;-0.04208933432044286;9.92735802801098;0.3962871668980912;-0.31598879893959797;24.52552780058906;10;1;0;0;0;0;0;0;0;0;0;0;0;0;0;0;0;0
100;2022-05-01 23:48:34.405;5.174177819170912;52.36964951757584;25;0.01;0.0;10.06553173;0.12689656;0.31125572;0.06;0.0;0.0;8.62745094;14.11764717;1332.0;100;10.0;-0.0033732135139217558;0.025280882972178672;-0.043717684075280504;9.939920102351726;0.37179549603860146;-0.2589628080070372;24.568664482575702;10;1;0;0;0;0;0;0;0;0;0;0;0;0;0;0;0;0
101;2022-05-01 23:48:34.505;5.174281618444889;52.36962771548863;25;0.0;-0.01;9.97454929;-0.47167215;0.39026681;0.1;0.0;0.0;8.62745094;10.98039246;1332.0;101;10.100000000000001;-0.0030665393481682187;0.022073337612868803;-0.048834565118136046;9.943068399128354;0.2951120202902034;-0.1999383938503074;24.607879154110734;10;1;0;0;0;0;0;0;0;0;0;0;0;0;0;0;0;0
102;2022-05-01 23:48:34.611;5.174281618444889;52.36962771548863;25;-0.01;-0.03;10.16609097;0.71588814;-0.24900457;0.09;0.0;0.0;8.62745094;10.98039246;1332.0;102;10.200000000000001;-0.003696888319314729;0.017339139722849093;-0.05257708142097626;9.963344283733576;0.33336648043082845;-0.20439919852017757;24.643528447325675;10;1;0;0;0;0;0;0;0;0;0;0;0;0;0;0;0;0
103;2022-05-01 23:48:34.706;5.174281618444889;52.36962771548863;24;0.0;-0.03;9.96018314;-0.18196489;0.49561489;0.12;0.0;0.0;7.84313726;10.98039246;1242.5;103;10.3;-0.003360790904896123;0.013035368256850376;-0.05870674146198245;9.963056892786463;0.2865158519534436;-0.14075839985741467;24.58502296147668;10;1;0;0;0;0;0;0;0;0;0;0;0;0;0;0;0;0
104;2022-05-01 23:48:34.806;5.174281618444889;52.36962771548863;24;-0.1;0.02;10.33368969;0.86672747;1.03911531;0.1;0.0;0.0;7.84313726;10.98039246;1242.5;104;10.4;-0.012146569416002277;0.013668545126567037;-0.0624608432071637;9.996752301676507;0.33926473942323804;-0.0334923203546018;24.53183665944075;10;1;0;0;0;0;0;0;0;0;0;0;0;0;0;0;0;0
105;2022-05-01 23:48:34.906;5.174281618444889;52.36962771548863;24;-0.15000001;-0.09;9.66808128;-0.05027977;0.09098244;0.11;0.0;0.0;7.84313726;10.98039246;1242.5;105;10.5;-0.024679213733528157;0.0042437458797540155;-0.06678276176585705;9.966871893942761;0.3038501515699026;-0.022175969515444118;24.483485891701072;10;1;0;0;0;0;0;0;0;0;0;0;0;0;0;0;0;0
106;2022-05-01 23:48:35.005;5.174281618444889;52.36962771548863;24;0.08;-0.03;10.53241444;0.71349388;-0.00478855;0.14;0.0;1.1764707600000008;7.84313726;10.98039246;1242.5;106;10.600000000000001;-0.01516256719803713;0.0011305621447445797;-0.07343912220005855;10.018286767246156;0.34109187731379087;-0.02059523615118709;24.439530992040396;10;1;0;0;0;0;0;0;0;0;0;0;0;0;0;0;0;0
107;2022-05-01 23:48:35.103;5.174281618444889;52.36962771548863;24;0.08;0.0;10.0487709;-0.05027977;0.21069619;0.17;0.0;1.1764707600000008;7.84313726;10.98039246;1242.5;107;10.700000000000001;-0.006511131853274915;0.00102778028853279;-0.08221768099388761;10.021058145859893;0.3055114321639444;0.0004319689575262186;24.399572276427527;10;1;0;0;0;0;0;0;0;0;0;0;0;0;0;0;0;0
108;2022-05-01 23:48:35.204;5.174281618444889;52.36962771548863;24;0.01;0.02;10.11820507;0.37111259;0.27773589;0.1;0.0;1.1764707600000008;7.84313726;11.76470566;1242.5;108;10.8;-0.00501007367162714;0.002752580615668962;-0.08383430520051348;10.029889956216584;0.31147535732488646;0.025642192168314308;24.36324640609828;10;1;0;0;0;0;0;0;0;0;0;0;0;0;0;0;0;0
109;2022-05-01 23:48:35.304;5.174281618444889;52.36962771548863;24;-0.08;-0.1;9.65611076;0.11971374;-1.18756032;0.1;0.0;1.1764707600000008;7.84313726;11.76470566;1242.5;109;10.9;-0.011827530434999711;-0.006588824423253384;-0.08530395493536964;9.995909078597153;0.2940419952855351;-0.08465203102780992;24.33022308164292;10;1;0;0;0;0;0;0;0;0;0;0;0;0;0;0;0;0
110;2022-05-01 23:48:35.403;5.174281618444889;52.36962771548863;24;0.04;-0.05;8.655303;-1.07981789;-1.03193247;-0.02;0.0;1.1764707600000008;7.84313726;11.76470566;1242.5;110;11.0;-0.00711581692211957;-0.010535395306685649;-0.07573062463650518;9.874032698940256;0.16914246540300826;-0.17077062489733713;24.300202037943116;10;1;0;0;0;0;0;0;0;0;0;0;0;0;0;0;0;0
111;2022-05-01 23:48:35.504;5.1743764149582;52.36960935934822;24;-0.05;-0.19;9.81173801;-1.33121681;-1.36234236;-0.01;0.0;1.1764707600000008;7.84313726;11.76470566;1242.5;111;11.100000000000001;-0.011014469163472509;-0.026850736607707128;-0.06793675128033774;9.86836941445562;0.03274301385552837;-0.27909783279480915;24.272910312554288;10;1;0;0;0;0;0;0;0;0;0;0;0;0;0;0;0;0
112;2022-05-01 23:48:35.604;5.1743764149582;52.36960935934822;24;0.06;-0.14;10.68085957;-1.27614844;-0.17717634;0.05;0.0;1.1764707600000008;7.84313726;11.76470566;1242.5;112;11.200000000000001;-0.004558472627299232;-0.037137249499180534;-0.06630610325184237;9.942233708474275;-0.08624961950297878;-0.2698320477766856;24.248099762629867;10;1;0;0;0;0;0;0;0;0;0;0;0;0;0;0;0;0
113;2022-05-01 23:48:35.706;5.1743764149582;52.36960935934822;24;-0.2;-0.22;8.09983158;-1.77655196;-1.90823698;-0.04;0.0;1.1764707600000008;7.84313726;11.76470566;1242.5;113;11.3;-0.022326223727410804;-0.05376145357728574;-0.05664172737230078;9.774739405267047;-0.2399164050301681;-0.418780796941062;24.225544807755824;10;1;0;0;0;0;0;0;0;0;0;0;0;0;0;0;0;0
114;2022-05-01 23:48:35.807;5.1743764149582;52.36960935934822;24;0.0;-0.18000001;9.09345531;-1.75260913;-0.84278476;0.01;0.0;1.1764707600000008;7.84313726;11.76470566;1208.5;114;11.4;-0.0202965317658095;-0.06523788534396904;-0.05240149667862864;9.712803411584755;-0.3774363144304538;-0.45732728138084805;24.205040378127592;10;1;0;0;0;0;0;0;0;0;0;0;0;0;0;0;0;0
115;2022-05-01 23:48:35.906;5.1743764149582;52.36960935934822;24;0.03;-0.14;9.86920071;-1.11573207;-0.29210153;0.1;0.0;1.1764707600000008;7.84313726;11.76470566;1208.5;115;11.5;-0.015724047576536036;-0.0720345485575096;-0.05672870168122089;9.727021572343405;-0.44455517036008435;-0.44230652131398146;24.186400049376566;10;1;0;0;0;0;0;0;0;0;0;0;0;0;0;0;0;0
116;2022-05-01 23:48:36.006;5.1743764149582;52.36960935934822;24;-0.02;-0.25999999;9.78061295;-2.44694877;-0.71109962;0.0;0.0;1.1764707600000008;7.84313726;11.76470566;1208.5;116;11.600000000000001;-0.016112776104998096;-0.08912256128952889;-0.051571472941935766;9.731893585712962;-0.6265935656234486;-0.46674260838071446;24.16945434705729;10;1;0;0;0;0;0;0;0;0;0;0;0;0;0;0;0;0
117;2022-05-01 23:48:36.104;5.1743764149582;52.36960935934822;23;-0.01;-0.2;9.52681923;-2.46849728;0.09577099;0.05;0.0;1.1764707600000008;7.84313726;11.76470566;1208.5;117;11.700000000000001;-0.01555706193341291;-0.09920246000364938;-0.051428609900807484;9.713250219140905;-0.7940415433004853;-0.415604341092641;24.063138927922232;10;1;0;0;0;0;0;0;0;0;0;0;0;0;0;0;0;0
118;2022-05-01 23:48:36.207;5.1743764149582;52.36960935934822;23;-0.13;-0.31;11.37041092;-1.515576;-0.44533512;0.08;0.0;1.1764707600000008;7.84313726;11.76470566;1208.5;118;11.8;-0.02596108883856513;-0.11836610010860615;-0.05402603981943334;9.863902979452488;-0.8596363631060409;-0.4183071712444091;23.96648878771365;10;1;0;0;0;0;0;0;0;0;0;0;0;0;0;0;0;0
119;2022-05-01 23:48:36.312;5.1743764149582;52.36960935934822;23;0.02;-0.2;11.38956547;-0.37350687;-0.64166564;0.06;0.0;1.1764707600000008;23.13725471;11.76470566;1208.5;119;11.9;-0.02178276296583431;-0.12578744378491008;-0.05456913296661268;10.002601065559636;-0.8154422961274069;-0.4386127056100776;23.87862522291447;10;1;0;0;0;0;0;0;0;0;0;0;0;0;0;0;0;0
120;2022-05-01 23:48:36.405;5.1743764149582;52.36960935934822;23;0.05;-0.33000001;10.53241444;-3.15565419;-1.38867939;-0.06;0.0;1.1764707600000008;23.13725471;11.76470566;1208.5;120;12.0;-0.015256993250970652;-0.14435240457689447;-0.04415365510979682;10.050766390083272;-1.0281909181143623;-0.5249832511273015;23.798749419399638;10;1;0;0;0;0;0;0;0;0;0;0;0;0;0;0;0;0
121;2022-05-01 23:48:36.504;5.174466330996351;52.369584700407984;23;0.02;-0.31999999;10.44622135;-2.43497753;0.34477556;0.04;0.0;1.1764707600000008;23.13725471;11.76470566;1208.5;121;12.100000000000001;-0.01205178347379563;-0.16032050923425412;-0.04377604673366091;10.086717161464565;-1.1560817501747687;-0.44591356343824695;23.726135188505115;10;1;0;0;0;0;0;0;0;0;0;0;0;0;0;0;0;0
122;2022-05-01 23:48:36.604;5.174466330996351;52.369584700407984;23;-0.03;-0.25;10.61142635;-1.67359805;-0.6847626;0.03;2.7450981200000015;1.5686273600000007;23.13725471;11.76470566;1208.5;122;12.200000000000001;-0.013683452744689089;-0.16847325628286497;-0.0425236686995042;10.134418383356932;-1.2031290677942363;-0.4676272881847323;23.66012236367272;10;1;0;0;0;0;0;0;0;0;0;0;0;0;0;0;0;0
123;2022-05-01 23:48:36.706;5.174466330996351;52.369584700407984;23;0.0;-0.14;10.23791885;-0.96010423;-0.53152901;0.07;2.7450981200000015;1.5686273600000007;23.13725471;15.29411793;1208.5;123;12.3;-0.012439493330577445;-0.16588475936879254;-0.045021535402026934;10.14382758600833;-1.1810357379543368;-0.47343657842113834;23.600110797580598;10;1;0;0;0;0;0;0;0;0;0;0;0;0;0;0;0;0
124;2022-05-01 23:48:36.805;5.174466330996351;52.369584700407984;23;0.19;-0.23999999;11.8827858;-2.26498389;-1.185166;-0.04;2.7450981200000015;1.5686273600000007;23.13725471;15.29411793;1208.5;124;12.4;0.005964220231537363;-0.17262255273453397;-0.03729225314387101;10.301915755170702;-1.2795771390329123;-0.5381396864608212;23.545554905138353;10;1;0;0;0;0;0;0;0;0;0;0;0;0;0;0;0;0
125;2022-05-01 23:48:36.907;5.174466330996351;52.369584700407984;23;-0.2;-0.38999999;9.48372269;-1.92499697;-0.28252444;0.04;2.7450981200000015;1.5686273600000007;23.13725471;15.29411793;1527.5;125;12.5;-0.012759913794383458;-0.19238425826277672;-0.03753841344775986;10.227534114543447;-1.3382520263722253;-0.5149017952949636;23.495958702696853;10;1;0;0;0;0;0;0;0;0;0;0;0;0;0;0;0;0
126;2022-05-01 23:48:37.005;5.174466330996351;52.369584700407984;23;0.1;-0.13;10.04637718;-2.00640225;0.25618741;-0.02;2.7450981200000015;1.5686273600000007;9.8039217;15.29411793;1527.5;126;12.600000000000001;-0.0025089557998119708;-0.1867129306654504;-0.03230761963567154;10.21106521115446;-1.3989932920046313;-0.44480238862142024;23.450871298340925;10;1;0;0;0;0;0;0;0;0;0;0;0;0;0;0;0;0
127;2022-05-01 23:48:37.105;5.174466330996351;52.369584700407984;23;-0.01;-0.17;11.57871342;-1.15404046;0.25618741;0.06;2.7450981200000015;1.5686273600000007;9.8039217;15.29411793;1527.5;127;12.700000000000001;-0.0031899632448061585;-0.18519356568685932;-0.03482512142764404;10.33539749213785;-1.3767247406772507;-0.3810757226228161;23.409882792239642;10;1;0;0;0;0;0;0;0;0;0;0;0;0;0;0;0;0
128;2022-05-01 23:48:37.205;5.174466330996351;52.369584700407984;23;-0.02;-0.17;9.79018974;-1.50839317;-0.25379312;0.04;2.7450981200000015;1.5686273600000007;9.8039217;15.29411793;1527.5;128;12.8;-0.004718155395083947;-0.18381232612411927;-0.03529556708627543;10.285832924301303;-1.3886946526447697;-0.3695045239973868;23.372620549761734;10;1;0;0;0;0;0;0;0;0;0;0;0;0;0;0;0;0
129;2022-05-01 23:48:37.305;5.174466330996351;52.369584700407984;23;-0.11;-0.16;9.35682583;-1.63050115;-0.2753416;0.04;9.80392075;1.5686273600000007;9.8039217;15.29411793;1527.5;129;12.9;-0.01428927198014093;-0.18164756020127087;-0.03572324458426006;10.201377382690403;-1.4106771529124666;-0.3609442225802632;23.338745813456143;10;1;0;0;0;0;0;0;0;0;0;0;0;0;0;0;0;0
130;2022-05-01 23:48:37.408;5.174466330996351;52.369584700407984;23;0.07;-0.20999999;9.68963051;-1.24502289;-0.86672747;-0.06;9.80392075;4.705882070000001;9.8039217;43.52941132;1527.5;130;13.0;-0.00662658192163698;-0.1842250635637906;-0.027021098541091387;10.154854763836143;-1.395617617532125;-0.40692469163300565;23.30795062308195;10;1;0;0;0;0;0;0;0;0;0;0;0;0;0;0;0;0
131;2022-05-01 23:48:37.504;5.17454671632182;52.36956178189415;23;-0.02;-0.14;9.68005276;-2.24582982;-1.37191951;-0.07;9.80392075;4.705882070000001;9.8039217;43.52941132;2001.25;131;13.100000000000001;-0.007842351379953353;-0.1802045894218846;-0.018200968359907345;10.111690796955804;-1.4729099015833287;-0.4946517948110852;23.279955015674876;10;1;0;0;0;0;0;0;0;0;0;0;0;0;0;0;0;0
132;2022-05-01 23:48:37.604;5.17454671632182;52.36956178189415;23;-0.01;-0.2;9.88596058;-1.89626563;-1.52036452;-0.07;9.80392075;4.705882070000001;9.8039217;43.52941132;2001.25;132;13.200000000000001;-0.008038501867364442;-0.18200417782442813;-0.01018267345628584;10.09116980402493;-1.5113969062353705;-0.5878986975367079;23.254504480185638;10;1;0;0;0;0;0;0;0;0;0;0;0;0;0;0;0;0
133;2022-05-01 23:48:37.707;5.17454671632182;52.36956178189415;23;-0.07;-0.23;9.31851768;-2.02316213;-1.21629155;-0.06;9.80392075;4.705882070000001;9.8039217;43.52941132;2001.25;133;13.3;-0.013671381333623743;-0.18636744677929243;-0.0038024122922829203;10.020928502327136;-1.5579211496343697;-0.6450254827510928;23.2313676435417;10;1;0;0;0;0;0;0;0;0;0;0;0;0;0;0;0;0
134;2022-05-01 23:48:37.809;5.17454671632182;52.36956178189415;23;-0.02;-0.25999999;9.55076218;-1.96809387;-1.03911531;-0.08;9.80392075;4.705882070000001;23.92156792;43.52941132;2001.25;134;13.4;-0.014246711788904494;-0.1930613316296663;0.003816008497376014;9.978185999019217;-1.595209675044422;-0.6808519231933406;23.210334167089197;10;1;0;0;0;0;0;0;0;0;0;0;0;0;0;0;0;0
135;2022-05-01 23:48:37.905;5.17454671632182;52.36956178189415;23;-0.04;-0.23999999;9.66329288;-2.66482782;-1.07024086;-0.07;9.80392075;4.705882070000001;23.92156792;43.52941132;2001.25;135;13.5;-0.016587925303957272;-0.19732849240751696;0.00983274912156251;9.94955928463611;-1.6924479164833066;-0.7162510005457625;23.191212834285782;10;1;0;0;0;0;0;0;0;0;0;0;0;0;0;0;0;0
136;2022-05-01 23:48:38.004;5.17454671632182;52.36956178189415;23;0.0;-0.23999999;10.02243423;-2.26258969;-1.06545234;-0.03;9.80392075;4.705882070000001;23.92156792;43.52941132;2001.25;136;13.600000000000001;-0.015079928876385044;-0.20120772773981438;0.01166613947758138;9.956184293807212;-1.7442790974127118;-0.7479966446061925;23.173829812254684;10;1;0;0;0;0;0;0;0;0;0;0;0;0;0;0;0;0
137;2022-05-01 23:48:38.104;5.17454671632182;52.36956178189415;23;0.02;-0.25;9.47653961;-2.56426835;-0.84278476;-0.03;9.80392075;4.705882070000001;23.92156792;43.52941132;2001.25;137;13.700000000000001;-0.011890838246131538;-0.2056433974597289;0.013332857304018574;9.912580147049372;-1.818823719539784;-0.7566137627231359;23.158027071391853;10;1;0;0;0;0;0;0;0;0;0;0;0;0;0;0;0;0
138;2022-05-01 23:48:38.205;5.17454671632182;52.36956178189415;23;-0.05;-0.27000001;9.54118538;-2.32484078;-0.71588814;0.01;9.41176415;4.705882070000001;23.92156792;43.52941132;2001.25;138;13.8;-0.015355313606666532;-0.21149400891828804;0.011211684717155111;9.878816926861418;-1.8648253516223057;-0.7529114268549787;23.143660948655526;10;1;0;0;0;0;0;0;0;0;0;0;0;0;0;0;0;0
139;2022-05-01 23:48:38.305;5.17454671632182;52.36956178189415;23;0.04;-0.23999999;10.29538155;-2.77735877;-0.94094998;-0.03;9.41176415;4.705882070000001;23.92156792;43.52941132;2001.25;139;13.9;-0.010323004301222832;-0.21408546589887;0.012919716117777213;9.916686498773418;-1.9477830681201376;-0.770005868185357;23.130600841474397;10;1;0;0;0;0;0;0;0;0;0;0;0;0;0;0;0;0
140;2022-05-01 23:48:38.405;5.17454671632182;52.36956178189415;23;0.02;-0.27000001;10.23313046;-2.50680566;-1.4748733;-0.07;9.41176415;4.705882070000001;23.92156792;43.52941132;2001.25;140;14.0;-0.007566363528551077;-0.21916861368077736;0.018108840397889136;9.945454173543288;-1.9986033778200747;-0.8340848190230322;23.11872802039845;10;1;0;0;0;0;0;0;0;0;0;0;0;0;0;0;0;0
141;2022-05-01 23:48:38.505;5.174600383562146;52.36951132189397;23;-0.07;-0.31;10.19242764;-2.09977889;-0.82363051;-0.05;9.41176415;4.705882070000001;23.92156792;43.52941132;2001.25;141;14.100000000000001;-0.013242156183139762;-0.22742602337871334;0.02100804056699592;9.967906336608214;-2.0078011638423203;-0.8331344260343287;23.10793454969649;10;1;0;0;0;0;0;0;0;0;0;0;0;0;0;0;0;0
142;2022-05-01 23:48:38.605;5.174600383562146;52.36951132189397;23;-0.02;-0.19;9.84286404;-2.04710507;-1.70951223;-0.02;9.41176415;4.705882070000001;23.92156792;47.45098114;2001.25;142;14.200000000000001;-0.013856506361087761;-0.22402365351848755;0.020916400405060293;9.956538841404992;-2.0113742505244625;-0.9128052314579047;23.098122306085987;10;1;0;0;0;0;0;0;0;0;0;0;0;0;0;0;0;0
143;2022-05-01 23:48:38.706;5.174600383562146;52.36951132189397;23;-0.07;-0.34;9.52442551;-2.90904379;-1.17558897;-0.06;9.41176415;4.705882070000001;23.92156792;47.45098114;2001.25;143;14.3;-0.01896046591760203;-0.2345669692900529;0.02446945880464147;9.917255768258416;-2.0929806616620557;-0.9366946883957765;23.089202086673286;10;1;0;0;0;0;0;0;0;0;0;0;0;0;0;0;0;0
144;2022-05-01 23:48:38.807;5.174600383562146;52.36951132189397;23;0.0;-0.30000001;9.94102859;-2.78933024;-0.8834874;-0.09;9.41176415;4.705882070000001;23.92156792;47.45098114;2001.25;144;14.4;-0.017236785481819547;-0.2405154334583722;0.030426786662276887;9.919416936022827;-2.1562852318061996;-0.9318576573624994;23.081092797993467;10;1;0;0;0;0;0;0;0;0;0;0;0;0;0;0;0;0
145;2022-05-01 23:48:38.908;5.174600383562146;52.36951132189397;23;-0.05;-0.27000001;9.44780827;-3.28973365;-0.78053361;-0.05;9.41176415;4.705882070000001;23.92156792;47.45098114;2001.25;145;14.5;-0.02021526222456865;-0.2431958519334981;0.032206171303393975;9.876543382127544;-2.259326090352685;-0.9181009133336812;23.073720718776578;10;1;0;0;0;0;0;0;0;0;0;0;0;0;0;0;0;0
146;2022-05-01 23:48:39.005;5.174600383562146;52.36951132189397;23;-0.11;-0.37;9.82370949;-2.98326635;-0.85475612;-0.07;9.41176415;4.705882070000001;23.92156792;47.45098114;1992.75;146;14.600000000000001;-0.02837751782885431;-0.25472351124226866;0.035641976739033375;9.871740297073234;-2.325138895378121;-0.9123422910199047;23.06701882973736;10;1;0;0;0;0;0;0;0;0;0;0;0;0;0;0;0;0
147;2022-05-01 23:48:39.106;5.174600383562146;52.36951132189397;27;0.01;-0.34;9.09824467;-3.68239474;-2.39427471;-0.09;9.41176415;4.705882070000001;23.92156792;47.45098114;1992.75;147;14.700000000000001;-0.024888649962126745;-0.2624759251097052;0.040583618913489695;9.801422460198408;-2.4485258826331746;-1.0470635207851662;23.42456283991973;10;1;0;0;0;0;0;0;0;0;0;0;0;0;0;0;0;0
148;2022-05-01 23:48:39.207;5.174600383562146;52.36951132189397;27;-0.01;-0.31;9.87398911;-2.94016957;-0.43096948;0.03;9.41176415;4.705882070000001;26.27450943;47.45098114;1992.75;148;14.8;-0.023535135408856503;-0.2667962984920028;0.03416692192182758;9.808019432847933;-2.4932207936940958;-0.9910549335387053;23.749602802762716;10;1;0;0;0;0;0;0;0;0;0;0;0;0;0;0;0;0
149;2022-05-01 23:48:39.308;5.174600383562146;52.36951132189397;27;0.02;-0.34;9.23950672;-3.33043623;-1.00320113;0.0;9.41176415;4.705882070000001;26.27450943;47.45098114;1992.75;149;14.9;-0.019577393379736064;-0.27345118456102485;0.03106083619071063;9.75633642700457;-2.5693313349518174;-0.9921591338995716;24.045093639716082;10;1;0;0;0;0;0;0;0;0;0;0;0;0;0;0;0;0
150;2022-05-01 23:48:39.405;5.174600383562146;52.36951132189397;27;-0.06;-0.30000001;10.22115898;-2.87552404;-1.32163966;-0.09;13.33333206;4.705882070000001;26.27450943;47.45098114;1992.75;150;15.0;-0.023252177864837846;-0.27586471550269137;0.03641894500259196;9.79859304647791;-2.597167051053271;-1.022111925831848;24.313721641608876;10;1;0;0;0;0;0;0;0;0;0;0;0;0;0;0;0;0
151;2022-05-01 23:48:39.505;5.174627426087171;52.36944417506329;27;-0.07;-0.38999999;10.0822916;-3.97689056;-2.23385835;-0.05;13.33333206;6.27450943;26.27450943;63.52941132;1992.75;151;15.100000000000001;-0.02750198204823006;-0.28624065484867517;0.03765358699673636;9.824383837246613;-2.7225965250358892;-1.1322707479423426;24.557928889857557;10;1;0;0;0;0;0;0;0;0;0;0;0;0;0;0;0;0
152;2022-05-01 23:48:39.606;5.174627426087171;52.36944417506329;29;-0.04;-0.31;9.56752205;-2.94016957;-2.49004579;-0.17;13.33333206;6.27450943;36.47058868;63.52941132;2117.75;152;15.200000000000001;-0.028638166026067557;-0.2884005963201165;0.04968508467571654;9.801032754833823;-2.742375901946012;-1.2557049000012357;24.961753723782035;10;1;0;0;0;0;0;0;0;0;0;0;0;0;0;0;0;0
153;2022-05-01 23:48:39.707;5.174627426087171;52.36944417506329;29;-0.08;-0.37;9.33048916;-3.07903743;-1.87471712;-0.1;13.33333206;6.27450943;36.47058868;63.52941132;2117.75;153;15.3;-0.0333074256314603;-0.29581872705937295;0.0542591698182305;9.758256046333715;-2.772981508327398;-1.3119787619422179;25.328867176618278;10;1;0;0;0;0;0;0;0;0;0;0;0;0;0;0;0;0
154;2022-05-01 23:48:39.807;5.174627426087171;52.36944417506329;29;-0.03;-0.40000001;10.05595398;-3.08382607;-1.90584278;-0.14;13.33333206;6.27450943;36.47058868;63.52941132;2117.75;154;15.4;-0.03300675045864803;-0.3052897564164705;0.06205379373562118;9.785319505236476;-2.801240115689463;-1.3659664206693098;25.662606652296148;10;1;0;0;0;0;0;0;0;0;0;0;0;0;0;0;0;0
155;2022-05-01 23:48:39.908;5.174627426087171;52.36944417506329;29;-0.08;-0.36000001;9.89553738;-3.22987676;-2.21470428;-0.16;14.117647170000001;6.66666603;36.47058868;63.52941132;2117.75;155;15.5;-0.037278865543995135;-0.31026341756862574;0.07095799741207402;9.795339315529397;-2.840207096950894;-1.4431244348041106;25.966006153407825;10;1;0;0;0;0;0;0;0;0;0;0;0;0;0;0;0;0
156;2022-05-01 23:48:40.004;5.174627426087171;52.36944417506329;29;-0.01;-0.22;9.90272045;-2.00400805;-1.86035156;-0.11;14.117647170000001;6.66666603;36.47058868;78.03921509;2117.75;156;15.600000000000001;-0.03479896788970805;-0.3020576497321534;0.07450727150048202;9.805101239941498;-2.7641889776597455;-1.4810541854900219;26.241823863317748;10;1;0;0;0;0;0;0;0;0;0;0;0;0;0;0;0;0
157;2022-05-01 23:48:40.105;5.174627426087171;52.36944417506329;32;-0.02;-0.19;9.23711205;-1.81964886;-2.51877713;-0.15000001;14.117647170000001;6.66666603;40.7843132;78.03921509;2192.0;157;15.700000000000001;-0.03345360678449502;-0.2918705877279126;0.08137024970681378;9.753465844147431;-2.6783216694742538;-1.5753926621956709;26.765294572153174;10;1;0;0;0;0;0;0;0;0;0;0;0;0;0;0;0;0
158;2022-05-01 23:48:40.203;5.174627426087171;52.36944417506329;32;-0.06;-0.13;9.77342987;-1.96091104;-3.41423583;-0.17;14.117647170000001;6.66666603;40.7843132;78.03921509;2192.0;158;15.8;-0.03586691589130005;-0.27715507589485916;0.08942750184573992;9.755280756064368;-2.613102504242507;-1.7425602667294748;27.241177008531984;10;1;0;0;0;0;0;0;0;0;0;0;0;0;0;0;0;0
159;2022-05-01 23:48:40.305;5.174627426087171;52.36944417506329;32;-0.01;-0.31999999;10.22834206;-2.35117793;-2.41342902;-0.1;14.117647170000001;6.66666603;40.7843132;78.03921509;2192.0;159;15.9;-0.03351537752256866;-0.28105006901451146;0.09038863827064499;9.79828633939875;-2.589291173636524;-1.803548349743624;27.673797383588056;10;1;0;0;0;0;0;0;0;0;0;0;0;0;0;0;0;0
160;2022-05-01 23:48:40.405;5.174627426087171;52.36944417506329;32;0.0;-0.22;10.06553173;-2.01119089;-1.36713088;-0.06;14.509803780000002;6.66666603;40.7843132;78.03921509;2192.0;160;16.0;-0.030468524360387352;-0.27550006153800327;0.08762603419295108;9.822581380171705;-2.5367365910103916;-1.7638740257165673;28.06708861574487;10;1;0;0;0;0;0;0;0;0;0;0;0;0;0;0;0;0
161;2022-05-01 23:48:40.505;5.174652559141258;52.36937725934044;32;-0.13;-0.2;9.44780827;-1.71190643;-1.3934679;-0.09;14.509803780000002;7.058823590000001;40.7843132;73.72548676;2192.0;161;16.1;-0.03951684210981013;-0.2686364182281181;0.08784184930882678;9.788511090718231;-2.461752016149339;-1.730200734928118;28.424626084735227;10;1;0;0;0;0;0;0;0;0;0;0;0;0;0;0;0;0
162;2022-05-01 23:48:40.606;5.174652559141258;52.36937725934044;32;0.0;-0.1;10.38157558;-0.59856868;-1.93217981;-0.11;14.509803780000002;7.058823590000001;40.7843132;73.72548676;2192.0;162;16.2;-0.035924401274756025;-0.25330583200777945;0.08985622700507725;9.842426053943175;-2.29237168253423;-1.7485624723133675;28.74966013523178;10;1;0;0;0;0;0;0;0;0;0;0;0;0;0;0;0;0
163;2022-05-01 23:48:40.709;5.174652559141258;52.36937725934044;32;-0.02;-0.08;9.98651981;-1.00559545;-1.89626563;-0.18000001;14.509803780000002;7.058823590000001;40.7843132;73.72548676;2192.0;163;16.3;-0.03447672819594493;-0.2375507538061053;0.09805111770221202;9.855525488444297;-2.1753920059892287;-1.7619900342887929;29.04514562558241;10;1;0;0;0;0;0;0;0;0;0;0;0;0;0;0;0;0
164;2022-05-01 23:48:40.810;5.174652559141258;52.36937725934044;35;-0.02;-0.09;9.73033237;-0.74222517;-2.37272644;-0.16;14.509803780000002;7.058823590000001;40.7843132;73.72548676;2378.75;164;16.400000000000002;-0.03316066180156031;-0.22413704692966288;0.10368283510812727;9.844144294174248;-2.0451040925282102;-1.8175115339332304;29.586496103366503;10;1;0;0;0;0;0;0;0;0;0;0;0;0;0;0;0;0
165;2022-05-01 23:48:40.910;5.174652559141258;52.36937725934044;35;-0.06;-0.1;9.88835526;-0.65363705;-1.79331183;-0.12;14.509803780000002;7.058823590000001;40.0;73.72548676;2378.75;165;16.5;-0.03560060196602357;-0.21285185932696885;0.10516621393421788;9.848163473426373;-1.9186070716445562;-1.8153115605524321;30.07863288744869;10;1;0;0;0;0;0;0;0;0;0;0;0;0;0;0;0;0
