;device_time;lon;lat;raw_speed_kph;raw_g_x;raw_g_y;raw_roll;raw_yaw;raw_pitch;raw_g_z;apps_d;apps_e;engine_load;engine_load_abs;engine_rpm;num_samples;cumulative_time;g_x;g_y;g_z;roll;yaw;pitch;speed_kph;sample_nr;roundabout_1;roundabout_2;roundabout_3;roundabout_4;turning_right_1;turning_right_2;turning_right_3;turning_left_1;turning_left_2;road_50km_1;road_50km_2;road_100km;entering_highway;exiting_highway;speed_bumps;road_50km_3;road_50km_4
0;2022-05-02 00:23:22.523;5.1737260046762215;52.36974532765553;0;-0.01;0.0;9.71836185;0.30167863;-1.19713736;-0.05;0.0;0.0;0.0;0.0;0.0;0;0.0;-0.01;0.0;0.05;9.71836185;0.30167863;-1.19713736;0.0;2;0;0;0;0;0;0;0;0;0;0;0;0;0;0;0;0;0
1;2022-05-02 00:23:22.622;5.1737260046762215;52.36974532765553;0;-0.01;-0.01;9.5483675;0.01197137;-1.05587518;-0.05;0.0;0.0;0.0;0.0;0.0;1;0.1;-0.01;-0.005238095238095238;0.05;9.62931719047619;0.14992720809523807;-1.1231428847619047;0.0;2;0;0;0;0;0;0;0;0;0;0;0;0;0;0;0;0;0
2;2022-05-02 00:23:22.724;5.1737260046762215;52.36974532765553;0;-0.01;-0.01;9.69441891;0.15323359;-1.10376072;-0.05;0.0;0.0;0.0;0.0;0.0;2;0.2;-0.01;-0.006978851963746223;0.05;9.653115704259818;0.15113588546827791;-1.116057561691843;0.0;2;0;0;0;0;0;0;0;0;0;0;0;0;0;0;0;0;0
3;2022-05-02 00:23:22.826;5.1737260046762215;52.36974532765553;0;-0.03;-0.03;10.29298782;0.56983739;-1.55627859;-0.09;0.0;0.0;0.0;0.0;0.0;3;0.30000000000000004;-0.01573583279465632;-0.013581124757595346;0.06147166558931265;9.83662567755225;0.2712159765115276;-1.2423092722452058;0.0;2;0;0;0;0;0;0;0;0;0;0;0;0;0;0;0;0;0
4;2022-05-02 00:23:22.920;5.1737260046762215;52.36974532765553;0;-0.04;-0.02;9.46217442;0.09816527;-2.01119089;-0.13;0.0;0.0;0.0;0.0;0.0;4;0.4;-0.02155476568770372;-0.015120473047124532;0.07790584920803917;9.746826315349788;0.22971566703198956;-1.4266993029662085;0.0;2;0;0;0;0;0;0;0;0;0;0;0;0;0;0;0;0;0
5;2022-05-02 00:23:23.024;5.1737260046762215;52.36974532765553;0;0.03;0.01;9.16528416;-0.13647367;-3.28015637;-0.23;0.0;0.0;0.0;0.0;0.0;5;0.5;-0.010793534147008465;-0.009876976674559753;0.10965306696424519;9.625438705476764;0.15327950849321045;-1.8135787773083005;0.0;2;0;0;0;0;0;0;0;0;0;0;0;0;0;0;0;0;0
6;2022-05-02 00:23:23.126;5.1737260046762215;52.36974532765553;0;-0.05;0.01;9.75427532;0.65363705;-3.13649988;-0.28;0.0;0.0;0.0;0.0;0.0;6;0.6000000000000001;-0.018114646610670346;-0.006165303650582452;0.14146233687576623;9.649496659282107;0.24671240925881374;-2.060610841092711;0.0;2;0;0;0;0;0;0;0;0;0;0;0;0;0;0;0;0;0
7;2022-05-02 00:23:23.225;5.1737260046762215;52.36974532765553;0;0.0;0.06;9.78540134;0.5506832;-2.71271324;-0.28999999;0.0;0.0;0.0;0.0;0.0;7;0.7000000000000001;-0.015027844667350321;0.0051095057497108605;0.16677369547825752;9.672655313246638;0.2985101422060145;-2.171731471566671;0.0;2;0;0;0;0;0;0;0;0;0;0;0;0;0;0;0;0;0
8;2022-05-02 00:23:23.328;5.1737260046762215;52.36974532765553;0;-0.01;-0.06;9.7039957;-0.25618741;-2.95692945;-0.23;0.0;0.0;0.0;0.0;0.0;8;0.8;-0.014234174068785983;-0.005168357593238103;0.17675428602447021;9.677602551110867;0.21094834039849528;-2.295678926344169;0.0;2;0;0;0;0;0;0;0;0;0;0;0;0;0;0;0;0;0
9;2022-05-02 00:23:23.424;5.1737260046762215;52.36974532765553;0;-0.03;-0.06;10.32890129;-0.07661679;-2.42779469;-0.2;0.0;0.0;0.0;0.0;0.0;9;0.9;-0.016566733674989953;-0.013280718771006407;0.18019349775199156;9.773962433335406;0.16840297612472793;-2.315225501004508;0.0;2;0;0;0;0;0;0;0;0;0;0;0;0;0;0;0;0;0
10;2022-05-02 00:23:23.522;5.1737260046762215;52.36974532765553;6;0.02;-0.05;9.45259666;-0.67997402;-2.61694241;-0.18000001;0.0;0.0;0.0;0.0;1969.75;10;1.0;-0.011448616211191101;-0.018420187780916687;0.1801664159499553;9.72898199315187;0.04965862344766661;-2.357455758559872;0.8397989564978982;2;0;0;0;0;0;0;0;0;0;0;0;0;0;0;0;0;0
11;2022-05-02 00:23:23.621;5.1737260046762215;52.36974532765553;6;-0.02;-0.07;9.03120422;-1.00320113;-2.56666255;-0.22;0.0;0.0;30.58823586;0.0;1969.75;11;1.1;-0.012589552059864237;-0.0253020279932103;0.18548106035678302;9.635883648432719;-0.09081518359928858;-2.3853683787900977;1.5282791489781986;2;0;0;0;0;0;0;0;0;0;0;0;0;0;0;0;0;0
12;2022-05-02 00:23:23.722;5.1737260046762215;52.36974532765553;6;-0.03;-0.11;9.57709885;-0.78771639;-3.0143919;-0.23999999;0.0;0.0;30.58823586;0.0;1969.75;12;1.2000000000000002;-0.014817749477264037;-0.036141714779755876;0.1924584189318244;9.628360341938794;-0.1800049318254196;-2.465871108545407;2.1005721127112107;2;0;0;0;0;0;0;0;0;0;0;0;0;0;0;0;0;0
13;2022-05-02 00:23:23.823;5.1737260046762215;52.36974532765553;6;-0.06;-0.15000001;9.64892769;-1.36473668;-2.90186095;-0.25;0.0;0.0;30.58823586;0.0;1969.75;13;1.3;-0.020393494809556646;-0.050192472561234956;0.19955937557611925;9.630898469048958;-0.3262075321491733;-2.519674721585757;2.581783574947278;2;0;0;0;0;0;0;0;0;0;0;0;0;0;0;0;0;0
14;2022-05-02 00:23:23.923;5.1737260046762215;52.36974532765553;6;-0.04;-0.18000001;9.45977974;-1.60895264;-2.82284999;-0.23;0.0;0.0;30.58823586;0.0;1969.75;14;1.4000000000000001;-0.022736895981328876;-0.0657072791208017;0.20319768817958977;9.610446082136018;-0.47952329952458034;-2.5559107194014508;2.990334323692853;2;0;0;0;0;0;0;0;0;0;0;0;0;0;0;0;0;0
15;2022-05-02 00:23:24.021;5.1737260046762215;52.36974532765553;6;-0.11;-0.19;9.69920731;-1.02953815;-2.50441146;-0.22;0.0;0.0;30.58823586;0.0;1969.75;15;1.5;-0.032876600588369304;-0.08014971144879614;0.20515006519494197;9.620759864131516;-0.543433335455837;-2.5499266636692557;3.3400482293221265;2;0;0;0;0;0;0;0;0;0;0;0;0;0;0;0;0;0
16;2022-05-02 00:23:24.123;5.1737260046762215;52.36974532765553;6;0.02;-0.14;9.73272705;-0.7685622;-2.27695537;-0.17;0.0;0.0;30.58823586;0.0;1969.75;16;1.6;-0.026884040913847475;-0.0869326063718735;0.20116647205733101;9.633449220773945;-0.5689474218423772;-2.5189905454516968;3.6415033066109506;2;0;0;0;0;0;0;0;0;0;0;0;0;0;0;0;0;0
17;2022-05-02 00:23:24.221;5.1737260046762215;52.36974532765553;6;0.06;-0.13;11.28421688;-0.71349388;-1.4748733;-0.11;0.0;0.0;30.58823586;0.0;1969.75;17;1.7000000000000002;-0.017253322353671968;-0.0917064398951561;0.19106106460535874;9.81642964579826;-0.5849697689011036;-2.403254683848046;3.9029324210976637;2;0;0;0;0;0;0;0;0;0;0;0;0;0;0;0;0;0
18;2022-05-02 00:23:24.325;5.1737260046762215;52.36974532765553;6;0.15000001;-0.07;10.62579155;-1.47247899;-1.4341706;-0.09;12.54901886;0.0;30.58823586;0.0;1969.75;18;1.8;0.0009235977233203266;-0.08934740634062;0.1800778520835125;9.904390264812584;-0.6814233579117871;-2.2979356226843333;4.130839567946942;2;0;0;0;0;0;0;0;0;0;0;0;0;0;0;0;0;0
19;2022-05-02 00:23:24.422;5.1737260046762215;52.36974532765553;6;0.02;-0.15000001;8.41827011;0.05027977;-3.29452205;-0.13;12.54901886;6.66666603;30.58823586;72.54901886;1969.75;19;1.9000000000000001;0.002960604135528447;-0.09582398094726428;0.17473046506974485;9.745700159584217;-0.6032910171395902;-2.404352593416979;4.330431279754798;2;0;0;0;0;0;0;0;0;0;0;0;0;0;0;0;0;0
20;2022-05-02 00:23:24.521;5.173784850038443;52.36975629035969;6;-0.15000001;-0.25;8.39193344;-2.15963578;-2.74862742;-0.20999999;12.54901886;6.66666603;30.58823586;72.54901886;1969.75;20;2.0;-0.013117557386409656;-0.11202989742549525;0.17843775352328245;9.603401567861685;-0.7668832112642865;-2.4405403813715605;4.505924792956134;2;0;0;0;0;0;0;0;0;0;0;0;0;0;0;0;0;0
21;2022-05-02 00:23:24.621;5.173784850038443;52.36975629035969;6;-0.22;-0.28;11.20281219;-1.20432019;-1.55149007;-0.20999999;12.54901886;6.66666603;30.58823586;72.54901886;1969.75;21;2.1;-0.034559053653238136;-0.12943848116895426;0.18170889421090616;9.769166030280362;-0.8122196024439525;-2.3483983479951442;4.660772191166849;2;0;0;0;0;0;0;0;0;0;0;0;0;0;0;0;0;0
22;2022-05-02 00:23:24.721;5.173784850038443;52.36975629035969;6;0.02;-0.25999999;9.88596058;-1.10376072;-2.08301902;-0.07;12.54901886;6.66666603;30.58823586;72.54901886;1969.75;22;2.2;-0.028975588592691552;-0.14279988636200644;0.17027682810977665;9.781118552253462;-0.842055340687009;-2.321239955273201;4.797826102076986;2;0;0;0;0;0;0;0;0;0;0;0;0;0;0;0;0;0
23;2022-05-02 00:23:24.823;5.173784850038443;52.36975629035969;6;0.03;-0.15000001;9.7470932;-1.03911531;-2.80609012;-0.15000001;12.54901886;6.66666603;30.58823586;72.54901886;1969.75;23;2.3000000000000003;-0.02300834330131269;-0.14352840649892099;0.16822518690912056;9.77767581216613;-0.8619941866071994;-2.3702978779074617;4.9194639984165;2;0;0;0;0;0;0;0;0;0;0;0;0;0;0;0;0;0
24;2022-05-02 00:23:24.922;5.173784850038443;52.36975629035969;6;0.08;-0.18000001;10.69043732;-1.50121033;-2.96171784;-0.23;12.54901886;6.66666603;30.58823586;72.54901886;1969.75;24;2.4000000000000004;-0.012691770027682266;-0.14718113945109615;0.17441210697104878;9.869091426427325;-0.9260134686347674;-2.429530238887853;5.027682696804107;2;0;0;0;0;0;0;0;0;0;0;0;0;0;0;0;0;0
25;2022-05-02 00:23:25.023;5.173784850038443;52.36975629035969;6;0.0;-0.04;9.35203743;-0.28252444;-2.24104118;-0.20999999;12.54901886;6.66666603;30.58823586;72.54901886;1969.75;25;2.5;-0.011432296015003654;-0.13654496660101262;0.1779436879675093;9.817781319938517;-0.8621565198213562;-2.4108254348435225;5.124171080440271;2;0;0;0;0;0;0;0;0;0;0;0;0;0;0;0;0;0
26;2022-05-02 00:23:25.123;5.173784850038443;52.36975629035969;6;-0.07;0.02;9.47653961;-0.62730002;-1.40783358;-0.12;12.54901886;6.66666603;30.58823586;72.54901886;1969.75;26;2.6;-0.017196297421317126;-0.12113843115153203;0.1722410997455556;9.784197662698302;-0.8390428735087238;-2.3121149499093674;5.210366693048297;2;0;0;0;0;0;0;0;0;0;0;0;0;0;0;0;0;0
27;2022-05-02 00:23:25.222;5.173784850038443;52.36975629035969;6;-0.18000001;-0.23;9.88117218;-0.36153549;-1.76936913;-0.1;12.54901886;6.66666603;30.58823586;72.54901886;1969.75;27;2.7;-0.033099410023706616;-0.13177232739412081;0.1651843912370271;9.79367039918437;-0.7923986442824307;-2.2590980515120207;5.2875002374629;2;0;0;0;0;0;0;0;0;0;0;0;0;0;0;0;0;0
28;2022-05-02 00:23:25.322;5.173784850038443;52.36975629035969;6;-0.09;-0.14;8.92346191;-1.09897208;-3.29452205;-0.25999999;12.54901886;6.66666603;30.58823586;72.54901886;1969.75;28;2.8000000000000003;-0.03862021949487055;-0.13257062162739852;0.17438392424508184;9.709237965865526;-0.8221440920576116;-2.359560605940797;5.356630899181095;2;0;0;0;0;0;0;0;0;0;0;0;0;0;0;0;0;0
29;2022-05-02 00:23:25.423;5.173784850038443;52.36975629035969;6;0.02;-0.09;9.27063179;-0.51476908;-2.30329227;-0.22;12.54901886;6.66666603;30.58823586;72.54901886;1969.75;29;2.9000000000000004;-0.03296713875267031;-0.12846529477296056;0.1787829415399154;9.666940680943002;-0.7925021736842336;-2.354134330688955;5.4186746360573155;2;0;0;0;0;0;0;0;0;0;0;0;0;0;0;0;0;0
30;2022-05-02 00:23:25.521;5.173837725597448;52.36973221833701;19;-0.16;-0.22;10.15890789;1.2258687;-3.45015001;-0.15000001;12.54901886;6.66666603;30.58823586;72.54901886;2299.75;30;3.0;-0.04515030776681314;-0.13724399009235144;0.17602249580776305;9.714123115460382;-0.5989290049319235;-2.4592484258300478;6.72120046063766;2;0;0;0;0;0;0;0;0;0;0;0;0;0;0;0;0;0
31;2022-05-02 00:23:25.621;5.173837725597448;52.36973221833701;19;-0.28;-0.02;10.36242104;-0.21069619;-2.14766455;-0.1;12.54901886;6.66666603;35.29411697;72.54901886;2299.75;31;3.1;-0.06756173991514257;-0.12605553289758903;0.16876775772255992;9.775989430078738;-0.561880400325014;-2.429514340061074;7.892951975926514;2;0;0;0;0;0;0;0;0;0;0;0;0;0;0;0;0;0
32;2022-05-02 00:23:25.721;5.173837725597448;52.36973221833701;19;0.09;0.07;10.79578495;1.07742369;-2.02555656;-0.13;12.54901886;6.66666603;35.29411697;72.54901886;2299.75;32;3.2;-0.052593459662381936;-0.10743036308735508;0.16508484166264;9.872869454067507;-0.4061473965088797;-2.3911385689792515;8.948115543520663;2;0;0;0;0;0;0;0;0;0;0;0;0;0;0;0;0;0
33;2022-05-02 00:23:25.822;5.173837725597448;52.36973221833701;19;0.0;-0.07;8.56192684;-1.14685762;-1.24981141;-0.13;12.54901886;6.66666603;35.29411697;72.54901886;2299.75;33;3.3000000000000003;-0.04761746304434048;-0.10388898434310863;0.16176537847123698;9.748837947946374;-0.47622781317477236;-2.283154798380837;9.899149063305648;2;0;0;0;0;0;0;0;0;0;0;0;0;0;0;0;0;0
34;2022-05-02 00:23:25.922;5.173837725597448;52.36973221833701;19;-0.05;-0.03;8.98571301;-0.44533512;-1.97767103;-0.16;13.33333206;6.66666603;35.29411697;72.54901886;2299.75;34;3.4000000000000004;-0.047842049002858295;-0.09692395979933985;0.1615989679502301;9.676903220868828;-0.4733157638605436;-2.2543588694150882;10.757025926911085;2;0;0;0;0;0;0;0;0;0;0;0;0;0;0;0;0;0
35;2022-05-02 00:23:26.022;5.173837725597448;52.36973221833701;19;-0.15000001;-0.18000001;10.5970602;0.52913475;-3.07424879;-0.06;13.33333206;6.66666603;35.29411697;66.66666412;2299.75;35;3.5;-0.05743960962366058;-0.1047288084881264;0.1520539237422651;9.763350349429986;-0.3791373025617697;-2.3313860843124043;11.531438832082381;2;0;0;0;0;0;0;0;0;0;0;0;0;0;0;0;0;0
36;2022-05-02 00:23:26.123;5.173837725597448;52.36973221833701;19;0.14;0.08;11.30815983;1.12291491;-1.80767751;-0.11;13.33333206;6.66666603;35.29411697;66.66666412;2299.75;36;3.6;-0.03894670850639622;-0.08742644653860399;0.14811500259649776;9.908042739288572;-0.238449711592464;-2.2823336631823024;12.230971025393554;2;0;0;0;0;0;0;0;0;0;0;0;0;0;0;0;0;0
37;2022-05-02 00:23:26.227;5.173837725597448;52.36973221833701;22;0.0;0.13;11.41350842;1.81725454;-1.91302562;-0.20999999;13.33333206;6.66666603;38.82352829;66.66666412;2445.75;37;3.7;-0.03530884074575212;-0.06711744763965224;0.15389545001238386;10.048662711415789;-0.0464339929583962;-2.247837966997378;13.143459831827155;2;0;0;0;0;0;0;0;0;0;0;0;0;0;0;0;0;0
38;2022-05-02 00:23:26.322;5.173837725597448;52.36973221833701;22;0.12;0.06;9.84046936;0.19633053;-2.26498389;-0.1;13.33333206;6.66666603;38.82352829;66.66666412;2445.75;38;3.8000000000000003;-0.02083815355012086;-0.05527345464435487;0.14887381573417993;10.029264582821938;-0.02381474310076259;-2.249435514743275;13.968655756243184;2;0;0;0;0;0;0;0;0;0;0;0;0;0;0;0;0;0
39;2022-05-02 00:23:26.421;5.173837725597448;52.36973221833701;22;-0.05;-0.01;9.7614584;0.2849187;-1.29530263;-0.06;13.33333206;6.66666603;38.82352829;66.66666412;2445.75;39;3.9000000000000004;-0.02354912931485395;-0.051064693771221005;0.14061182995804555;10.00436848879292;0.00488607608252473;-2.160736360136602;14.715274446540263;2;0;0;0;0;0;0;0;0;0;0;0;0;0;0;0;0;0
40;2022-05-02 00:23:26.521;5.173906152791184;52.36969575187215;22;-0.05;0.15000001;9.3783741;1.81246603;-2.34878349;-0.17;13.33333206;6.66666603;38.82352829;66.66666412;2445.75;40;4.0;-0.02600304398470536;-0.032411408892753756;0.1433382453734193;9.94629339432103;0.17257987409191675;-2.1781819715150728;15.391096997497534;2;0;0;0;0;0;0;0;0;0;0;0;0;0;0;0;0;0
41;2022-05-02 00:23:26.623;5.173906152791184;52.36969575187215;22;-0.03;0.2;10.89155579;2.74144459;-1.64247251;-0.14;12.94117546;6.27450943;38.82352829;66.66666412;2445.75;41;4.1000000000000005;-0.026373162079241733;-0.010890114317897335;0.1430291238789678;10.033824684479548;0.41045672590999643;-2.1285752797320385;16.00308136182425;2;0;0;0;0;0;0;0;0;0;0;0;0;0;0;0;0;0
42;2022-05-02 00:23:26.724;5.173906152791184;52.36969575187215;22;0.07;0.25;11.60505009;1.74063778;-1.24741721;-0.08;12.94117546;6.27450943;38.82352829;65.88235474;2619.0;42;4.2;-0.01746407244211025;0.013227527603911797;0.13720247979805786;10.179074541139956;0.5334235559778713;-2.0471177861897014;16.557458582010952;2;0;0;0;0;0;0;0;0;0;0;0;0;0;0;0;0;0
43;2022-05-02 00:23:26.822;5.173906152791184;52.36969575187215;25;-0.01;-0.03;9.64892769;1.77415764;-1.59219277;-0.27000001;12.94117546;6.27450943;34.90196228;65.88235474;2619.0;43;4.3;-0.01677512337983558;0.009237538916349222;0.14945996183813756;10.130140908891141;0.6479458345796579;-2.005127282246981;17.33672232017132;2;0;0;0;0;0;0;0;0;0;0;0;0;0;0;0;0;0
44;2022-05-02 00:23:26.923;5.173906152791184;52.36969575187215;25;-0.05;0.22;9.30894089;2.52835417;-0.28013015;0.03;12.94117546;6.27450943;34.90196228;65.88235474;2619.0;44;4.4;-0.01983758121731971;0.028664282262066906;0.13291848380862223;10.054447913466474;0.8212699167218782;-1.8461280164955685;18.043074523061527;2;0;0;0;0;0;0;0;0;0;0;0;0;0;0;0;0;0
45;2022-05-02 00:23:27.025;5.173906152791184;52.36969575187215;25;-0.01;0.15000001;7.96814632;0.78771639;-1.00080693;-0.17;12.94117546;6.27450943;34.90196228;65.88235474;2619.0;45;4.5;-0.018931960743664492;0.039834113219281195;0.1363321054616731;9.862388768487184;0.818181072005743;-1.76831009907954;18.683509809584695;2;0;0;0;0;0;0;0;0;0;0;0;0;0;0;0;0;0
46;2022-05-02 00:23:27.123;5.173906152791184;52.36969575187215;25;0.06;0.19;8.11898613;1.08460653;-1.98006523;-0.07;12.94117546;6.27450943;34.90196228;60.7843132;2619.0;46;4.6000000000000005;-0.011674036208679326;0.05364211524678771;0.13023275849053959;9.702080008068489;0.8426793341812001;-1.7877813341234505;19.26432154536421;2;0;0;0;0;0;0;0;0;0;0;0;0;0;0;0;0;0
47;2022-05-02 00:23:27.225;5.173906152791184;52.36969575187215;25;-0.06;0.15000001;8.68642902;0.88588166;-2.15245295;-0.01;12.94117546;6.27450943;34.90196228;60.7843132;2349.25;47;4.7;-0.016113060653666283;0.062493155489337635;0.11918867137553882;9.60878648198219;0.8466477222969151;-1.8212785701901553;19.79117739822743;2;0;0;0;0;0;0;0;0;0;0;0;0;0;0;0;0;0
48;2022-05-02 00:23:27.325;5.173906152791184;52.36969575187215;27;0.0;0.15000001;9.82370949;1.89865994;-0.71828246;0.0;12.94117546;6.27450943;31.76470566;60.7843132;2349.25;48;4.800000000000001;-0.014634381129793374;0.07052357235082946;0.10825084574273297;9.62850975231524;0.9431898354694197;-1.7200577159957944;20.452723866746922;2;0;0;0;0;0;0;0;0;0;0;0;0;0;0;0;0;0
49;2022-05-02 00:23:27.422;5.173906152791184;52.36969575187215;27;-0.11;0.12;10.34326744;1.24023438;-1.67838669;-0.02;12.94117546;6.27450943;31.76470566;60.7843132;2349.25;49;4.9;-0.023378469813108024;0.07506007383032759;0.10015911173320244;9.694045997790695;0.970425896756929;-1.7162368930288943;21.053044651339448;2;0;0;0;0;0;0;0;0;0;0;0;0;0;0;0;0;0
50;2022-05-02 00:23:27.522;5.173998115255951;52.36965989406649;27;0.1;0.16;10.02961731;1.5347302;-0.9768641;0.03;12.94117546;6.27450943;31.76470566;60.7843132;2349.25;50;5.0;-0.012074707393898815;0.08284215077439697;0.08823411640819871;9.724790570921341;1.0221266658267638;-1.6484965943828997;21.597896362344883;2;1;0;0;0;0;0;0;0;0;0;0;0;0;0;0;0;0
51;2022-05-02 00:23:27.622;5.173998115255951;52.36965989406649;27;-0.04;0.06;9.25387192;1.13009775;-0.73983091;-0.04;0.39215659999999986;6.27450943;31.76470566;60.7843132;2349.25;51;5.1000000000000005;-0.014631369579521724;0.08075086872600623;0.08381810747976112;9.681676254294553;1.0320118115955181;-1.565304943451824;22.09247861392678;2;1;0;0;0;0;0;0;0;0;0;0;0;0;0;0;0;0
52;2022-05-02 00:23:27.723;5.173998115255951;52.36965989406649;27;-0.03;0.1;9.56273365;1.32163966;-0.9433443;-0.02;0.39215659999999986;0.0;31.76470566;30.98039246;2349.25;52;5.2;-0.016037517304827845;0.0825120615853894;0.07797909097595904;9.670793640301316;1.0585112151908187;-1.5083988613812724;22.54149064981535;2;1;0;0;0;0;0;0;0;0;0;0;0;0;0;0;0;0
53;2022-05-02 00:23:27.826;5.173998115255951;52.36965989406649;27;-0.07;0.07;10.30735302;1.2665714;-0.84517902;0.0;0.39215659999999986;0.0;31.76470566;30.98039246;1925.25;53;5.300000000000001;-0.020971907237483947;0.08136794464265204;0.07084859544922392;9.729001343836126;1.0775364718141736;-1.447753295332431;22.94918174469102;2;1;0;0;0;0;0;0;0;0;0;0;0;0;0;0;0;0
54;2022-05-02 00:23:27.924;5.173998115255951;52.36965989406649;29;0.04;0.08;9.90032673;0.50279772;-0.16759923;0.04;0.39215659999999986;0.0;9.8039217;30.98039246;1925.25;54;5.4;-0.015399532337624222;0.08124292476486764;0.06071786543023215;9.744659198819239;1.0250096616864908;-1.3307568176951639;23.5021811389558;2;1;0;0;0;0;0;0;0;0;0;0;0;0;0;0;0;0
55;2022-05-02 00:23:28.025;5.173998115255951;52.36965989406649;29;-0.02;0.01;9.3687973;0.27294734;-0.97925842;-0.02;0.39215659999999986;0.0;9.8039217;30.98039246;1925.25;55;5.5;-0.015819777419091765;0.0747350018928837;0.056998356038859624;9.710324838514603;0.9563100174675826;-1.2986480227604265;24.004397762289297;2;1;0;0;0;0;0;0;0;0;0;0;0;0;0;0;0;0
56;2022-05-02 00:23:28.123;5.173998115255951;52.36965989406649;29;-0.03;0.01;9.55794525;0.4764607;-0.70391679;0.0;0.39215659999999986;0.0;9.8039217;30.98039246;1925.25;56;5.6000000000000005;-0.017114548478075545;0.06882416329525728;0.05179393689891393;9.696411327632608;0.9124958244684801;-1.2443441651405394;24.460537372417203;2;1;0;0;0;0;0;0;0;0;0;0;0;0;0;0;0;0
57;2022-05-02 00:23:28.223;5.173998115255951;52.36965989406649;29;0.02;0.05;10.04158878;0.84039044;-0.38547826;0.02;0.39215659999999986;0.0;9.8039217;13.33333302;1925.25;57;5.7;-0.013727036756501191;0.06710604798936363;0.0452411749024503;9.727916295734495;0.9059146360911005;-1.1659539262658078;24.874862306739637;2;1;0;0;0;0;0;0;0;0;0;0;0;0;0;0;0;0
58;2022-05-02 00:23:28.326;5.173998115255951;52.36965989406649;29;0.0;0.02;9.62019634;0.94094998;0.00718282;0.06;0.39215659999999986;0.0;9.8039217;13.33333302;1925.25;58;5.800000000000001;-0.012474599647919351;0.06280815299665338;0.03563910599736371;9.718088066067025;0.9091112156298454;-1.0589184443531947;25.251234543275107;2;1;0;0;0;0;0;0;0;0;0;0;0;0;0;0;0;0
59;2022-05-02 00:23:28.423;5.173998115255951;52.36965989406649;29;-0.02;-0.01;9.49090576;0.23224466;0.5411061;0.14;0.39215659999999986;0.0;8.62745094;13.33333302;1387.0;59;5.9;-0.01316098121523725;0.0561674200350446;0.019619301174162076;9.697367075819368;0.8473751344139365;-0.9129823740952703;25.59315436007032;2;1;0;0;0;0;0;0;0;0;0;0;0;0;0;0;0;0
60;2022-05-02 00:23:28.522;5.174114151052279;52.36963302432096;29;0.0;0.01;9.9314518;0.46209505;-0.0287313;0.06;0.39215659999999986;0.0;8.62745094;13.33333302;1387.0;60;6.0;-0.011960945430338366;0.05195781322591335;0.012359507317225562;9.718711232544532;0.8122447834967651;-0.8323551841923577;25.90379508014133;2;1;0;0;0;0;0;0;0;0;0;0;0;0;0;0;0;0
61;2022-05-02 00:23:28.627;5.174114151052279;52.36963302432096;29;-0.03;0.0;9.48372269;0.18196489;0.33040991;0.07;0.39215659999999986;0.0;8.62745094;13.33333302;1387.0;61;6.1000000000000005;-0.013605322771077621;0.04722152006747113;0.004851901688343934;9.697290496041886;0.7547906652009707;-0.7263615709401348;26.18603432903543;2;1;0;0;0;0;0;0;0;0;0;0;0;0;0;0;0;0
62;2022-05-02 00:23:28.723;5.174114151052279;52.36963302432096;29;0.0;0.01;9.93384647;0.36871833;0.20351335;0.12;0.39215659999999986;0.0;8.62745094;13.33333302;1387.0;62;6.2;-0.012365415749979519;0.04382937532793505;-0.006526347259186638;9.718848780099423;0.7196063621806089;-0.6416183816298678;26.442482180458338;2;1;0;0;0;0;0;0;0;0;0;0;0;0;0;0;0;0
63;2022-05-02 00:23:28.827;5.174114151052279;52.36963302432096;29;0.07;0.02;10.00088596;0.20111908;0.41181526;0.08;0.39215659999999986;0.0;8.62745094;10.98039246;1387.0;63;6.300000000000001;-0.004860816358491163;0.041658198093446154;-0.01322078720862952;9.74454616812796;0.6723651832596124;-0.5456363800341212;26.675506520801786;2;1;0;0;0;0;0;0;0;0;0;0;0;0;0;0;0;0
64;2022-05-02 00:23:28.926;5.174114151052279;52.36963302432096;29;-0.01;-0.01;9.77103519;0.19154198;0.08140534;0.07;0.39215659999999986;0.0;8.62745094;10.98039246;1387.0;64;6.4;-0.005328969563756911;0.0369524018614595;-0.018393081548541818;9.74695918182017;0.6285646617226852;-0.4885161034403203;26.887255924757017;2;1;0;0;0;0;0;0;0;0;0;0;0;0;0;0;0;0
65;2022-05-02 00:23:29.025;5.174114151052279;52.36963302432096;29;-0.01;0.0;10.10383987;0.75180227;-0.4764607;0.03;0.39215659999999986;0.0;8.62745094;10.98039246;1450.5;65;6.5;-0.0057543973885675285;0.03358685326141813;-0.01945021575842499;9.77946313934338;0.6397888890832009;-0.48741812214201063;27.079680300615948;2;1;0;0;0;0;0;0;0;0;0;0;0;0;0;0;0;0
66;2022-05-02 00:23:29.125;5.174114151052279;52.36963302432096;28;0.0;-0.04;10.24270725;-0.10055954;-0.30167863;0.04;0.39215659999999986;0.0;7.45098019;10.98039246;1450.5;66;6.6000000000000005;-0.005230387212715658;0.026885845785898525;-0.02132153178458952;9.821647335445267;0.5723708634726827;-0.47050420790081826;27.163486971401717;2;1;0;0;0;0;0;0;0;0;0;0;0;0;0;0;0;0
67;2022-05-02 00:23:29.226;5.174114151052279;52.36963302432096;28;-0.06;-0.03;10.19721603;0.14126222;0.33759275;0.05;0.39215659999999986;0.0;7.45098019;10.98039246;1450.5;67;6.7;-0.010217083218742718;0.021706469749742385;-0.023932665872102434;9.855842335442778;0.5331190294508055;-0.39692811949395995;27.239650302972123;2;1;0;0;0;0;0;0;0;0;0;0;0;0;0;0;0;0
68;2022-05-02 00:23:29.330;5.174114151052279;52.36963302432096;28;0.0;-0.01;9.91948032;0.17957062;0.27294734;0.09;0.39215659999999986;0.0;7.45098019;10.98039246;1450.5;68;6.800000000000001;-0.009286961951056294;0.01882004304594573;-0.029947164458056452;9.861635676027575;0.5009334352115752;-0.3359454106095333;27.30886941462497;2;1;0;0;0;0;0;0;0;0;0;0;0;0;0;0;0;0
69;2022-05-02 00:23:29.422;5.174114151052279;52.36963302432096;28;0.02;-0.05;9.24190044;-0.33519846;0.37590113;0.09;0.39215659999999986;0.0;7.45098019;10.5882349;1450.5;69;6.9;-0.006621135319292135;0.012555743462477975;-0.035413434690121016;9.805224679912445;0.4248250741720285;-0.27115004300338125;27.371779125901902;2;1;0;0;0;0;0;0;0;0;0;0;0;0;0;0;0;0
70;2022-05-02 00:23:29.521;5.174230473153719;52.36961268072894;27;-0.08;-0.07;9.17964935;0.35435268;-0.28013015;0.03;0.39215659999999986;0.0;7.45098019;10.5882349;1395.0;70;7.0;-0.013299628924862706;0.005042026710163064;-0.03492073711133642;9.748288655366384;0.41841110966201506;-0.2719673571907187;27.337942073150757;2;1;0;0;0;0;0;0;0;0;0;0;0;0;0;0;0;0
71;2022-05-02 00:23:29.625;5.174230473153719;52.36961268072894;27;-0.01;-0.07;9.45259666;-1.23305154;0.40223816;-0.05;0.39215659999999986;0.0;7.84313726;10.5882349;1395.0;71;7.1000000000000005;-0.012999348424513363;-0.0017871222156344531;-0.027192582821717874;9.72137940516286;0.26812086732229606;-0.2106117397408745;27.307187883171945;2;1;0;0;0;0;0;0;0;0;0;0;0;0;0;0;0;0
72;2022-05-02 00:23:29.723;5.174230473153719;52.36961268072894;27;0.11;-0.09;11.02324104;-0.61532861;-0.01197137;0.06;0.39215659999999986;0.0;7.84313726;10.5882349;1395.0;72;7.2;-0.0018069417361454372;-0.009814111105903621;-0.030177915347114413;9.839843161725142;0.187730800501043;-0.1925363285184151;27.27923511950093;2;1;0;0;0;0;0;0;0;0;0;0;0;0;0;0;0;0
73;2022-05-02 00:23:29.825;5.174230473153719;52.36961268072894;27;0.02;-0.20999999;8.42305851;-2.09738469;-0.51955765;0.07;0.39215659999999986;0.0;7.84313726;10.5882349;1395.0;73;7.300000000000001;0.00017722351992613611;-0.028028580171020064;-0.03380123849570751;9.710933068998616;-0.020186789100613476;-0.2222912731561984;27.253828135381266;2;1;0;0;0;0;0;0;0;0;0;0;0;0;0;0;0;0
74;2022-05-02 00:23:29.924;5.174230473153719;52.36961268072894;27;-0.06;-0.16;10.606637;-2.35836077;0.01436565;-0.06;0.39215659999999986;0.0;7.84313726;10.5882349;1395.0;74;7.4;-0.005297737732597823;-0.040035422091285584;-0.025267143431771798;9.79242477016263;-0.23291531325468948;-0.2007600789828299;27.230734693631618;2;1;0;0;0;0;0;0;0;0;0;0;0;0;0;0;0;0
75;2022-05-02 00:23:30.026;5.174230473153719;52.36961268072894;27;0.1;-0.15000001;9.80694962;-2.26977253;-0.26337022;-0.04;0.39215659999999986;0.0;7.84313726;10.5882349;1395.0;75;7.5;0.004281630760896716;-0.05003935314902514;-0.019329522824589936;9.793746155520957;-0.4182165957702453;-0.2064559811469982;27.20974380909672;2;1;0;0;0;0;0;0;0;0;0;0;0;0;0;0;0;0
76;2022-05-02 00:23:30.122;5.174230473153719;52.36961268072894;27;-0.1;-0.11;8.8731823;-0.77813929;0.52674043;0.12;0.39215659999999986;0.0;7.84313726;10.5882349;1395.0;76;7.6000000000000005;-0.005204681462094533;-0.05549386525216875;-0.02848733490669208;9.710004118779171;-0.45095811533309405;-0.13975842352187157;27.19066379236306;2;1;0;0;0;0;0;0;0;0;0;0;0;0;0;0;0;0
77;2022-05-02 00:23:30.223;5.174230473153719;52.36961268072894;27;-0.05;-0.22;11.43505669;-1.11094356;1.03672099;0.17;0.39215659999999986;0.0;7.84313726;10.5882349;1341.25;77;7.7;-0.00927939009762839;-0.07045780768486;-0.04135972642691709;9.866919770640322;-0.5109922545799278;-0.0327425347577613;27.173320475548202;2;1;0;0;0;0;0;0;0;0;0;0;0;0;0;0;0;0
78;2022-05-02 00:23:30.323;5.174230473153719;52.36961268072894;26;0.11;-0.19;7.56351423;-2.99763203;-0.9337672;0.15000001;0.39215659999999986;0.0;8.23529434;10.5882349;1341.25;78;7.800000000000001;0.0015700170000670104;-0.08133111872976394;-0.051241422357192326;9.657406757528504;-0.7371718754412742;-0.1146978783445838;27.06659766714966;2;1;0;0;0;0;0;0;0;0;0;0;0;0;0;0;0;0
79;2022-05-02 00:23:30.422;5.174230473153719;52.36961268072894;26;-0.14;-0.27000001;9.99849129;-2.0327394;0.85954463;-0.03;0.39215659999999986;0.0;8.23529434;10.5882349;1341.25;79;7.9;-0.011306270566784946;-0.09849121343338706;-0.04385223120797611;9.688429587205118;-0.8550082673694096;-0.026087119067143793;26.969586883571484;2;1;0;0;0;0;0;0;0;0;0;0;0;0;0;0;0;0
80;2022-05-02 00:23:30.521;5.17433890551081;52.36959279465992;26;0.0;-0.25999999;9.79258442;-2.30329227;-0.22745611;0.04;0.39215659999999986;0.0;8.23529434;10.5882349;1341.25;80;8.0;-0.010277971423357731;-0.11318034860120497;-0.04350187287999813;9.697902412458514;-0.9867289077474561;-0.04440151899822028;26.881403485167432;2;1;0;0;0;0;0;0;0;0;0;0;0;0;0;0;0;0
81;2022-05-02 00:23:30.622;5.17433890551081;52.36959279465992;26;0.12;-0.36000001;9.45738506;-3.0981915;-0.00478855;0.06;2.35293961;1.1764707600000008;8.23529434;15.29411793;1341.25;81;8.1;0.0015702608046515053;-0.13562755617391375;-0.04500230798279673;9.676028373312372;-1.1787575282458957;-0.040798886482500164;26.801243554330743;2;1;0;0;0;0;0;0;0;0;0;0;0;0;0;0;0;0
82;2022-05-02 00:23:30.722;5.17433890551081;52.36959279465992;26;-0.1;-0.25;9.47175121;-3.2610023;1.5586729;0.04;2.35293961;1.1764707600000008;8.23529434;15.29411793;1341.25;82;8.200000000000001;-0.007666787244572161;-0.1460288660726899;-0.044547385854724446;9.657450908236205;-1.3681219628211843;0.10466099151792987;26.728376504941963;2;1;0;0;0;0;0;0;0;0;0;0;0;0;0;0;0;0
83;2022-05-02 00:23:30.824;5.17433890551081;52.36959279465992;26;-0.05;-0.30000001;9.79737282;-1.70472372;-0.40702671;0.05;2.35293961;1.1764707600000008;8.23529434;15.29411793;1488.25;83;8.3;-0.011516544784975683;-0.16003091160047037;-0.04504324338724763;9.670175324830625;-1.3987323292088871;0.05812841203640149;26.662138372760662;2;1;0;0;0;0;0;0;0;0;0;0;0;0;0;0;0;0
84;2022-05-02 00:23:30.921;5.17433890551081;52.36959279465992;25;-0.05;-0.23999999;9.33527756;-2.03992224;-1.20671451;-0.05;2.35293961;1.1764707600000008;13.72549057;15.29411793;1488.25;84;8.4;-0.015016101516762272;-0.1673030321801886;-0.03640032865029803;9.639720841967149;-1.4570399956105946;-0.056892173764246726;26.510989067194032;2;1;0;0;0;0;0;0;0;0;0;0;0;0;0;0;0;0
85;2022-05-02 00:23:31.024;5.17433890551081;52.36959279465992;25;-0.13;-0.38;11.85884285;-3.04551744;-0.18196489;0.07;2.35293961;1.1764707600000008;13.72549057;15.29411793;1488.25;85;8.5;-0.025472064527809913;-0.18664445004323094;-0.03945568618687569;9.841514814332557;-1.6014868409646887;-0.06826555483675348;26.373588561513827;2;1;0;0;0;0;0;0;0;0;0;0;0;0;0;0;0;0
86;2022-05-02 00:23:31.122;5.17433890551081;52.36959279465992;25;0.2;-0.27000001;10.4270668;-1.61374128;-0.59617442;0.18000001;2.35293961;1.1764707600000008;13.72549057;15.29411793;1488.25;86;8.6;-0.004969467876777562;-0.19422412705551903;-0.05223564448799445;9.89476015186691;-1.6026011600323382;-0.11626929558225628;26.248685583842654;2;1;0;0;0;0;0;0;0;0;0;0;0;0;0;0;0;0
87;2022-05-02 00:23:31.224;5.17433890551081;52.36959279465992;25;-0.06;-0.27000001;8.67924595;-1.26178277;-0.2466103;0.07;6.274509430000002;1.1764707600000008;13.72549057;15.29411793;1488.25;87;8.700000000000001;-0.009973383127521267;-0.2011144128963941;-0.0538509537724316;9.784233689237073;-1.5716106121706894;-0.12812117697680256;26.135142854101588;2;1;0;0;0;0;0;0;0;0;0;0;0;0;0;0;0;0
88;2022-05-02 00:23:31.322;5.17433890551081;52.36959279465992;25;0.0;-0.20999999;9.88117218;-1.73824346;-0.22985038;0.04;6.274509430000002;3.1372547200000014;13.72549057;21.96078491;1488.25;88;8.8;-0.009066524179433521;-0.20192235990918786;-0.05259151540458048;9.793048104229303;-1.586762189841697;-0.13737120145333642;26.031926679465798;2;1;0;0;0;0;0;0;0;0;0;0;0;0;0;0;0;0
89;2022-05-02 00:23:31.421;5.17433890551081;52.36959279465992;25;-0.06;-0.31;9.80216122;-1.8268317;-0.96968132;0.05;6.274509430000002;3.1372547200000014;13.72549057;21.96078491;1758.0;89;8.9;-0.013697711830341582;-0.2117494495405958;-0.052355878744300074;9.793876725259748;-1.6085907992757256;-0.21305000170483396;25.93809750292539;2;1;0;0;0;0;0;0;0;0;0;0;0;0;0;0;0;0
90;2022-05-02 00:23:31.525;5.174431761739607;52.36955806301959;25;0.11;-0.15000001;9.58907032;-1.85077441;-0.95770991;-0.01;6.274509430000002;3.1372547200000014;18.43137169;21.96078491;1758.0;90;9.0;-0.002450540840046143;-0.20613490344437904;-0.04668619237654267;9.775254774814751;-1.6306112589961044;-0.2807579422502555;25.852801317047334;2;1;0;0;0;0;0;0;0;0;0;0;0;0;0;0;0;0
91;2022-05-02 00:23:31.622;5.174431761739607;52.36955806301959;25;-0.05;-0.27000001;9.40231705;-2.44694877;-0.26097596;-0.02;6.274509430000002;3.1372547200000014;18.43137169;21.96078491;1758.0;91;9.1;-0.006773891447251481;-0.2119417254794658;-0.04062286809490393;9.741346070751394;-1.7048353056253365;-0.27895930044687206;25.77526186324452;2;1;0;0;0;0;0;0;0;0;0;0;0;0;0;0;0;0
92;2022-05-02 00:23:31.722;5.174431761739607;52.36955806301959;25;-0.16;-0.28;8.29137325;-2.49483442;-0.73504239;0.0;6.666666030000002;3.1372547200000014;18.43137169;21.96078491;1758.0;92;9.200000000000001;-0.020705507749897684;-0.21812971638908182;-0.0369293577867936;9.609511717071257;-1.7766635641698605;-0.3204272634839431;25.70477354428366;2;1;0;0;0;0;0;0;0;0;0;0;0;0;0;0;0;0
93;2022-05-02 00:23:31.823;5.174431761739607;52.36955806301959;25;0.02;-0.11;9.56273365;-1.60895264;-0.91221869;-0.02;6.666666030000002;3.1372547200000014;18.43137169;27.05882263;1758.0;93;9.3;-0.017004531267839032;-0.2082984783210916;-0.03175329621787347;9.605258618764006;-1.7614151562651945;-0.37423340110239284;25.640694984482927;2;1;0;0;0;0;0;0;0;0;0;0;0;0;0;0;0;0
94;2022-05-02 00:23:31.923;5.174431761739607;52.36955806301959;25;0.0;-0.25999999;10.06553173;-1.84598589;-0.79729348;-0.03;6.666666030000002;3.1372547200000014;18.43137169;27.05882263;1916.25;94;9.4;-0.015458484105796864;-0.21299916510542213;-0.026138704032967832;9.647106519548935;-1.7691043034003355;-0.41269790353710784;25.58244317813247;2;1;0;0;0;0;0;0;0;0;0;0;0;0;0;0;0;0
95;2022-05-02 00:23:32.022;5.174431761739607;52.36955806301959;25;0.04;-0.25;10.16848469;-2.47807431;-0.75659084;-0.02;6.666666030000002;3.1372547200000014;20.0;27.05882263;1916.25;95;9.5;-0.01041626803003719;-0.21636323477898303;-0.021943830715732124;9.69450957130894;-1.833562970494242;-0.4439642196027529;25.52948817217894;2;1;0;0;0;0;0;0;0;0;0;0;0;0;0;0;0;0
96;2022-05-02 00:23:32.123;5.174431761739607;52.36955806301959;25;0.09;-0.20999999;10.8101511;-1.73824346;-0.84996754;-0.01;6.666666030000002;3.1372547200000014;20.0;27.05882263;1916.25;96;9.600000000000001;-0.00128663460559198;-0.21578470210333378;-0.019039565596857842;9.795941325245366;-1.8248967234201157;-0.48087717760300125;25.48134823420467;2;1;0;0;0;0;0;0;0;0;0;0;0;0;0;0;0;0
97;2022-05-02 00:23:32.223;5.174431761739607;52.36955806301959;25;-0.07;-0.30000001;9.4214716;-2.50201726;-0.8092649;-0.02;7.843135840000002;3.1372547200000014;20.0;27.05882263;1916.25;97;9.700000000000001;-0.007533852720866265;-0.22344131146973034;-0.015490202528854526;9.761895633584846;-1.8864585412421015;-0.510733228407917;25.43758546125332;2;1;0;0;0;0;0;0;0;0;0;0;0;0;0;0;0;0
98;2022-05-02 00:23:32.331;5.174431761739607;52.36955806301959;25;-0.04;-0.28;8.40390491;-2.79172444;-0.66321415;-0.02;7.843135840000002;3.9215688699999998;20.0;44.70588303;1916.25;98;9.8;-0.010485556267062024;-0.22858342088196337;-0.012263562923022593;9.638432076297205;-1.9687620107803903;-0.5245962369478868;25.397801789152034;2;1;0;0;0;0;0;0;0;0;0;0;0;0;0;0;0;0
99;2022-05-02 00:23:32.422;5.174431761739607;52.36955806301959;25;0.0;-0.28999999;9.70160198;-2.8467927;-0.99601829;0.03;7.843135840000002;3.9215688699999998;20.0;44.70588303;1980.0;99;9.9;-0.009532254702136766;-0.23416715053457907;-0.013876083307352996;9.644175211570365;-2.0485887752139367;-0.5674558973672933;25.361635365695804;2;1;0;0;0;0;0;0;0;0;0;0;0;0;0;0;0;0
100;2022-05-02 00:23:32.521;5.174503361571995;52.36950969079199;26;0.09;-0.25999999;10.84845924;-2.23146415;-1.13009775;-0.04;7.843135840000002;3.9215688699999998;30.19607925;44.70588303;1980.0;100;10.0;-0.00048327096013940423;-0.2365157454200439;-0.008977934426975361;9.753662800559676;-2.065214906091842;-0.6186085311770781;25.41967234290055;2;1;0;0;0;0;0;0;0;0;0;0;0;0;0;0;0;0
101;2022-05-02 00:23:32.622;5.174503361571995;52.36950969079199;26;-0.1;-0.40000001;10.1062336;-2.50201726;-0.33759275;-0.01;7.843135840000002;3.9215688699999998;30.19607925;44.70588303;1980.0;101;10.100000000000001;-0.009530788922125116;-0.25137884265565263;-0.007252564187558909;9.785716613738465;-2.104926592568583;-0.5930601097977672;25.47243256675539;2;1;0;0;0;0;0;0;0;0;0;0;0;0;0;0;0;0
102;2022-05-02 00:23:32.723;5.174503361571995;52.36950969079199;26;0.05;-0.31;9.53639698;-3.40705299;-1.17080033;0.03;7.843135840000002;3.9215688699999998;30.19607925;44.70588303;1980.0;102;10.200000000000001;-0.004118603949432197;-0.25670832933986204;-0.009320625647863769;9.763049956710255;-2.2233081737356666;-0.6455848116287672;25.52039585744895;2;1;0;0;0;0;0;0;0;0;0;0;0;0;0;0;0;0
103;2022-05-02 00:23:32.823;5.174503361571995;52.36950969079199;26;0.02;-0.36000001;10.1062336;-3.06946039;-1.17080033;0.01;7.843135840000002;3.9215688699999998;30.19607925;44.70588303;1980.0;103;10.3;-0.0019258949123647398;-0.266098947557742;-0.009382390013852954;9.794250016116383;-2.3002349152347796;-0.6933340435476314;25.563998395132792;2;1;0;0;0;0;0;0;0;0;0;0;0;0;0;0;0;0
104;2022-05-02 00:23:32.924;5.174503361571995;52.36950969079199;26;0.0;-0.28;9.96497154;-2.47568011;-1.09418356;-0.04;9.01960755;4.313725470000001;30.19607925;44.70588303;1980.0;104;10.4;-0.0017508056675940057;-0.2673627365412462;-0.0048928795442070095;9.809770853982968;-2.3161851970766785;-0.7297765506915868;25.60363669067265;2;1;0;0;0;0;0;0;0;0;0;0;0;0;0;0;0;0
105;2022-05-02 00:23:33.026;5.174503361571995;52.36950969079199;26;-0.04;-0.31;10.23073673;-2.9305923;-1.28333127;-0.07;9.01960755;4.313725470000001;30.19607925;44.31372452;1980.0;105;10.5;-0.005228147589342287;-0.2712390101789405;0.0019158429458997132;9.84804204671916;-2.3720426762551368;-0.7801017683864837;25.639671194819034;2;1;0;0;0;0;0;0;0;0;0;0;0;0;0;0;0;0
106;2022-05-02 00:23:33.124;5.174503361571995;52.36950969079199;27;0.04;-0.30000001;9.62259007;-3.00242066;-1.51318169;-0.07;9.01960755;4.313725470000001;30.19607925;44.31372452;2006.75;106;10.600000000000001;-0.0011163446944669885;-0.2738537438929431;0.008105542259080563;9.827545649233546;-2.42935189974937;-0.8467478793710448;25.763342055052174;2;1;0;0;0;0;0;0;0;0;0;0;0;0;0;0;0;0
107;2022-05-02 00:23:33.226;5.174503361571995;52.36950969079199;27;-0.01;-0.41;9.4214716;-3.61774921;-0.54350036;-0.02;9.01960755;4.313725470000001;25.09803963;44.31372452;2006.75;107;10.700000000000001;-0.0019239770625706302;-0.2862310952698818;0.009186893205534364;9.790628576842899;-2.537391676273334;-0.8191789897903501;25.875769310530032;2;1;0;0;0;0;0;0;0;0;0;0;0;0;0;0;0;0
108;2022-05-02 00:23:33.325;5.174503361571995;52.36950969079199;27;-0.06;-0.38;9.25866032;-3.44775581;-1.22826302;-0.05;9.01960755;4.313725470000001;25.09803963;44.31372452;2006.75;108;10.8;-0.007203777997023303;-0.29475580350188446;0.012897289828655376;9.742266337875462;-2.6201545990912547;-0.8563695916209474;25.97797524586412;2;1;0;0;0;0;0;0;0;0;0;0;0;0;0;0;0;0
109;2022-05-02 00:23:33.422;5.174503361571995;52.36950969079199;27;-0.01;-0.31;9.75427532;-2.61933661;-0.82363051;0.0;9.41176415;4.705882070000001;25.09803963;44.31372452;2006.75;109;10.9;-0.007457987109359397;-0.2961416783200991;0.011724776131461952;9.743358094067455;-2.6200802343660765;-0.8533932282032;26.070889186623404;2;1;0;0;0;0;0;0;0;0;0;0;0;0;0;0;0;0
110;2022-05-02 00:23:33.522;5.174549594501958;52.36944495553576;27;-0.07;-0.40000001;9.62977314;-3.93618774;-1.09178936;-0.09;9.41176415;4.705882070000001;25.09803963;47.05882263;2006.75;110;11.0;-0.013143769256149759;-0.30558358498040394;0.018840886564075718;9.73303192651813;-2.7397294143800766;-0.8750661550468605;26.155355954335594;2;1;0;0;0;0;0;0;0;0;0;0;0;0;0;0;0;0
111;2022-05-02 00:23:33.622;5.174549594501958;52.36944495553576;28;0.0;-0.34999999;10.9801445;-3.10058594;-1.01277828;-0.11;9.41176415;4.705882070000001;27.84313774;47.05882263;1977.0;111;11.100000000000001;-0.01194885351350279;-0.3096215333463087;0.027128270312794633;9.846408418288878;-2.7725353116000377;-0.8875857286070005;26.323054745054478;2;1;0;0;0;0;0;0;0;0;0;0;0;0;0;0;0;0
112;2022-05-02 00:23:33.724;5.174549594501958;52.36944495553576;28;-0.02;-0.30000001;9.62977314;-2.68877053;-0.79489923;-0.01;9.41176415;4.705882070000001;27.84313774;47.05882263;1977.0;112;11.200000000000001;-0.012680791306481259;-0.308746831019752;0.02557112209902019;9.826713888107621;-2.7649201713865934;-0.8791595061623975;26.475507518197915;2;1;0;0;0;0;0;0;0;0;0;0;0;0;0;0;0;0
113;2022-05-02 00:23:33.825;5.174549594501958;52.36944495553576;28;0.0;-0.41999999;9.05993557;-4.88192654;-0.57223165;0.02;9.41176415;4.705882070000001;27.84313774;47.05882263;1977.0;113;11.3;-0.011527970067746461;-0.3188609478322585;0.021428213651195186;9.757005436233328;-2.957378973466791;-0.8512564405893127;26.614100392162708;2;1;0;0;0;0;0;0;0;0;0;0;0;0;0;0;0;0
114;2022-05-02 00:23:33.938;5.174549594501958;52.36944495553576;28;0.0;-0.33000001;10.29777622;-2.70313621;-1.50121033;-0.05;10.19607735;4.705882070000001;27.84313774;47.05882263;1977.0;114;11.4;-0.01047995458309652;-0.3198736074390815;0.024025693896345648;9.8061672705982;-2.934265593452136;-0.9103441842603901;26.740093454310525;2;1;0;0;0;0;0;0;0;0;0;0;0;0;0;0;0;0
115;2022-05-02 00:23:34.026;5.174549594501958;52.36944495553576;28;0.04;-0.28;9.52681923;-3.75422287;-0.93137288;-0.08;10.19607735;5.09803868;27.84313774;49.80392075;2091.25;115;11.5;-0.00589079532891198;-0.31624867678912294;0.0291143475406213;9.780771593121129;-3.008808341257333;-0.9122559140639105;26.85463222185321;2;1;0;0;0;0;0;0;0;0;0;0;0;0;0;0;0;0
116;2022-05-02 00:23:34.122;5.174549594501958;52.36944495553576;30;-0.06;-0.40000001;9.24668884;-3.63690352;-1.24981141;-0.06;10.19607735;5.09803868;29.41176414;49.80392075;2091.25;116;11.600000000000001;-0.010809884557459796;-0.3238625436640555;0.031922174439078396;9.732217918492179;-3.065908722736545;-0.9429432179004712;27.140578852400722;2;1;0;0;0;0;0;0;0;0;0;0;0;0;0;0;0;0
117;2022-05-02 00:23:34.223;5.174549594501958;52.36944495553576;30;0.08;-0.25;10.54678059;-2.55708551;-1.13249195;-0.04;10.19607735;5.09803868;29.41176414;49.80392075;2091.25;117;11.700000000000001;-0.0025543327587716053;-0.31714767932772164;0.03265653180186922;9.80627003694472;-3.0196514633028153;-0.9601751457225267;27.40052962222395;2;1;0;0;0;0;0;0;0;0;0;0;0;0;0;0;0;0
118;2022-05-02 00:23:34.323;5.174549594501958;52.36944495553576;30;0.08;-0.28999999;11.77264881;-2.47568011;-0.4836435;-0.05;11.37254906;6.27450943;29.41176414;49.80392075;2091.25;118;11.8;0.004950695630655196;-0.31467967828764004;0.034233229436606775;9.985033864632227;-2.9701989353355445;-0.9168535730067949;27.63684791504681;2;1;0;0;0;0;0;0;0;0;0;0;0;0;0;0;0;0
119;2022-05-02 00:23:34.424;5.174549594501958;52.36944495553576;30;-0.12;-0.33000001;9.34485435;-2.62651944;-1.47966182;-0.03;11.37254906;6.27450943;29.41176414;52.54901886;2091.25;119;11.9;-0.0064085810436434465;-0.31607245073908075;0.033848386245830614;9.926835099181405;-2.9389550078400184;-0.9680185109841738;27.851682240065514;2;1;0;0;0;0;0;0;0;0;0;0;0;0;0;0;0;0
120;2022-05-02 00:23:34.522;5.174554158253061;52.36936828151175;30;-0.08;-0.34;9.08387852;-3.03115201;-2.30568671;-0.16;11.37254906;6.27450943;29.41176414;52.54901886;2091.25;120;12.0;-0.013098775642697957;-0.31824770382027145;0.045316827226710155;9.850201931439099;-2.947336635679883;-1.089625903358141;28.04698576972147;2;1;0;0;0;0;0;0;0;0;0;0;0;0;0;0;0;0
121;2022-05-02 00:23:34.626;5.174554158253061;52.36936828151175;32;-0.02;-0.23999999;10.43903828;-1.81246603;-2.15484738;-0.04;11.37254906;6.27450943;29.41176414;52.54901886;2214.5;121;12.100000000000001;-0.01372616526798581;-0.31113421187860046;0.04483347498821113;9.903732985778552;-2.844165660910117;-1.1864650826802547;28.406353903300246;2;1;0;0;0;0;0;0;0;0;0;0;0;0;0;0;0;0
122;2022-05-02 00:23:34.726;5.174554158253061;52.36936828151175;32;0.12;-0.15000001;9.68005276;-1.38389087;-2.27695537;-0.08;11.37254906;6.27450943;39.60784149;52.54901886;2214.5;122;12.200000000000001;-0.0015691426321364223;-0.2964855293584517;0.04803045771583018;9.883398255005915;-2.7114123313573066;-1.2856013667466746;28.733051650560558;2;1;0;0;0;0;0;0;0;0;0;0;0;0;0;0;0;0
123;2022-05-02 00:23:34.823;5.174554158253061;52.36936828151175;32;-0.01;-0.23999999;9.30415154;-1.41501641;-1.64726102;-0.09;11.37254906;6.27450943;39.60784149;52.54901886;2214.5;123;12.3;-0.0023355898576626647;-0.29135044249425424;0.051845898760168437;9.830739074777846;-2.593557288417631;-1.3184797592666795;29.03004914311806;2;1;0;0;0;0;0;0;0;0;0;0;0;0;0;0;0;0
124;2022-05-02 00:23:34.923;5.174554158253061;52.36936828151175;32;-0.06;-0.15000001;9.25626659;-1.22826302;-2.24104118;-0.16;11.37254906;6.27450943;39.60784149;52.54901886;2214.5;124;12.4;-0.0075778440716411264;-0.2785003171125564;0.06167815563375933;9.778513953655342;-2.4694387963656657;-1.4023495410533204;29.30004648387586;2;1;0;0;0;0;0;0;0;0;0;0;0;0;0;0;0;0
125;2022-05-02 00:23:35.022;5.174554158253061;52.36936828151175;32;-0.02;-0.05;10.34566116;-0.95531565;-2.01837373;-0.13;14.509803780000002;7.058823590000001;39.60784149;52.54901886;2214.5;125;12.5;-0.008707137850104223;-0.25772743453241104;0.06788927021168693;9.830073104521867;-2.3317903995109646;-1.4583520810288566;29.54549829799597;2;1;0;0;0;0;0;0;0;0;0;0;0;0;0;0;0;0
126;2022-05-02 00:23:35.126;5.174554158253061;52.36936828151175;32;-0.04;-0.04;9.90272045;-0.0191542;-1.66402102;-0.14;14.509803780000002;7.058823590000001;39.60784149;73.72548676;2214.5;126;12.600000000000001;-0.011551959246593049;-0.2379339218331425;0.07444482738749165;9.836677445212226;-2.1215495812966005;-1.477049360791111;29.768636051459744;2;1;0;0;0;0;0;0;0;0;0;0;0;0;0;0;0;0
127;2022-05-02 00:23:35.227;5.174554158253061;52.36936828151175;32;-0.02;-0.05;9.45020294;0.25618741;-2.31047511;-0.23;14.509803780000002;7.058823590000001;39.60784149;73.72548676;2394.25;127;12.700000000000001;-0.01231996681602376;-0.22084893387750962;0.08858627787497045;9.801543222490196;-1.9053905852956932;-1.5528157192444312;29.971488340251394;2;1;0;0;0;0;0;0;0;0;0;0;0;0;0;0;0;0
128;2022-05-02 00:23:35.328;5.174554158253061;52.36936828151175;35;0.06;0.01;10.53720379;0.50519198;-1.15643477;-0.05;14.509803780000002;7.058823590000001;43.13725662;73.72548676;2394.25;128;12.8;-0.005745394302822657;-0.19986257115925996;0.08507841838508871;9.868421761836045;-1.68624571324518;-1.5167809226537672;30.42862785504953;2;1;0;0;0;0;0;0;0;0;0;0;0;0;0;0;0;0
129;2022-05-02 00:23:35.427;5.174554158253061;52.36936828151175;35;-0.02;-0.01;9.95778847;0.20590763;-1.69993508;-0.06;14.509803780000002;7.058823590000001;43.13725662;73.72548676;2394.25;129;12.9;-0.007041272937108393;-0.1826022656381777;0.08279855268713046;9.876546041818692;-1.5142310576037903;-1.5334313698374864;30.844208869204365;2;1;0;0;0;0;0;0;0;0;0;0;0;0;0;0;0;0
130;2022-05-02 00:23:35.522;5.174524585833821;52.36928288738593;35;-0.02;-0.07;9.22274685;-0.11013664;-2.21470428;-0.03;14.509803780000002;7.058823590000001;43.13725662;73.72548676;2394.25;130;13.0;-0.008219343487522934;-0.17236565733440715;0.07799866611468038;9.817109526948954;-1.3865856279753512;-1.5953655049082023;31.222009491217914;2;1;0;0;0;0;0;0;0;0;0;0;0;0;0;0;0;0
131;2022-05-02 00:23:35.622;5.174524585833821;52.36928288738593;35;-0.03;-0.07;9.13415813;0.06225114;-1.81725454;-0.13;14.117647170000001;7.058823590000001;43.13725662;77.64705658;2394.25;131;13.100000000000001;-0.010199409975744958;-0.1630596565021289;0.08272607635184112;9.755022822932094;-1.2548727418404217;-1.6155373046993382;31.56546435425085;2;1;0;0;0;0;0;0;0;0;0;0;0;0;0;0;0;0
132;2022-05-02 00:23:35.723;5.174524585833821;52.36928288738593;35;0.04;0.01;10.61382008;-0.01675992;-1.12530911;-0.11;14.117647170000001;7.058823590000001;43.13725662;77.64705658;2394.25;132;13.200000000000001;-0.00563581299196979;-0.14732691130038486;0.0852055317031409;9.833095544781278;-1.1423166790888006;-1.5709709659361455;31.877695843050862;2;1;0;0;0;0;0;0;0;0;0;0;0;0;0;0;0;0
133;2022-05-02 00:23:35.823;5.174524585833821;52.36928288738593;38;-0.05;-0.1;9.32330608;-0.71109962;-1.98964238;-0.13;14.117647170000001;7.058823590000001;43.13725662;77.64705658;2555.25;133;13.3;-0.009668932357481029;-0.14302445259780874;0.0892777676605617;9.78675091634549;-1.1031150169139692;-1.609032111687363;32.43427052912529;2;1;0;0;0;0;0;0;0;0;0;0;0;0;0;0;0;0
134;2022-05-02 00:23:35.928;5.174524585833821;52.36928288738593;38;0.03;0.03;10.29538155;-0.69912827;-1.78134048;-0.12;14.117647170000001;7.058823590000001;40.7843132;77.64705658;2555.25;134;13.4;-0.006062656467453489;-0.12729491629051215;0.09207070508512152;9.832990184257921;-1.06638885417892;-1.6246965492551833;32.94024724209437;2;1;0;0;0;0;0;0;0;0;0;0;0;0;0;0;0;0
135;2022-05-02 00:23:36.024;5.174524585833821;52.36928288738593;38;-0.06;-0.02;9.56512833;0.89545876;-1.92260265;-0.17;14.117647170000001;7.058823590000001;40.7843132;77.64705658;2555.25;135;13.5;-0.010966062844509319;-0.11754081009417888;0.0991552030714657;9.808639049435241;-0.8880386524050411;-1.651778985624608;33.4002258453133;2;1;0;0;0;0;0;0;0;0;0;0;0;0;0;0;0;0
136;2022-05-02 00:23:36.124;5.174524585833821;52.36928288738593;38;0.0;-0.08;9.77821827;0.61054009;-1.70951223;-0.12;14.117647170000001;7.058823590000001;40.7843132;77.64705658;2555.25;136;13.600000000000001;-0.009969145913004476;-0.11412800189346411;0.10105018865439448;9.805873518130287;-0.7518039305472468;-1.6570274735864796;33.81838802447695;2;1;0;0;0;0;0;0;0;0;0;0;0;0;0;0;0;0
137;2022-05-02 00:23:36.222;5.174524585833821;52.36928288738593;38;0.04;-0.01;10.3097477;0.18196489;-1.37191951;-0.07;14.509803780000002;7.058823590000001;40.7843132;77.64705658;2555.25;137;13.700000000000001;-0.005426487471635525;-0.10466180153839412;0.0982274387550356;9.85168035080346;-0.6669156912659316;-1.6311085175222222;34.198535305205155;2;1;0;0;0;0;0;0;0;0;0;0;0;0;0;0;0;0
138;2022-05-02 00:23:36.330;5.174524585833821;52.36928288738593;38;0.03;0.01;9.01923275;-0.17717634;-1.8675344;-0.1;14.509803780000002;7.058823590000001;40.7843132;74.90196228;2555.25;138;13.8;-0.0022058920214266466;-0.09423798301438799;0.09838858097059731;9.77600316271555;-0.6223938535382103;-1.6526018174726955;34.5441236142349;2;1;0;0;0;0;0;0;0;0;0;0;0;0;0;0;0;0
139;2022-05-02 00:23:36.420;5.174524585833821;52.36928288738593;38;-0.18000001;-0.02;10.70001411;0.08379962;-1.57303858;-0.19;14.509803780000002;7.058823590000001;40.7843132;74.90196228;2555.25;139;13.9;-0.018369019570738866;-0.08748906464685328;0.10671690514453973;9.860004292605119;-0.558194343919644;-1.6453687842872986;34.85829469848027;2;1;0;0;0;0;0;0;0;0;0;0;0;0;0;0;0;0
140;2022-05-02 00:23:36.520;5.174485236411362;52.36918582174187;38;0.03;0.0;9.88835526;0.22985038;-1.69275224;-0.13;14.509803780000002;7.058823590000001;40.7843132;74.90196228;2130.5;140;14.0;-0.013971829564157634;-0.07953550172239382;0.10883355321657649;9.862581657034086;-0.48655381005083653;-1.6496763774489187;35.143904687644145;2;1;0;0;0;0;0;0;0;0;0;0;0;0;0;0;0;0
141;2022-05-02 00:23:36.623;5.174485236411362;52.36918582174187;41;-0.05;-0.05;9.3831625;-0.25139886;-1.1420691;-0.04;14.509803780000002;7.058823590000001;44.31372452;74.90196228;2130.5;141;14.100000000000001;-0.017247122125588626;-0.07685045255338994;0.1025759491778538;9.818998039552387;-0.4651760589919331;-1.6035302001702998;35.676277694198724;2;1;0;0;0;0;0;0;0;0;0;0;0;0;0;0;0;0
142;2022-05-02 00:23:36.725;5.174485236411362;52.36918582174187;41;0.02;-0.03;10.07032013;0.22266756;-1.57064426;-0.11;14.509803780000002;7.058823590000001;44.31372452;74.90196228;2130.5;142;14.200000000000001;-0.01386101603523837;-0.07259131537248774;0.10325086370196597;9.841845529842638;-0.40264474557598856;-1.600540565644387;36.16025303227251;2;1;0;0;0;0;0;0;0;0;0;0;0;0;0;0;0;0
143;2022-05-02 00:23:36.823;5.174485236411362;52.36918582174187;41;-0.02;-0.03;10.36242104;0.33759275;-1.26178277;-0.09;14.509803780000002;7.058823590000001;44.31372452;74.90196228;2130.5;143;14.3;-0.014419106097744142;-0.06871937337119312;0.10204623840987616;9.889170628046243;-0.3353503541023401;-1.569744368679107;36.60023051115749;2;1;0;0;0;0;0;0;0;0;0;0;0;0;0;0;0;0
144;2022-05-02 00:23:36.922;5.174485236411362;52.36918582174187;41;0.01;-0.01;9.81413269;-0.37829542;-1.6592325;-0.08;7.843135840000002;1.1764707600000008;44.31372452;74.90196228;2130.5;144;14.4;-0.012199185151555623;-0.06338124320492065;0.10004203292279361;9.882348990523521;-0.3392544548888332;-1.5778796614436883;37.00020995379503;2;1;0;0;0;0;0;0;0;0;0;0;0;0;0;0;0;0
145;2022-05-02 00:23:37.025;5.174485236411362;52.36918582174187;41;-0.01;-0.04;9.7470932;-0.13168511;-1.2665714;-0.06;7.843135840000002;1.1764707600000008;44.31372452;75.29412079;2130.5;145;14.5;-0.01199925904774573;-0.0612556737171107;0.09640184481711325;9.870052998438467;-0.32038449736631985;-1.5495788847900065;37.36382755981138;2;1;0;0;0;0;0;0;0;0;0;0;0;0;0;0;0;0
146;2022-05-02 00:23:37.130;5.174485236411362;52.36918582174187;43;0.04;-0.02;10.15890789;-0.24900457;-0.93137288;0.02;7.843135840000002;1.1764707600000008;44.31372452;75.29412079;2145.75;146;14.600000000000001;-0.0072720497903912395;-0.057505154838854176;0.08581985021816418;9.896312555640387;-0.3138954077213014;-1.493378292660182;37.8762072941234;2;1;0;0;0;0;0;0;0;0;0;0;0;0;0;0;0;0
147;2022-05-02 00:23:37.223;5.174485236411362;52.36918582174187;43;0.05;0.0;9.2131691;0.16520496;-0.81644773;0.04;7.843135840000002;1.1764707600000008;22.74509811;75.29412079;2145.75;147;14.700000000000001;-0.0020654959151146703;-0.052277409579685054;0.07438167346113099;9.834208558675867;-0.2703407962601227;-1.4318391045708665;38.34200697942419;2;1;0;0;0;0;0;0;0;0;0;0;0;0;0;0;0;0
148;2022-05-02 00:23:37.331;5.174485236411362;52.36918582174187;43;-0.06;-0.09;9.80216122;-0.43096948;-0.65124273;0.04;7.843135840000002;1.1764707600000008;22.74509811;75.29412079;2145.75;148;14.8;-0.0073322725949920625;-0.055706738313373375;0.06398333243955653;9.831295162269766;-0.2849434138021843;-1.3608757495387265;38.765461178321885;2;1;0;0;0;0;0;0;0;0;0;0;0;0;0;0;0;0
149;2022-05-02 00:23:37.421;5.174485236411362;52.36918582174187;43;0.07;-0.07;10.56114578;-0.38308397;-0.31365001;0.03;7.843135840000002;1.1764707600000008;22.74509811;75.29412079;2145.75;149;14.9;-0.00030206164968888283;-0.05700612654265337;0.05543938784538945;9.89764525944169;-0.2938652880625394;-1.2656733507308433;39.150419490983715;2;1;0;0;0;0;0;0;0;0;0;0;0;0;0;0;0;0
150;2022-05-02 00:23:37.521;5.174441710226427;52.36907920268551;43;0.06;0.03;8.98571301;-0.12450229;-0.79250497;0.03;0.39215659999999986;0.0;22.74509811;75.29412079;2145.75;150;15.0;0.005179947035491771;-0.049096474230240036;0.047672166403676774;9.814742281086199;-0.2784686432227545;-1.222658019218828;39.50038155210403;2;1;0;0;0;0;0;0;0;0;0;0;0;0;0;0;0;0
151;2022-05-02 00:23:37.622;5.174441710226427;52.36907920268551;43;0.0;-0.05;9.86441231;-0.14365649;-0.61772293;0.0;0.39215659999999986;0.0;22.74509811;16.86274529;2145.75;151;15.100000000000001;0.0047090425189661765;-0.04917861297854422;0.043338330880217636;9.819257740567002;-0.2662129866687086;-1.1676638921039908;39.81852884626339;2;1;0;0;0;0;0;0;0;0;0;0;0;0;0;0;0;0
152;2022-05-02 00:23:37.723;5.174441710226427;52.36907920268551;43;0.03;0.0;10.23552513;-0.58659732;-0.19154198;0.0;0.39215659999999986;0.0;22.74509811;16.86274529;2208.0;152;15.200000000000001;0.007008221539592456;-0.04470782790413327;0.039398480788599706;9.857100248090608;-0.29533884868026145;-1.0789254952455036;40.107753630927405;2;1;0;0;0;0;0;0;0;0;0;0;0;0;0;0;0;0
153;2022-05-02 00:23:37.824;5.174441710226427;52.36907920268551;43;-0.01;-0.06;9.68005276;-0.31365001;-0.17717634;0.04;0.39215659999999986;0.0;7.45098019;16.86274529;2208.0;153;15.3;0.005462018928628533;-0.04609802595434666;0.03218043403302791;9.841005015105015;-0.2970035004121579;-0.9969482647026495;40.37068523003675;2;1;0;0;0;0;0;0;0;0;0;0;0;0;0;0;0;0
154;2022-05-02 00:23:37.925;5.174441710226427;52.36907920268551;43;-0.02;-0.05;9.61301327;-0.45730647;-0.30646718;-0.01;0.39215659999999986;0.0;7.45098019;16.86274529;2208.0;154;15.4;0.0031472890466645426;-0.04645275100374038;0.030164030165169102;9.820278484867371;-0.3115765032409061;-0.9341772329092873;40.60971393723326;2;1;0;0;0;0;0;0;0;0;0;0;0;0;0;0;0;0
155;2022-05-02 00:23:38.023;5.174441710226427;52.36907920268551;43;0.04;0.01;8.84445095;-1.15882897;0.69912827;0.05;0.0;0.0;7.45098019;16.86274529;2208.0;155;15.5;0.0064975366659772195;-0.0413206809399283;0.022876388516351414;9.731566859834171;-0.3885994816402616;-0.7856948626527005;40.82701274603462;2;1;0;0;0;0;0;0;0;0;0;0;0;0;0;0;0;0
156;2022-05-02 00:23:38.123;5.174441710226427;52.36907920268551;43;-0.12;-0.28;6.79974031;-2.41582322;-0.57702023;0.01;0.0;0.0;7.45098019;11.76470566;2208.0;156;15.600000000000001;-0.005002243042424395;-0.06301880773736782;0.01988762497588674;9.465037088939399;-0.5728926072237066;-0.7667244354848243;41.02455710451292;2;1;0;0;0;0;0;0;0;0;0;0;0;0;0;0;0;0
157;2022-05-02 00:23:38.224;5.174441710226427;52.36907920268551;43;-0.34999999;-0.03;6.3520112;-0.04070267;-3.18917394;-0.25;0.0;0.0;7.45098019;11.76470566;2174.25;157;15.700000000000001;-0.03636568362841558;-0.060017097077447054;0.04080693782884165;9.182034653788975;-0.524511689887946;-0.9869471812199386;41.204142874072296;2;1;0;0;0;0;0;0;0;0;0;0;0;0;0;0;0;0
158;2022-05-02 00:23:38.337;5.174441710226427;52.36907920268551;42;0.36000001;0.05;10.44861507;0.00718282;-0.19393626;0.02;0.0;0.0;7.05882359;11.76470566;2174.25;158;15.8;-0.00033242930670038115;-0.05001554017569131;0.03527903294067174;9.297178358175817;-0.4761758126810429;-0.9148552603913819;41.276493540851206;2;1;0;0;0;0;0;0;0;0;0;0;0;0;0;0;0;0
159;2022-05-02 00:23:38.422;5.174441710226427;52.36907920268551;42;-0.25;-0.01;9.56512833;-2.02076793;-0.33998701;0.23999999;0.0;0.0;7.05882359;11.76470566;2174.25;159;15.9;-0.02302948659719525;-0.0463777629291082;0.010253661254610157;9.32153745232886;-0.6165933113569172;-0.8625944979007333;41.342266870994735;2;1;0;0;0;0;0;0;0;0;0;0;0;0;0;0;0;0
160;2022-05-02 00:23:38.522;5.174397190899605;52.368971647169055;42;-0.09;0.04;8.52601242;-1.40304506;0.28970724;-0.06;0.0;0.0;7.05882359;11.76470566;2174.25;160;16.0;-0.029117716407432003;-0.038525237325137913;0.014776056665829056;9.249216979175502;-0.6880889403601302;-0.7578397717591079;41.40206080476832;2;1;0;0;0;0;0;0;0;0;0;0;0;0;0;0;0;0
161;2022-05-02 00:23:38.622;5.174397190899605;52.368971647169055;42;0.17;-0.02;11.59547329;0.11253092;0.62730002;0.13;1.96078301;1.1764707600000008;7.05882359;12.15686321;2174.25;161;16.1;-0.011016102259587044;-0.036841124509326285;0.0016145943766122895;9.462513049443743;-0.6153053023553321;-0.6319179477063194;41.456418924132294;2;1;0;0;0;0;0;0;0;0;0;0;0;0;0;0;0;0
162;2022-05-02 00:23:38.723;5.174397190899605;52.368971647169055;42;-0.09;-0.1;10.49171257;-0.06943397;-0.93855572;0.1;1.96078301;1.1764707600000008;7.05882359;12.15686321;2175.75;162;16.2;-0.01819645788532053;-0.04258284149112092;-0.007623097675338852;9.556076658974844;-0.5656806268919083;-0.659794113815361;41.505835394423194;2;1;0;0;0;0;0;0;0;0;0;0;0;0;0;0;0;0
163;2022-05-02 00:23:38.823;5.174397190899605;52.368971647169055;42;0.03;-0.05;9.29457474;-0.3998439;-0.98165268;0.12;1.96078301;1.1764707600000008;7.05882359;12.15686321;2175.75;163;16.3;-0.013814961000710009;-0.04325712873805186;-0.01783918136782221;9.532303753380116;-0.5506045583567513;-0.689053988231417;41.55075945678834;2;1;0;0;0;0;0;0;0;0;0;0;0;0;0;0;0;0
164;2022-05-02 00:23:38.924;5.174397190899605;52.368971647169055;42;0.0;-0.11;9.51245403;-0.4764607;-0.28252444;0.03;1.96078301;1.1764707600000008;7.05882359;12.15686321;2175.75;164;16.400000000000002;-0.012559055269340305;-0.04932466338701995;-0.018944710497981507;9.530499232805798;-0.5438642065996003;-0.652096751105034;41.591599512214785;2;1;0;0;0;0;0;0;0;0;0;0;0;0;0;0;0;0
