;device_time;lon;lat;raw_speed_kph;raw_g_x;raw_g_y;raw_roll;raw_yaw;raw_pitch;raw_g_z;apps_d;apps_e;engine_load;engine_load_abs;engine_rpm;num_samples;cumulative_time;g_x;g_y;g_z;roll;yaw;pitch;speed_kph;sample_nr;roundabout_1;roundabout_2;roundabout_3;roundabout_4;turning_right_1;turning_right_2;turning_right_3;turning_left_1;turning_left_2;road_50km_1;road_50km_2;road_100km;entering_highway;exiting_highway;speed_bumps;road_50km_3;road_50km_4
0;2022-04-10 13:00:23.926;5.173801238434909;52.36974413052425;0;0.0;0.0;9.78300667;-0.14365649;-0.02394275;-0.03;0.0;0.0;0.0;0.0;0.0;0;0.0;0.0;0.0;0.03;9.78300667;-0.14365649;-0.02394275;0.0;3;0;0;0;0;0;0;0;0;0;0;0;0;0;0;0;0;0
1;2022-04-10 13:00:24.013;5.173801238434909;52.36974413052425;0;0.0;0.0;9.7470932;-0.21309046;0.15562786;-0.04;0.0;0.0;0.0;0.0;0.0;1;0.1;0.0;0.0;0.035238095238095235;9.764194852380951;-0.18002666476190474;0.07011804571428572;0.0;3;0;0;0;0;0;0;0;0;0;0;0;0;0;0;0;0;0
2;2022-04-10 13:00:24.115;5.173801238434909;52.36974413052425;0;0.0;0.0;9.79258442;0.03351985;-0.00478855;-0.06;0.0;0.0;58.82352829;0.0;146.0;2;0.2;0.0;0.0;0.044290030211480355;9.7745729118429;-0.10196283308157099;0.042735272054380664;0.0;3;0;0;0;0;0;0;0;0;0;0;0;0;0;0;0;0;0
3;2022-04-10 13:00:24.214;5.173801238434909;52.36974413052425;0;0.0;-0.02;10.61860847;-0.15802214;-0.6440599;-0.09;0.0;0.0;58.82352829;0.0;146.0;3;0.30000000000000004;0.0;-0.005735832794656324;0.057399267399267394;10.01663525355958;-0.11804017363499245;-0.1542318414996768;0.0;3;0;0;0;0;0;0;0;0;0;0;0;0;0;0;0;0;0
4;2022-04-10 13:00:24.314;5.173801238434909;52.36974413052425;0;0.0;-0.03;9.68484116;-0.47406641;0.18196489;-0.01;0.0;0.0;58.82352829;0.0;146.0;4;0.4;0.0;-0.011554765687703722;0.046032169825228085;9.937065757174494;-0.20342092295310474;-0.07360652257145665;0.0;3;0;0;0;0;0;0;0;0;0;0;0;0;0;0;0;0;0
5;2022-04-10 13:00:24.415;5.173801238434909;52.36974413052425;0;0.01;-0.01;10.20918751;-0.01436565;0.26097596;-0.02;0.0;0.0;58.82352829;0.0;879.25;5;0.5;0.002087339821478794;-0.011230233254402438;0.040598371353658354;9.993866814270822;-0.1639586629835489;-0.003767788627393042;0.0;3;0;0;0;0;0;0;0;0;0;0;0;0;0;0;0;0;0
6;2022-04-10 13:00:24.516;5.173801238434909;52.36974413052425;0;0.03;0.0;9.77582359;-0.23224466;-0.11731946;-0.05;0.0;0.0;34.11764526;0.0;879.25;6;0.6000000000000001;0.007299534286880673;-0.009133186278607184;0.04235395883556857;9.953151107509298;-0.1767098623832921;-0.024971550263873182;0.0;3;0;0;0;0;0;0;0;0;0;0;0;0;0;0;0;0;0
7;2022-04-10 13:00:24.616;5.173801238434909;52.36974413052425;0;0.02;0.0;9.82849789;-0.1340794;-0.12689656;-0.05;0.0;0.0;34.11764526;0.0;879.25;7;0.7000000000000001;0.009463740030824539;-0.007576857979224193;0.04365687217593533;9.931909743969689;-0.1694454758922046;-0.04233994418777462;0.0;3;0;0;0;0;0;0;0;0;0;0;0;0;0;0;0;0;0
8;2022-04-10 13:00:24.714;5.173801238434909;52.36974413052425;0;-0.03;0.0;10.16609097;0.01197137;0.0287313;-0.03;0.0;0.0;34.11764526;0.0;879.25;8;0.8;0.0032341899464226114;-0.006380812793767621;0.04150106613348186;9.96887642972332;-0.14080791323957775;-0.03112099041191145;0.0;3;0;0;0;0;0;0;0;0;0;0;0;0;0;0;0;0;0
9;2022-04-10 13:00:24.818;5.173801238434909;52.36974413052425;0;0.0;0.0;9.80934429;-0.12929083;-0.2657645;-0.08;0.0;0.0;34.11764526;0.0;879.25;9;0.9;0.002755690382826614;-0.005436769250319353;0.047196997219538406;9.945273592381753;-0.13910395663983244;-0.06583658188875861;0.0;3;0;0;0;0;0;0;0;0;0;0;0;0;0;0;0;0;0
10;2022-04-10 13:00:24.915;5.173801238434909;52.36974413052425;0;0.0;0.0;9.76385307;-0.14365649;-0.55547178;-0.09;0.0;0.0;34.11764526;0.0;879.25;10;1.0;0.0023699860648384334;-0.004675803726463011;0.05318798339787312;9.91988079815117;-0.13974115876738089;-0.13436910329516896;0.0;3;0;0;0;0;0;0;0;0;0;0;0;0;0;0;0;0;0
11;2022-04-10 13:00:25.013;5.173801238434909;52.36974413052425;0;0.0;0.0;9.85244083;-0.17717634;-0.5913859;-0.08;0.0;0.0;34.11764526;0.0;879.25;11;1.1;0.0020537796906410035;-0.004051952403141204;0.05676527470792046;9.910882876972876;-0.14473580540290748;-0.19534483069600084;0.0;3;0;0;0;0;0;0;0;0;0;0;0;0;0;0;0;0;0
12;2022-04-10 13:00:25.116;5.173801238434909;52.36974413052425;0;0.0;0.0;9.79258442;-0.16759923;-0.52195191;-0.08;0.0;0.0;34.11764526;25.88235283;879.25;12;1.2000000000000002;0.00179093598792127;-0.0035333816052415755;0.05973886591406388;9.89574298412143;-0.14766187736931086;-0.23714416021997103;0.0;3;0;0;0;0;0;0;0;0;0;0;0;0;0;0;0;0;0
13;2022-04-10 13:00:25.217;5.173801238434909;52.36974413052425;0;0.02;0.01;10.01046276;-0.05985687;-0.48124924;-0.07;0.0;0.0;34.11764526;25.88235283;879.25;13;1.3;0.0040380375044708995;-0.0018632857502865613;0.061005147912453865;9.909900053489958;-0.13682624270465432;-0.2672681080850185;0.0;3;0;0;0;0;0;0;0;0;0;0;0;0;0;0;0;0;0
14;2022-04-10 13:00:25.316;5.173801238434909;52.36974413052425;0;0.0;0.0;9.95778847;0.05027977;-0.409421;-0.09;0.0;0.0;34.11764526;25.88235283;884.75;14;1.4000000000000001;0.0035554047390839462;-0.0016405828275496562;0.06447065947085422;9.915623754387893;-0.1144630298240929;-0.28425845135367755;0.0;3;0;0;0;0;0;0;0;0;0;0;0;0;0;0;0;0;0
15;2022-04-10 13:00:25.420;5.173801238434909;52.36974413052425;0;-0.01;0.0;9.64413929;-0.14365649;-0.4764607;-0.08;0.0;0.0;29.01960754;25.88235283;884.75;15;1.5;0.0019803083517977646;-0.0014499521430030994;0.06627512113284124;9.884078093650167;-0.11785522021165647;-0.30659176218417084;0.0;3;0;0;0;0;0;0;0;0;0;0;0;0;0;0;0;0;0
16;2022-04-10 13:00:25.515;5.173801238434909;52.36974413052425;0;0.03;0.01;9.49569416;-0.27294734;-0.51716334;-0.06;0.0;0.0;29.01960754;25.88235283;884.75;16;1.6;0.005155808902044673;-0.00015231725868987514;0.0655639551835371;9.840062141922434;-0.13543197008850397;-0.33045605625335367;0.0;3;0;0;0;0;0;0;0;0;0;0;0;0;0;0;0;0;0
17;2022-04-10 13:00:25.615;5.173801238434909;52.36974413052425;0;0.01;0.0;9.76385307;-0.26097596;-0.54350036;-0.08;0.0;0.0;29.01960754;25.88235283;884.75;17;1.7000000000000002;0.005692766444827192;-0.0001354335521441102;0.06716412804942962;9.83161469730893;-0.14934797607811987;-0.35407109197973047;0.0;3;0;0;0;0;0;0;0;0;0;0;0;0;0;0;0;0;0
18;2022-04-10 13:00:25.715;5.173801238434909;52.36974413052425;0;-0.01;-0.01;9.98651981;-0.1699935;-0.4668836;-0.09;3.5294113200000012;2.3529405600000004;29.01960754;25.88235283;884.75;18;1.8;0.003987292733539023;-0.0012075044842657786;0.0696459071177008;9.848449625577798;-0.15159171037623298;-0.3663314392811125;0.0;3;0;0;0;0;0;0;0;0;0;0;0;0;0;0;0;0;0
19;2022-04-10 13:00:25.814;5.173801238434909;52.36974413052425;0;0.0;0.0;9.8787775;-0.12450229;-0.59856868;-0.08;3.5294113200000012;2.3529405600000004;29.01960754;29.01960754;884.75;19;1.9000000000000001;0.003561523725957394;-0.0010785653718721198;0.07075153244935076;9.851688080804871;-0.14869906205559835;-0.39113007487479606;0.0;3;0;0;0;0;0;0;0;0;0;0;0;0;0;0;0;0;0
20;2022-04-10 13:00:25.914;5.173801238434909;52.36974413052425;0;-0.02;-0.01;10.41509533;-0.09816527;-0.85715038;-0.12;3.5294113200000012;2.3529405600000004;56.86274338;29.01960754;1070.5;20;2.0;0.0010848993588947276;-0.00201632485831978;0.07592819063984207;9.910909552988318;-0.14338729944547932;-0.4401149052551649;0.0;3;0;0;0;0;0;0;0;0;0;0;0;0;0;0;0;0;0
21;2022-04-10 13:00:26.015;5.173801238434909;52.36974413052425;0;-0.02;-0.01;10.16130257;-0.24900457;-1.40304506;-0.15000001;3.5294113200000012;2.3529405600000004;56.86274338;29.01960754;1070.5;21;2.1;-0.0011003599853919251;-0.0028437606647774456;0.08360506557530693;9.936860527230843;-0.15433357542568474;-0.5399139169902556;0.0;3;0;0;0;0;0;0;0;0;0;0;0;0;0;0;0;0;0
22;2022-04-10 13:00:26.115;5.173801238434909;52.36974413052425;0;0.05;0.0;9.57470512;-0.43096948;-1.90344846;-0.2;3.5294113200000012;2.3529405600000004;56.86274338;29.01960754;1070.5;22;2.2;0.004129149242777299;-0.0025527358531438364;0.0955166917137547;9.899798262998528;-0.18264394381111063;-0.6794553307422407;0.0;3;0;0;0;0;0;0;0;0;0;0;0;0;0;0;0;0;0
23;2022-04-10 13:00:26.217;5.173801238434909;52.36974413052425;0;0.06;0.0;10.12059975;-0.65603131;-2.11414456;-0.23;9.01960755;4.705882070000001;56.86274338;29.01960754;1070.5;23;2.3000000000000003;0.009782252146233248;-0.0022944459172008443;0.10912393001844534;9.922139314017768;-0.23054204197844205;-0.8246195037869037;0.0;3;0;0;0;0;0;0;0;0;0;0;0;0;0;0;0;0;0
24;2022-04-10 13:00:26.319;5.173801238434909;52.36974413052425;0;-0.04;-0.05;9.82370949;-0.60814577;-2.18836713;-0.25;9.01960755;4.705882070000001;56.86274338;50.19607925;1070.5;24;2.4000000000000004;0.004796420556935026;-0.007072290395436082;0.12323306187987655;9.912281292237731;-0.26836010994926024;-0.9612026373629163;0.0;3;0;0;0;0;0;0;0;0;0;0;0;0;0;0;0;0;0
25;2022-04-10 13:00:26.419;5.173801238434909;52.36974413052425;4;0.0;-0.11;9.97694302;-1.16601181;-1.98724806;-0.23;9.01960755;4.705882070000001;56.86274338;50.19607925;1808.75;25;2.5;0.0043204454146057005;-0.017286372052189233;0.13382813125808504;9.918698030451065;-0.35743901590050076;-1.0630227572374993;0.39694195842866586;3;0;0;0;0;0;0;0;0;0;0;0;0;0;0;0;0;0
26;2022-04-10 13:00:26.515;5.173801238434909;52.36974413052425;4;0.0;-0.07;9.5340023;-0.6847626;-2.08780766;-0.23999999;9.01960755;4.705882070000001;32.54901886;50.19607925;1808.75;26;2.6;0.0038952442926346665;-0.022474238486237995;0.14427714498852062;9.880837800658025;-0.3896529063332281;-1.1638780276132181;0.7515406571238804;3;0;0;0;0;0;0;0;0;0;0;0;0;0;0;0;0;0
27;2022-04-10 13:00:26.614;5.173801238434909;52.36974413052425;4;0.05;-0.14;10.54917526;-1.42938209;-1.50839317;-0.19;9.01960755;4.705882070000001;32.54901886;50.19607925;1808.75;27;2.7;0.00839888312191217;-0.03395447680163657;0.14874347871170804;9.946122834420223;-0.491216501056855;-1.197531210429656;1.068859064031067;3;0;0;0;0;0;0;0;0;0;0;0;0;0;0;0;0;0
28;2022-04-10 13:00:26.715;5.173801238434909;52.36974413052425;4;0.06;-0.08;9.67526436;-1.02474964;-1.44374776;-0.16;9.01960755;4.705882070000001;32.54901886;50.19607925;1808.75;28;2.8000000000000003;0.013405508446919777;-0.03842206774725128;0.14983564857087212;9.919842649424826;-0.5429828326165865;-1.2214204997918856;1.353254544769591;3;0;0;0;0;0;0;0;0;0;0;0;0;0;0;0;0;0
29;2022-04-10 13:00:26.826;5.173801238434909;52.36974413052425;4;0.06;-0.07;10.35523891;-1.59219277;-1.23784006;-0.16;9.01960755;4.705882070000001;32.54901886;50.19607925;1808.75;29;2.9000000000000004;0.01789887993479655;-0.04146730712429145;0.15081585471503345;9.961830383982846;-0.6441641066318825;-1.223003931249627;1.6084952431395156;3;0;0;0;0;0;0;0;0;0;0;0;0;0;0;0;0;0
30;2022-04-10 13:00:26.913;5.173801238434909;52.36974413052425;4;-0.08;-0.14;9.83807564;-1.55149007;-1.39586222;-0.15000001;9.01960755;4.705882070000001;32.54901886;48.23529434;1808.75;30;3.0;0.008509824309113123;-0.050917148991476965;0.15073761059807858;9.949961604932758;-0.7311817920881809;-1.2395820176334411;1.8378540591566612;3;0;0;0;0;0;0;0;0;0;0;0;0;0;0;0;0;0
31;2022-04-10 13:00:27.013;5.173799882654095;52.369751144434936;4;-0.09;-0.09;9.48851109;-0.65124273;-1.65683818;-0.2;9.01960755;4.705882070000001;32.54901886;48.23529434;1808.75;31;3.1;-0.0008908533006979507;-0.05464677986819568;0.155438662947977;9.905925920632356;-0.723553300652001;-1.27940028642668;2.0441851238781883;3;0;0;0;0;0;0;0;0;0;0;0;0;0;0;0;0;0
32;2022-04-10 13:00:27.117;5.173799882654095;52.369751144434936;8;-0.03;-0.07;9.85722923;-2.17400146;-1.40065074;-0.2;9.01960755;4.705882070000001;32.94117737;48.23529434;1813.0;32;3.2;-0.003656206526351184;-0.05610532749428143;0.15967196591728688;9.901299761304847;-0.8613450929545886;-1.2909190140748847;2.6099843226390322;3;0;0;0;0;0;0;0;0;0;0;0;0;0;0;0;0;0
33;2022-04-10 13:00:27.220;5.173799882654095;52.369751144434936;8;0.01;-0.22;9.92905807;-2.09259629;-1.02474964;-0.13;9.01960755;4.705882070000001;32.94117737;48.23529434;1813.0;33;3.3000000000000003;-0.002364159227568832;-0.07161180570162384;0.15686462821783018;9.903926043186212;-0.9778367980408704;-1.2657360747184503;3.119946967308373;3;0;0;0;0;0;0;0;0;0;0;0;0;0;0;0;0;0
34;2022-04-10 13:00:27.321;5.173799882654095;52.369751144434936;8;-0.03;-0.16;8.89473057;-2.32962942;-1.23065722;-0.14;9.01960755;4.705882070000001;32.94117737;48.23529434;1813.0;34;3.4000000000000004;-0.004969206664326857;-0.07994357461333187;0.15527491155704518;9.808795878619836;-1.1052613238174116;-1.262429423716905;3.579957203607697;3;0;0;0;0;0;0;0;0;0;0;0;0;0;0;0;0;0
35;2022-04-10 13:00:27.416;5.173799882654095;52.369751144434936;8;-0.03;-0.1;9.34485435;-1.59458697;-1.04150951;-0.16;9.01960755;4.705882070000001;32.94117737;48.23529434;1813.0;35;3.5;-0.007320805639884115;-0.08182784047578905;0.15571882529932493;9.765209388619697;-1.1512326069823335;-1.2416743866787272;3.9952124443236166;3;0;0;0;0;0;0;0;0;0;0;0;0;0;0;0;0;0
36;2022-04-10 13:00:27.518;5.173799882654095;52.369751144434936;8;0.0;-0.12;10.13735962;-1.25460005;-1.34079385;-0.15000001;9.01960755;4.705882070000001;32.94117737;48.23529434;1813.0;36;3.6;-0.0066351127586272;-0.08540318167940678;0.15518318057210986;9.800066312429468;-1.1609143719843704;-1.2509582706850344;4.370315192976433;3;0;0;0;0;0;0;0;0;0;0;0;0;0;0;0;0;0
37;2022-04-10 13:00:27.613;5.173799882654095;52.369751144434936;8;0.0;-0.1;9.89553738;-0.60814577;-1.185166;-0.14;9.01960755;4.705882070000001;32.94117737;44.70588303;1813.0;37;3.7;-0.006015351456105727;-0.08676661640374926;0.15376497592207516;9.808983911171659;-1.1092823046448415;-1.2448128584126381;4.709350604366902;3;0;0;0;0;0;0;0;0;0;0;0;0;0;0;0;0;0
38;2022-04-10 13:00:27.714;5.173799882654095;52.369751144434936;11;0.03;-0.09;9.60104179;-1.12052059;-0.97925842;-0.18000001;9.01960755;4.705882070000001;32.94117737;44.70588303;1891.5;38;3.8000000000000003;-0.0026596707191977524;-0.08706788246420119;0.1562093890661399;9.78960919060957;-1.1103294163946225;-1.2200701895907675;5.295473192266543;3;0;0;0;0;0;0;0;0;0;0;0;0;0;0;0;0;0
39;2022-04-10 13:00:27.814;5.173799882654095;52.369751144434936;11;0.13;0.0;11.21238899;0.41181526;-1.31445682;-0.14;9.01960755;4.705882070000001;31.37254906;44.70588303;1891.5;39;3.9000000000000004;0.009672784048209742;-0.0789737818504845;0.1547025139443961;9.921875217087988;-0.9688261225200188;-1.2288446637309436;5.8257837112391755;3;0;0;0;0;0;0;0;0;0;0;0;0;0;0;0;0;0
40;2022-04-10 13:00:27.915;5.173799882654095;52.369751144434936;11;0.15000001;0.09;8.69600582;0.65842557;-1.46050763;-0.16;9.01960755;4.705882070000001;31.37254906;44.70588303;1891.5;40;4.0;0.022691298351257928;-0.06329765356575365;0.1551939752236832;9.80814818962475;-0.8178618367939603;-1.2503366273852126;6.305808940166878;3;0;0;0;0;0;0;0;0;0;0;0;0;0;0;0;0;0
41;2022-04-10 13:00:28.013;5.173823519259723;52.36973034414486;11;0.03;0.11;9.10782146;0.82363051;-1.12291491;-0.1;9.41176415;4.705882070000001;31.37254906;44.70588303;1891.5;41;4.1000000000000005;0.023368084064539756;-0.04725029225380953;0.1500830135664853;9.743297940152466;-0.6658596588198711;-1.2385373773907913;6.7404909941616715;3;0;0;0;0;0;0;0;0;0;0;0;0;0;0;0;0;0
42;2022-04-10 13:00:28.118;5.173823519259723;52.36973034414486;11;0.02;0.02;9.68484116;-0.04549122;-1.01996112;-0.14;9.41176415;4.705882070000001;31.37254906;50.19607925;1891.5;42;4.2;0.023056725983213063;-0.04103342783962913;0.14915090269932949;9.737893980346227;-0.6085105181436619;-1.218331384066196;7.134255676407751;3;0;0;0;0;0;0;0;0;0;0;0;0;0;0;0;0;0
43;2022-04-10 13:00:28.220;5.173823519259723;52.36973034414486;11;0.09;-0.07;10.19482231;-0.81405342;-0.77095652;-0.14;9.41176415;4.705882070000001;31.37254906;50.19607925;2132.0;43;4.3;0.029235726283272104;-0.04370710134453913;0.14830625577466922;9.780069394194795;-0.6274825458925114;-1.1770377745153588;7.491071737263068;3;0;0;0;0;0;0;0;0;0;0;0;0;0;0;0;0;0
44;2022-04-10 13:00:28.314;5.173823519259723;52.36973034414486;12;0.0;-0.09;8.98571301;-0.39744961;-1.59458697;-0.17;9.41176415;4.705882070000001;30.98039246;50.19607925;2132.0;44;4.4;0.026540962955350245;-0.04797408634881853;0.15030584715876238;9.706850674307766;-0.6062795727270381;-1.215524804004313;7.906676070568312;3;0;0;0;0;0;0;0;0;0;0;0;0;0;0;0;0;0
45;2022-04-10 13:00:28.414;5.173823519259723;52.36973034414486;12;0.0;-0.03;10.06074238;1.19234884;-1.28572559;-0.13;9.41176415;4.705882070000001;30.98039246;50.19607925;2132.0;45;4.5;0.024097675432542008;-0.04631944175345002;0.14843654712294532;9.739428964341846;-0.4407028238209298;-1.221987293884697;8.283496131709942;3;0;0;0;0;0;0;0;0;0;0;0;0;0;0;0;0;0
46;2022-04-10 13:00:28.516;5.173823519259723;52.36973034414486;12;0.01;0.04;10.40551853;0.43575802;-0.58899158;-0.14;9.41176415;4.705882070000001;30.98039246;50.19607925;2132.0;46;4.6000000000000005;0.022801370824825584;-0.038382226102831915;0.14766079264051157;9.80067700322926;-0.3601107974429163;-1.1637822894852219;8.625234818496521;3;0;0;0;0;0;0;0;0;0;0;0;0;0;0;0;0;0
47;2022-04-10 13:00:28.614;5.173823519259723;52.36973034414486;12;-0.01;0.11;10.10383987;1.38628507;-0.98165268;-0.20999999;9.80392075;4.705882070000001;30.98039246;50.19607925;2132.0;47;4.7;0.019788371693567005;-0.02475244456932115;0.1533870151356196;9.828524298364828;-0.19969404963258883;-1.1470526119944229;8.935226879937318;3;0;0;0;0;0;0;0;0;0;0;0;0;0;0;0;0;0
48;2022-04-10 13:00:28.718;5.173823519259723;52.36973034414486;12;0.05;0.11;9.0431757;1.37670803;-1.41980493;-0.11;9.80392075;4.705882070000001;30.98039246;42.74509811;2132.0;48;4.800000000000001;0.022560862725518587;-0.012386346975619314;0.1494054319800689;9.756453639880705;-0.05502920124371382;-1.1720828204937592;9.216478055946615;3;0;0;0;0;0;0;0;0;0;0;0;0;0;0;0;0;0
49;2022-04-10 13:00:28.818;5.173823519259723;52.36973034414486;12;0.01;0.07;9.88356686;0.61054009;-1.42938209;-0.18000001;9.80392075;4.705882070000001;30.98039246;42.74509811;2132.0;49;4.9;0.02140915523478904;-0.004832329785948389;0.1522106536795051;9.768108671145773;0.005996952379288399;-1.1956746312256405;9.471699623416137;3;0;0;0;0;0;0;0;0;0;0;0;0;0;0;0;0;0
50;2022-04-10 13:00:28.914;5.173823519259723;52.36973034414486;15;0.03;0.23999999;8.67685223;2.34638929;-1.31685114;-0.14;9.80392075;4.705882070000001;30.98039246;42.74509811;1770.5;50;5.0;0.02219623638722472;0.017598864081153583;0.1510919307095619;9.668129286024293;0.22042041696169254;-1.2067766530617798;9.97819475286286;3;0;0;0;0;0;0;0;0;0;0;0;0;0;0;0;0;0
51;2022-04-10 13:00:29.013;5.173851438177503;52.36970010692888;15;0.09;0.0;7.19240141;4.50841951;-2.34638929;0.0;9.80392075;4.705882070000001;35.29411697;42.74509811;1770.5;51;5.1000000000000005;0.028403917750385185;0.015987624014993197;0.13725891448134533;9.441467387371853;0.6130023421645516;-1.311112338141813;10.43795930251392;3;0;0;0;0;0;0;0;0;0;0;0;0;0;0;0;0;0
52;2022-04-10 13:00:29.115;5.173851438177503;52.36970010692888;15;-0.08;0.20999999;10.57311726;0.2849187;-1.58261561;-0.07;9.80392075;4.705882070000001;35.29411697;42.74509811;1770.5;52;5.2;0.01848553737500284;0.03373872086924273;0.13110508248610894;9.545007315830196;0.5829844385181008;-1.3359534396382649;10.855361697783724;3;0;0;0;0;0;0;0;0;0;0;0;0;0;0;0;0;0
53;2022-04-10 13:00:29.215;5.173851438177503;52.36970010692888;15;-0.19;0.06;8.44700146;1.43656492;-1.11333776;-0.14;9.80392075;4.705882070000001;35.29411697;42.74509811;1770.5;53;5.300000000000001;-0.0005786139639727134;0.03614008168307856;0.13191844371858386;9.44460442903917;0.6610367949733914;-1.3155972122448072;11.234352072049559;3;0;0;0;0;0;0;0;0;0;0;0;0;0;0;0;0;0
54;2022-04-10 13:00:29.317;5.173851438177503;52.36970010692888;15;0.04;0.23;9.80216122;2.70074201;-0.74461949;-0.03;11.76470566;5.88235283;35.29411697;42.74509811;1770.5;54;5.4;0.0031299669246521154;0.053857423847076896;0.12260386257225134;9.477282437280968;0.8474505494104468;-1.2634141320038792;11.578504042131277;3;0;0;0;0;0;0;0;0;0;0;0;0;0;0;0;0;0
55;2022-04-10 13:00:29.415;5.173851438177503;52.36970010692888;15;0.06;0.25999999;10.38157558;2.23864698;-0.59378016;-0.04;11.76470566;5.88235283;35.29411697;63.13725662;1770.5;55;5.5;0.008324950008278285;0.07268820494686744;0.11505813689742234;9.559888114208222;0.9745340331379553;-1.2022441806487862;11.891052016180694;3;0;0;0;0;0;0;0;0;0;0;0;0;0;0;0;0;0
56;2022-04-10 13:00:29.514;5.173851438177503;52.36970010692888;17;-0.01;0.31;8.54277229;4.54912233;-0.82123625;-0.19;11.76470566;5.88235283;35.29411697;63.13725662;1783.75;56;5.6000000000000005;0.006651731214097435;0.09435672548222045;0.12190094595051741;9.467017066147784;1.3009233721029483;-1.1674550199686475;12.357541026036499;3;0;0;0;0;0;0;0;0;0;0;0;0;0;0;0;0;0
57;2022-04-10 13:00:29.617;5.173851438177503;52.36970010692888;17;-0.02;0.31;10.33847904;1.85556293;0.89785308;-0.1;11.76470566;5.88235283;48.23529434;63.13725662;1783.75;57;5.7;0.004219179678643985;0.11403887574572627;0.11990200714718616;9.546556970912476;1.3515463240360686;-0.9789506279122788;12.781266622496855;3;0;0;0;0;0;0;0;0;0;0;0;0;0;0;0;0;0
58;2022-04-10 13:00:29.715;5.173851438177503;52.36970010692888;17;0.0;0.44999999;10.70240879;2.13329887;-0.00239427;-0.02;11.76470566;5.88235283;48.23529434;63.13725662;1783.75;58;5.800000000000001;0.0038342271727941344;0.14469153399939325;0.11078707701387196;9.652015398388562;1.4228724168892735;-0.8898508867979691;13.166178408406903;3;0;0;0;0;0;0;0;0;0;0;0;0;0;0;0;0;0
59;2022-04-10 13:00:29.825;5.173851438177503;52.36970010692888;17;0.07;0.09;9.19162083;1.81007171;-1.03911531;-0.04;11.76470566;5.88235283;48.23529434;63.13725662;1783.75;59;5.9;0.00986911764123028;0.13970319330398498;0.10433068365359038;9.61002343375537;1.4581883396622384;-0.9034650925476851;13.515856079991154;3;0;0;0;0;0;0;0;0;0;0;0;0;0;0;0;0;0
60;2022-04-10 13:00:29.914;5.173851438177503;52.36970010692888;17;-0.05;0.31;9.45738506;2.74862742;-1.65683818;-0.13;11.76470566;5.88235283;48.23529434;63.92156982;1783.75;60;6.0;0.004410171806962384;0.15523108280910972;0.10667124608475;9.59610566366972;1.575852292623773;-0.972158653425641;13.833544960126305;3;0;0;0;0;0;0;0;0;0;0;0;0;0;0;0;0;0
61;2022-04-10 13:00:30.014;5.173901013399955;52.36966768832197;17;-0.08;0.33000001;8.95698166;3.16283703;-1.22347438;-0.16;11.76470566;5.88235283;48.23529434;63.92156982;1783.75;61;6.1000000000000005;-0.0032843652493596285;0.17116240906726843;0.11153250941811668;9.53784534711607;1.7205162899614923;-0.9950677191172168;14.12218796510922;3;0;0;0;0;0;0;0;0;0;0;0;0;0;0;0;0;0
62;2022-04-10 13:00:30.116;5.173901013399955;52.36966768832197;20;0.05;0.23999999;10.14693642;2.52356553;-1.91541982;-0.11;11.76470566;5.88235283;40.0;63.92156982;1948.75;62;6.2;0.0015716502747912782;0.17743585081870894;0.11139284575710741;9.593354232165266;1.7937013519967662;-1.0789430560693711;14.657856286499493;3;0;0;0;0;0;0;0;0;0;0;0;0;0;0;0;0;0
63;2022-04-10 13:00:30.216;5.173901013399955;52.36966768832197;20;-0.05;0.22;10.4797411;0.67279124;-2.18836713;0.0;11.76470566;5.88235283;40.0;63.92156982;1948.75;63;6.300000000000001;-0.003127222082571225;0.18131401843477193;0.1012434562970639;9.674116021423611;1.691571334588262;-1.1800265406157888;15.144597573440539;3;0;0;0;0;0;0;0;0;0;0;0;0;0;0;0;0;0
64;2022-04-10 13:00:30.315;5.173901013399955;52.36966768832197;20;0.2;0.17;8.5284071;1.36952519;-1.73106074;-0.23;11.76470566;5.88235283;40.0;63.92156982;1948.75;64;6.4;0.015376623416665269;0.1802833695293907;0.11297251539248311;9.569747829648204;1.6622345867019368;-1.230222922891209;15.586899769160778;3;0;0;0;0;0;0;0;0;0;0;0;0;0;0;0;0;0
65;2022-04-10 13:00:30.414;5.173901013399955;52.36966768832197;20;0.12;0.2;10.39115238;2.16921306;-1.04390383;-0.17;13.33333207;6.66666603;40.0;63.92156982;1948.75;65;6.5;0.024905504919734516;0.18207911959529105;0.11816646115287727;9.644559663121669;1.7084091411316176;-1.2132533639274383;15.988835842475513;3;0;0;0;0;0;0;0;0;0;0;0;0;0;0;0;0;0
66;2022-04-10 13:00:30.515;5.173901013399955;52.36966768832197;20;-0.11;0.16;10.2714386;1.69275224;-1.03672099;-0.15000001;13.33333207;6.66666603;40.0;68.62744904;1948.75;66;6.6000000000000005;0.012620663852480176;0.18006853837183073;0.12106530570652435;9.70164486592745;1.7069833835828647;-1.1971778734705143;16.354102732059996;3;0;0;0;0;0;0;0;0;0;0;0;0;0;0;0;0;0
67;2022-04-10 13:00:30.615;5.173901013399955;52.36966768832197;20;0.07;0.05;9.87159538;1.20671451;-1.11333776;-0.12;13.33333207;6.66666603;40.0;68.62744904;2077.25;67;6.7;0.017844971490122482;0.16822598138082764;0.1209683111242812;9.717118620562879;1.6614346081419233;-1.1895443493736388;16.68605653671867;3;0;0;0;0;0;0;0;0;0;0;0;0;0;0;0;0;0
68;2022-04-10 13:00:30.713;5.173901013399955;52.36966768832197;23;0.12;0.23;9.32809448;1.46529615;-1.29051411;-0.2;13.33333207;6.66666603;46.66666794;68.62744904;2077.25;68;6.800000000000001;0.027144745465130043;0.17384963416685437;0.1281630312876282;9.681703461555736;1.643578968971405;-1.1987362214315571;17.260852001572516;3;0;0;0;0;0;0;0;0;0;0;0;0;0;0;0;0;0
69;2022-04-10 13:00:30.815;5.173901013399955;52.36966768832197;23;-0.06;0.23999999;9.05514717;1.56106722;-1.4341706;-0.16;13.33333207;6.66666603;46.66666794;68.62744904;2077.25;69;6.9;0.01921245178210862;0.17987092721102124;0.13106097062356611;9.624671583304929;1.6360683907759268;-1.220166482360276;17.783254209196926;3;0;0;0;0;0;0;0;0;0;0;0;0;0;0;0;0;0
70;2022-04-10 13:00:30.913;5.173901013399955;52.36966768832197;23;0.03;0.17;10.26425648;1.58500993;-1.1444633;-0.18000001;13.33333207;6.66666603;46.66666794;68.62744904;2077.25;70;7.0;0.020194268168972303;0.17897253603875785;0.13551510142758508;9.68288267257953;1.631421363252592;-1.2132764436343515;18.25805037233415;3;0;0;0;0;0;0;0;0;0;0;0;0;0;0;0;0;0
71;2022-04-10 13:00:31.013;5.173983173098228;52.36964198856987;23;0.09;0.03;9.47175121;2.31286955;-2.34399509;-0.20999999;13.33333207;6.66666603;46.66666794;68.62744904;2077.25;71;7.1000000000000005;0.026546891618090988;0.16541539107528588;0.14229354837368235;9.663668796514509;1.6934360949506961;-1.316176729883702;18.68958829349179;3;0;0;0;0;0;0;0;0;0;0;0;0;0;0;0;0;0
72;2022-04-10 13:00:31.114;5.173983173098228;52.36964198856987;23;-0.04;0.23;10.02243423;0.97925842;-1.67359805;-0.11;13.33333207;6.66666603;46.66666794;72.94117737;2077.25;72;7.2;0.020491413403151297;0.17129231008464327;0.13935497567847366;9.696314893333165;1.6284490272288954;-1.3487005182214105;19.081817044550174;3;0;0;0;0;0;0;0;0;0;0;0;0;0;0;0;0;0
73;2022-04-10 13:00:31.216;5.173983173098228;52.36964198856987;23;-0.06;0.09;10.63776302;0.27294734;-1.12770343;-0.14;13.33333207;6.66666603;46.66666794;72.94117737;1917.0;73;7.300000000000001;0.013167678244914646;0.16389570311391924;0.13941366501068628;9.781975170043575;1.5051149355030478;-1.3285924833833527;19.438323820291647;3;0;0;0;0;0;0;0;0;0;0;0;0;0;0;0;0;0
74;2022-04-10 13:00:31.315;5.173983173098228;52.36964198856987;26;0.01;0.13;9.72315025;1.20671451;-1.23784006;-0.16;13.33333207;6.66666603;49.41176605;72.94117737;1917.0;74;7.4;0.012879480906504242;0.16081185094659026;0.14128662258176217;9.776623242203057;1.477966279054568;-1.320335771416042;20.03530920336797;3;0;0;0;0;0;0;0;0;0;0;0;0;0;0;0;0;0
75;2022-04-10 13:00:31.416;5.173983173098228;52.36964198856987;26;-0.01;0.08;9.79737282;1.1444633;-1.17558897;-0.17;13.33333207;6.66666603;49.41176605;72.94117737;1917.0;75;7.5;0.010798040381164008;0.153460064331529;0.14389879667880293;9.778510916678135;1.4476261407112836;-1.307167559269451;20.57794166937398;3;1;0;0;0;0;0;0;0;0;0;0;0;0;0;0;0;0
76;2022-04-10 13:00:31.515;5.173983173098228;52.36964198856987;26;-0.02;0.18000001;9.79497814;0.43575802;-1.01996112;-0.2;13.33333207;6.66666603;49.41176605;72.94117737;1917.0;76;7.6000000000000005;0.007996398090184726;0.15587435541189776;0.14900222215179573;9.780008910339502;1.355578319330665;-1.2810409065168626;21.071176554945758;3;1;0;0;0;0;0;0;0;0;0;0;0;0;0;0;0;0
77;2022-04-10 13:00:31.618;5.173983173098228;52.36964198856987;26;0.1;0.05;10.8245163;0.38787252;-1.13728058;-0.15000001;13.725490570000002;6.66666603;49.41176605;72.94117737;1917.0;77;7.7;0.0163653054545763;0.14624372515053716;0.14909298375131574;9.875020251243956;1.2675530679006028;-1.267964061368195;21.519516250032193;3;1;0;0;0;0;0;0;0;0;0;0;0;0;0;0;0;0
78;2022-04-10 13:00:31.717;5.173983173098228;52.36964198856987;26;0.05;0.0;9.44780827;-0.39744961;-2.01358509;-0.18000001;13.725490570000002;6.66666603;49.41176605;83.13725281;1917.0;78;7.800000000000001;0.019424647839134588;0.13294169779825948;0.15190422305826287;9.836161931313454;1.1161078613438682;-1.3357842109649332;21.92705180297409;3;1;0;0;0;0;0;0;0;0;0;0;0;0;0;0;0;0
79;2022-04-10 13:00:31.818;5.173983173098228;52.36964198856987;26;-0.04;0.05;9.51245403;0.41899809;-1.44135344;-0.20999999;13.725490570000002;6.66666603;49.41176605;83.13725281;2019.75;79;7.9;0.014019768540891356;0.12539786065841643;0.15718823599695075;9.806719566939277;1.052703292553841;-1.345386101111388;22.297500668779993;3;1;0;0;0;0;0;0;0;0;0;0;0;0;0;0;0;0
80;2022-04-10 13:00:31.915;5.173983173098228;52.36964198856987;29;0.0;0.01;10.50847244;-0.18435916;-1.34797668;-0.20999999;13.725490570000002;6.66666603;48.62745285;83.13725281;2019.75;80;8.0;0.012744678236224619;0.11490248815097026;0.16199143622848977;9.870543608120977;0.9401931369890068;-1.3456217128488221;22.907089328489104;3;1;0;0;0;0;0;0;0;0;0;0;0;0;0;0;0;0
81;2022-04-10 13:00:32.014;5.1740925010653065;52.369621734914745;29;0.04;0.05;9.86680603;0.38547826;-0.28252444;-0.06;13.725490570000002;6.66666603;48.62745285;83.13725281;2019.75;81;8.1;0.015223434837806357;0.10899988049300023;0.15271574511585795;9.870203691149108;0.8897441576942695;-1.2489374980728325;23.461213865368666;3;1;0;0;0;0;0;0;0;0;0;0;0;0;0;0;0;0
82;2022-04-10 13:00:32.114;5.1740925010653065;52.369621734914745;29;0.0;0.01;9.62977314;-0.06225114;0.46448931;-0.01;13.725490570000002;6.66666603;48.62745285;83.13725281;2019.75;82;8.200000000000001;0.013838978423526844;0.09999658911876595;0.13973682604473978;9.848338348519565;0.8031673758904933;-1.0931142715731337;23.964924629273888;3;1;0;0;0;0;0;0;0;0;0;0;0;0;0;0;0;0
83;2022-04-10 13:00:32.215;5.1740925010653065;52.369621734914745;29;0.06;0.02;9.98412609;0.23463893;0.25379312;0.07;0.0;0.0;48.62745285;83.13725281;2019.75;83;8.3;0.01803683465318359;0.09272174622069074;0.12066348209064758;9.860686806093026;0.7514657324516735;-0.9706273033174804;24.422811430517612;3;1;0;0;0;0;0;0;0;0;0;0;0;0;0;0;0;0
84;2022-04-10 13:00:32.316;5.1740925010653065;52.369621734914745;29;0.02;0.0;9.87638378;-0.12929083;0.13647367;0.0;0.0;0.0;48.62745285;39.2156868;2019.75;84;8.4;0.018215358345161727;0.08428994067317473;0.1096907485179543;9.862114236410754;0.6713726758388767;-0.8699512428573978;24.83904565328914;3;1;0;0;0;0;0;0;0;0;0;0;0;0;0;0;0;0
85;2022-04-10 13:00:32.415;5.1740925010653065;52.369621734914745;29;0.01;0.01;9.83089256;-0.06225114;-0.33040991;0.0;0.0;0.0;48.62745285;39.2156868;2019.75;85;8.5;0.0174683017214725;0.07753444810405753;0.09971611359700443;9.859275119821389;0.6046612181163579;-0.820888510651369;25.217418497781008;3;1;0;0;0;0;0;0;0;0;0;0;0;0;0;0;0;0
86;2022-04-10 13:00:32.519;5.1740925010653065;52.369621734914745;30;-0.06;-0.03;9.51245403;-0.16281068;-0.10055954;0.02;0.0;0.0;48.62745285;39.2156868;1788.75;86;8.6;0.01042396411467366;0.0677561395575594;0.08883010341721201;9.827738029275068;0.5348735625988776;-0.7553876497254393;25.652307581251435;3;1;0;0;0;0;0;0;0;0;0;0;0;0;0;0;0;0
87;2022-04-10 13:00:32.615;5.1740925010653065;52.369621734914745;30;0.02;0.02;10.05834866;0.01675992;0.39266106;0.13;0.0;0.0;8.23529434;39.2156868;1788.75;87;8.700000000000001;0.011294711137452906;0.06341368336408433;0.06893192599527999;9.848707407682753;0.4877615929742038;-0.6509958107672343;26.047642381049563;3;1;0;0;0;0;0;0;0;0;0;0;0;0;0;0;0;0
88;2022-04-10 13:00:32.716;5.1740925010653065;52.369621734914745;30;0.03;0.02;9.24429512;0.07422252;0.49800915;-0.08;0.0;0.0;8.23529434;39.2156868;1788.75;88;8.8;0.012995544080966103;0.05946616758886786;0.06993832290402606;9.793749457666095;0.4501593466837042;-0.5465191836542495;26.407022024542588;3;1;0;0;0;0;0;0;0;0;0;0;0;0;0;0;0;0
89;2022-04-10 13:00:32.816;5.1740925010653065;52.369621734914745;30;-0.01;0.05;10.12778282;0.11731946;0.64884847;-0.04;0.0;0.0;8.23529434;39.2156868;1788.75;89;8.9;0.010904646531604672;0.05860544489651846;0.06721614482588992;9.824121843561805;0.4198954789993239;-0.4378289396308261;26.733717875588432;3;1;0;0;0;0;0;0;0;0;0;0;0;0;0;0;0;0
90;2022-04-10 13:00:32.915;5.1740925010653065;52.369621734914745;30;0.12;0.04;10.23552513;-0.00239427;0.40463245;0.0;0.0;0.0;8.23529434;39.2156868;1788.75;90;9.0;0.0208241032179877;0.05691375135582733;0.06110454047218828;9.86152854284567;0.38149893193175455;-0.36122843375489094;27.030703430229803;3;1;0;0;0;0;0;0;0;0;0;0;0;0;0;0;0;0
91;2022-04-10 13:00:33.016;5.174216262910792;52.3696023073424;30;0.02;0.04;9.99370289;-0.74222517;0.23942748;0.06;0.0;0.0;8.23529434;12.94117641;1788.75;91;9.1;0.020749173088164315;0.05537589838155163;0.050093323986539685;9.873546261955878;0.2793263023320147;-0.30661485548646034;27.30068147739759;3;1;0;0;0;0;0;0;0;0;0;0;0;0;0;0;0;0
92;2022-04-10 13:00:33.113;5.174216262910792;52.3696023073424;30;-0.1;-0.04;9.62498474;0.04309694;1.42459357;0.05;0.0;0.0;8.23529434;12.94117641;1788.75;92;9.200000000000001;0.009770423029084107;0.04670413589066692;0.04099264396922477;9.850946564135459;0.2578478684899423;-0.1492100127244139;27.546108776248403;3;1;0;0;0;0;0;0;0;0;0;0;0;0;0;0;0;0
93;2022-04-10 13:00:33.213;5.174216262910792;52.3696023073424;30;-0.09;-0.02;9.31372929;-0.38787252;2.12851024;0.18000001;0.0;0.0;8.23529434;12.94117641;1416.5;93;9.3;0.0006992184268859868;0.04063934388010606;0.020899819674461317;9.802102350975238;0.1991384676277688;0.0578820874364773;27.769218478366234;3;1;0;0;0;0;0;0;0;0;0;0;0;0;0;0;0;0
94;2022-04-10 13:00:33.319;5.174216262910792;52.3696023073424;28;0.05;0.0;9.94102859;-0.01436565;2.23385835;0.14;0.0;0.0;8.23529434;12.94117641;1416.5;94;9.4;0.0051816315106110586;0.036944426255888695;0.00627085368518531;9.814733485241412;0.17972673378203619;0.2557212323337058;27.790201068886002;3;1;0;0;0;0;0;0;0;0;0;0;0;0;0;0;0;0
95;2022-04-10 13:00:33.419;5.174216262910792;52.3696023073424;28;0.01;0.01;9.7470932;-0.54589468;2.12851024;0.1;0.0;0.0;8.23529434;12.94117641;1416.5;95;9.5;0.005619711552787892;0.03449467268959239;-0.003391159539228372;9.808583715028389;0.11375414155417166;0.42599286873377024;27.809275725544886;3;1;0;0;0;0;0;0;0;0;0;0;0;0;0;0;0;0
96;2022-04-10 13:00:33.515;5.174216262910792;52.3696023073424;28;0.01;-0.03;9.73991013;-0.71828246;1.53951871;0.15000001;0.0;0.0;8.62745094;12.94117641;1416.5;96;9.600000000000001;0.006017958058069453;0.028630954279847996;-0.01672052427010817;9.802340058800654;0.03810714414097817;0.5272322688712728;27.826615970756922;3;1;0;0;0;0;0;0;0;0;0;0;0;0;0;0;0;0
97;2022-04-10 13:00:33.618;5.174216262910792;52.3696023073424;28;-0.02;-0.01;9.81173801;0.15802214;1.68556952;0.13;0.0;0.0;8.62745094;12.94117641;1416.5;97;9.700000000000001;0.0036524814441697396;0.025118740957124623;-0.027019562729460732;9.803194493023778;0.049009464673869546;0.6325449022623497;27.84237953934608;3;1;0;0;0;0;0;0;0;0;0;0;0;0;0;0;0;0
98;2022-04-10 13:00:33.717;5.174216262910792;52.3696023073424;28;-0.05;-0.02;9.69920731;-0.19872481;1.30248547;0.13;0.0;0.0;8.62745094;12.94117641;1416.5;98;9.8;-0.001225406233089128;0.021016709800239355;-0.03638216800771631;9.793740358098214;0.026486369131237426;0.6934534520982755;27.856709816008262;3;1;0;0;0;0;0;0;0;0;0;0;0;0;0;0;0;0
99;2022-04-10 13:00:33.813;5.174216262910792;52.3696023073424;28;0.0;-0.03;9.67047596;-0.61772293;1.44135344;0.14;0.0;0.0;8.62745094;12.94117641;1416.5;99;9.9;-0.0011139975819961375;0.016378490515423776;-0.04580265452045368;9.782533690505794;-0.03208236268992004;0.7614492942563058;27.869737141708363;3;1;0;0;0;0;0;0;0;0;0;0;0;0;0;0;0;0
100;2022-04-10 13:00:33.913;5.174216262910792;52.3696023073424;28;0.03;-0.04;10.05356026;-1.01996112;1.93457401;0.17;0.0;0.0;8.62745094;12.94117641;1416.5;100;10.0;0.0017147342608683036;0.01125283506233305;-0.057094067172633024;9.807174095049445;-0.12189544730972984;0.8681040315760671;27.881580000994475;3;1;0;0;0;0;0;0;0;0;0;0;0;0;0;0;0;0
101;2022-04-10 13:00:34.015;5.174331452321321;52.36958413829734;28;-0.08;-0.06;8.89473057;-0.81405342;-0.15323359;-0.05;0.0;0.0;8.62745094;10.98039246;1416.5;101;10.100000000000001;-0.0057143234776348235;0.004774916110528978;-0.04735765897559107;9.724219708768565;-0.18482267322305865;0.7752495882516689;27.892346101110483;3;1;0;0;0;0;0;0;0;0;0;0;0;0;0;0;0;0
102;2022-04-10 13:00:34.116;5.174331452321321;52.36958413829734;24;-0.1;-0.19;11.09506989;-1.52275872;0.76377368;0.01;0.0;0.0;8.62745094;10.98039246;1258.75;102;10.200000000000001;-0.014286215953006947;-0.012932859867543813;-0.043961322992421586;9.84884924728148;-0.3064598545522497;0.7742062669835948;27.538477162727897;3;1;0;0;0;0;0;0;0;0;0;0;0;0;0;0;0;0
103;2022-04-10 13:00:34.217;5.174331452321321;52.36958413829734;24;0.01;-0.16;10.37918091;-1.88908279;0.29928434;0.07;0.0;0.0;9.4117651;10.98039246;1258.75;103;10.3;-0.012078268705812158;-0.026303262561672158;-0.04632859277750141;9.897063606285178;-0.45034179813830066;0.7310294063584203;27.216781476342494;3;1;0;0;0;0;0;0;0;0;0;0;0;0;0;0;0;0
104;2022-04-10 13:00:34.320;5.174331452321321;52.36958413829734;24;0.05;-0.15000001;9.98173141;-2.05907631;0.49082634;0.03;0.0;0.0;9.4117651;10.98039246;1258.75;104;10.4;-0.0064345354394786435;-0.0375489281224062;-0.04484410836496867;9.90476102617743;-0.5965969800332593;0.7091917800111602;26.924333619676354;3;1;0;0;0;0;0;0;0;0;0;0;0;0;0;0;0;0
105;2022-04-10 13:00:34.414;5.174331452321321;52.36958413829734;24;0.0;-0.22;9.30894089;-1.96330535;1.68317521;0.04;0.0;0.0;9.4117651;10.98039246;1258.75;105;10.5;-0.0058495537105506396;-0.054136068635594545;-0.0444037168381666;9.850593340464998;-0.7208482849989987;0.7977393552294677;26.65847421880884;3;1;0;0;0;0;0;0;0;0;0;0;0;0;0;0;0;0
106;2022-04-10 13:00:34.514;5.174331452321321;52.36958413829734;24;-0.05;-0.31;10.03201103;-2.93298674;0.52913475;0.04;1.1764698100000004;0.39215659999999986;9.4117651;10.98039246;1258.75;106;10.600000000000001;-0.00986338011156319;-0.07739729222650386;-0.04400336403557578;9.867086471861505;-0.9219592698159287;0.7733198454280179;26.416785744452103;3;1;0;0;0;0;0;0;0;0;0;0;0;0;0;0;0;0
107;2022-04-10 13:00:34.615;5.174331452321321;52.36958413829734;24;-0.01;-0.1;9.01683903;-2.83960986;0.02394275;0.0;1.1764698100000004;0.39215659999999986;9.4117651;10.98039246;1258.75;107;10.700000000000001;-0.009875800521882302;-0.07945215340434511;-0.04000292278945447;9.789788633153492;-1.0962970434102166;0.7051923486524272;26.197070511604732;3;1;0;0;0;0;0;0;0;0;0;0;0;0;0;0;0;0
108;2022-04-10 13:00:34.717;5.174331452321321;52.36958413829734;24;0.08;-0.36000001;9.50527096;-4.31208897;0.09577099;0.0;1.1764698100000004;0.39215659999999986;9.4117651;10.98039246;1258.75;108;10.8;-0.0017050217464250532;-0.1049572889231513;-0.03636618152443787;9.76392259411355;-1.388650761179542;0.6497887019124439;25.99733068174884;3;1;0;0;0;0;0;0;0;0;0;0;0;0;0;0;0;0
109;2022-04-10 13:00:34.827;5.174331452321321;52.36958413829734;23;0.04;-0.25;10.21397591;-2.65764499;0.09337672;-0.02;1.1764698100000004;0.39215659999999986;9.4117651;10.98039246;1216.5;109;10.9;0.0020864499417420916;-0.11814335883977994;-0.0312418398391751;9.80483767661187;-1.5040171005205039;0.5992043792568913;25.72483845074072;3;1;0;0;0;0;0;0;0;0;0;0;0;0;0;0;0;0
110;2022-04-10 13:00:34.914;5.174331452321321;52.36958413829734;23;-0.06;-0.19;9.41189384;-1.54670155;0.27773589;-0.09;1.1764698100000004;0.39215659999999986;12.15686321;10.98039246;1216.5;110;11.0;-0.003557916338147476;-0.12467594691224093;-0.02021957406069774;9.76911460107214;-1.50789760371474;0.5699792278347817;25.477119563867028;3;1;0;0;0;0;0;0;0;0;0;0;0;0;0;0;0;0
111;2022-04-10 13:00:35.013;5.174440345177797;52.3695671185219;23;-0.05;-0.31;13.13978004;0.31365001;1.13728058;-0.01;1.1764698100000004;0.39215659999999986;12.15686321;10.98039246;1216.5;111;11.100000000000001;-0.007780021565908552;-0.14152397765670144;-0.017472276533063606;10.075545817086258;-1.342298537176778;0.6215532705097901;25.251921669290585;3;1;0;0;0;0;0;0;0;0;0;0;0;0;0;0;0;0
112;2022-04-10 13:00:35.115;5.174440345177797;52.3695671185219;23;-0.13;-0.14;9.51245403;-3.4286015;0.63208854;-0.14;1.1764698100000004;0.39215659999999986;12.15686321;10.98039246;1216.5;112;11.200000000000001;-0.018891162249158624;-0.1413854313211621;-0.003156314112778342;10.024354578599239;-1.531966429650765;0.6225110424137085;25.04719721428964;3;1;0;0;0;0;0;0;0;0;0;0;0;0;0;0;0;0
113;2022-04-10 13:00:35.215;5.174440345177797;52.3695671185219;23;0.06;-0.19;10.44622135;-2.07344198;-0.18196489;-0.05;1.1764698100000004;0.39215659999999986;12.15686321;10.98039246;1216.5;113;11.3;-0.01171910135869835;-0.14580502201786028;0.0016761704223743274;10.06270683613846;-1.5811924203331573;0.5493754692051587;24.86108482023852;3;1;0;0;0;0;0;0;0;0;0;0;0;0;0;0;0;0
114;2022-04-10 13:00:35.318;5.174440345177797;52.3695671185219;23;-0.01;-0.19;10.16369629;-1.69514656;0.43336374;-0.02;7.450979240000002;3.5294113200000012;12.15686321;40.0;1216.5;114;11.4;-0.011562816702075294;-0.14982281708471543;0.0033420020495024427;10.071887855069916;-1.5915520675398194;0.5388287651546173;24.691892351972665;3;1;0;0;0;0;0;0;0;0;0;0;0;0;0;0;0;0
115;2022-04-10 13:00:35.416;5.174440345177797;52.3695671185219;23;0.09;-0.17;9.45499134;-2.56905699;0.75659084;-0.06;7.450979240000002;3.5294113200000012;12.15686321;40.0;1216.5;115;11.5;-0.0023296875521245743;-0.15165713540896483;0.00849281047961068;10.015805468023647;-1.6804175548004046;0.5586256300535757;24.538081527294562;3;1;0;0;0;0;0;0;0;0;0;0;0;0;0;0;0;0
116;2022-04-10 13:00:35.513;5.174440345177797;52.3695671185219;23;0.0;-0.17;8.38714504;-2.57384539;0.19154198;-0.02;7.450979240000002;3.5294113200000012;12.15686321;40.0;1216.5;116;11.600000000000001;-0.0021178947340042727;-0.15332469249428796;0.009538933636746103;9.867743303422401;-1.76163943317267;0.5252539100305054;24.39825392643563;3;1;0;0;0;0;0;0;0;0;0;0;0;0;0;0;0;0
117;2022-04-10 13:00:35.614;5.174440345177797;52.3695671185219;23;0.02;-0.23999999;10.18045616;-2.31286955;-0.96489275;-0.05;7.450979240000002;3.5294113200000012;12.15686321;40.0;1216.5;117;11.700000000000001;-0.00010715078752377585;-0.16120436783703493;0.013217260405024803;9.89617211597043;-1.8117519160223259;0.3897842637527373;24.271138274062956;3;1;0;0;0;0;0;0;0;0;0;0;0;0;0;0;0;0
118;2022-04-10 13:00:35.715;5.174440345177797;52.3695671185219;23;-0.02;-0.17;9.49808788;-2.07104778;-1.11812639;-0.14;7.450979240000002;3.5294113200000012;12.15686321;40.0;1592.75;118;11.8;-0.001915613082561313;-0.1620039802484016;0.02474310075952145;9.859982210577197;-1.8353245469840442;0.25269985053117966;24.155578878027306;3;1;0;0;0;0;0;0;0;0;0;0;0;0;0;0;0;0
119;2022-04-10 13:00:35.816;5.174440345177797;52.3695671185219;23;0.02;-0.23;10.2474966;-2.94735217;-1.11573207;-0.14;7.450979240000002;3.5294113200000012;39.60784149;40.0;1592.75;119;11.9;7.673686983556685e-05;-0.16818550326602924;0.03522111371084072;9.895211171428581;-1.9364190577072147;0.12829560678688243;24.05052511959695;3;1;0;0;0;0;0;0;0;0;0;0;0;0;0;0;0;0
120;2022-04-10 13:00:35.914;5.174440345177797;52.3695671185219;23;0.03;-0.2;9.84525776;-2.281744;-0.59617442;-0.13;7.450979240000002;3.5294113200000012;39.60784149;40.0;1592.75;120;12.0;0.002797060193105598;-0.17107775860285698;0.04383746059134023;9.890669907676864;-1.9678125421189792;0.06243404943247264;23.9550218995073;3;1;0;0;0;0;0;0;0;0;0;0;0;0;0;0;0;0
121;2022-04-10 13:00:36.013;5.174514836235419;52.369528277858166;23;0.02;-0.22;9.00486755;-3.24184799;-1.11094356;-0.1;7.450979240000002;3.5294113200000012;39.60784149;40.0;1592.75;121;12.100000000000001;0.004360977753310291;-0.17552527474047097;0.048943191506685885;9.810141702754217;-2.0836349789600273;-0.04423759324844927;23.86820095286765;3;1;0;0;0;0;0;0;0;0;0;0;0;0;0;0;0;0
122;2022-04-10 13:00:36.114;5.174514836235419;52.369528277858166;23;-0.06;-0.22;9.42386532;-2.80848432;-0.90982443;-0.15000001;7.450979240000002;3.5294113200000012;39.60784149;40.0;1592.75;122;12.200000000000001;-0.0014900676411672598;-0.17956846434827703;0.05813024945804597;9.775025383375535;-2.149530907620991;-0.12292794338743647;23.78927295388311;3;1;0;0;0;0;0;0;0;0;0;0;0;0;0;0;0;0
123;2022-04-10 13:00:36.215;5.174514836235419;52.369528277858166;23;-0.01;-0.25999999;9.61061954;-2.69595337;-0.71109962;-0.14;7.450979240000002;3.5294113200000012;39.60784149;40.0;1592.75;123;12.3;-0.002263703555197218;-0.18688047509532013;0.06557300888564463;9.760079287502084;-2.19920604289869;-0.17639848973912425;23.71752033854502;3;1;0;0;0;0;0;0;0;0;0;0;0;0;0;0;0;0
124;2022-04-10 13:00:36.315;5.174514836235419;52.369528277858166;23;-0.01;-0.27000001;9.79018974;-2.37272644;-0.90982443;-0.13;9.41176415;3.5294113200000012;39.60784149;40.0;1592.75;124;12.4;-0.0029670079423963157;-0.19443684705928257;0.07143004730552108;9.762816619698881;-2.21498073010472;-0.2430740217784406;23.652290779982497;3;1;0;0;0;0;0;0;0;0;0;0;0;0;0;0;0;0
125;2022-04-10 13:00:36.413;5.174514836235419;52.369528277858166;23;0.01;-0.22;9.81892109;-2.55947971;-0.74701375;-0.1;9.41176415;4.705882070000001;39.60784149;50.58823395;1592.75;125;12.5;-0.0017881818610717723;-0.19676078420355464;0.07402733154627063;9.767917057144718;-2.2462990098724434;-0.2888870032836708;23.59299125711132;3;1;0;0;0;0;0;0;0;0;0;0;0;0;0;0;0;0
126;2022-04-10 13:00:36.515;5.174514836235419;52.369528277858166;23;-0.04;-0.25;10.9945097;-2.22188711;-0.28731298;-0.1;9.41176415;4.705882070000001;39.60784149;50.58823395;1592.75;126;12.600000000000001;-0.0052620027381667395;-0.2016007397021768;0.0763884962932711;9.879426096441147;-2.2440797339636624;-0.2887439094658375;23.539082662618416;3;1;0;0;0;0;0;0;0;0;0;0;0;0;0;0;0;0
127;2022-04-10 13:00:36.614;5.174514836235419;52.369528277858166;23;0.0;-0.28;9.4166832;-3.20593405;-0.50758624;-0.12;9.41176415;4.705882070000001;39.60784149;50.58823395;1744.75;127;12.700000000000001;-0.004783636445763685;-0.20872798104771773;0.08035319839861024;9.837358348718247;-2.3315214754239646;-0.30863876689704883;23.490074901230326;3;1;0;0;0;0;0;0;0;0;0;0;0;0;0;0;0;0
128;2022-04-10 13:00:36.713;5.174514836235419;52.369528277858166;26;-0.05;-0.28;9.79018974;-3.25381947;-0.95292139;-0.15000001;9.41176415;4.705882070000001;36.47058868;50.58823395;1744.75;128;12.8;-0.0088942337546209;-0.2152072851375006;0.08668475568971698;9.833070273764427;-2.415367131210087;-0.36721018238679204;23.7182509540007;3;1;0;0;0;0;0;0;0;0;0;0;0;0;0;0;0;0
129;2022-04-10 13:00:36.814;5.174514836235419;52.369528277858166;26;-0.02;-0.31999999;9.41907692;-3.39029312;-0.94094998;-0.13;9.41176415;4.705882070000001;36.47058868;50.58823395;1744.75;129;12.9;-0.0099038530664766;-0.22473393428832306;0.09062252154820562;9.795434357817216;-2.503997135134567;-0.419368562713903;23.92568354809187;3;1;0;0;0;0;0;0;0;0;0;0;0;0;0;0;0;0
130;2022-04-10 13:00:36.913;5.174514836235419;52.369528277858166;26;0.05;-0.25;10.4366436;-3.20593405;-0.91221869;-0.15000001;9.41176415;4.705882070000001;36.47058868;50.58823395;1744.75;130;13.0;-0.004458027653881737;-0.22703085803672118;0.09602049545128663;9.853726327483919;-2.5678098231893833;-0.46417328912769096;24.114258483914934;3;1;0;0;0;0;0;0;0;0;0;0;0;0;0;0;0;0
131;2022-04-10 13:00:37.013;5.174565776133012;52.36947284155264;26;0.0;-0.31999999;9.34964275;-3.27057934;-0.98883551;-0.12;9.41176415;4.705882070000001;36.47058868;50.58823395;1744.75;131;13.100000000000001;-0.004052751019728785;-0.23548262635390327;0.09820045790255046;9.807900390213975;-2.6316981806584776;-0.5118700185899221;24.285690120023336;3;1;0;0;0;0;0;0;0;0;0;0;0;0;0;0;0;0
132;2022-04-10 13:00:37.116;5.174565776133012;52.36947284155264;26;-0.01;-0.37;10.24510193;-4.13970137;-0.69912827;-0.11;9.41176415;4.705882070000001;36.47058868;50.19607925;1744.75;132;13.200000000000001;-0.004593411707199801;-0.2477115167120429;0.09927314689933084;9.847646108923286;-2.768789808024765;-0.528893549179922;24.441536959683354;3;1;0;0;0;0;0;0;0;0;0;0;0;0;0;0;0;0
133;2022-04-10 13:00:37.215;5.174565776133012;52.36947284155264;26;-0.06;-0.38;9.16767788;-3.90985084;-0.47167215;-0.08;9.41176415;4.705882070000001;36.47058868;50.19607925;1744.75;133;13.3;-0.009630388586324236;-0.2597377766249361;0.09752103765905638;9.78583063980387;-2.8725229237574292;-0.5236915890242582;24.583215820319225;3;1;0;0;0;0;0;0;0;0;0;0;0;0;0;0;0;0
134;2022-04-10 13:00:37.314;5.174565776133012;52.36947284155264;26;-0.11;-0.44999999;9.40471172;-4.20195246;-0.41899809;-0.09;9.41176415;4.705882070000001;36.47058868;50.19607925;1744.75;134;13.4;-0.018754922276082362;-0.27703438614027565;0.09683730519725423;9.751183375810568;-2.993380466401577;-0.5141739736276189;24.712014714691072;3;1;0;0;0;0;0;0;0;0;0;0;0;0;0;0;0;0
135;2022-04-10 13:00:37.416;5.174565776133012;52.36947284155264;26;-0.18000001;-0.41;10.26904488;-4.4030714;-0.92658436;-0.07;9.41176415;4.705882070000001;36.47058868;50.19607925;1893.75;135;13.5;-0.03341360102501437;-0.2891221975938653;0.09439754445212586;9.798261804887112;-3.1215344884718954;-0.5516659149443461;24.829104560944383;3;1;0;0;0;0;0;0;0;0;0;0;0;0;0;0;0;0
136;2022-04-10 13:00:37.517;5.174565776133012;52.36947284155264;28;0.05;-0.44999999;9.0288105;-3.78056002;-0.3423813;-0.02;9.41176415;4.705882070000001;36.47058868;50.19607925;1893.75;136;13.600000000000001;-0.025830530203815972;-0.3037474826598815;0.0876341168867035;9.728311536984487;-3.181446028282494;-0.532640000256473;25.117368397842675;3;1;0;0;0;0;0;0;0;0;0;0;0;0;0;0;0;0
137;2022-04-10 13:00:37.615;5.174565776133012;52.36947284155264;28;0.04;-0.38;10.27383327;-3.4884584;-0.49561489;-0.06;9.41176415;4.705882070000001;36.47058868;50.19607925;1893.75;137;13.700000000000001;-0.01984592493858306;-0.3106795431392377;0.0851219195687083;9.777904518016172;-3.209356298040062;-0.5292740746122363;25.379426324622028;3;1;0;0;0;0;0;0;0;0;0;0;0;0;0;0;0;0
138;2022-04-10 13:00:37.715;5.174565776133012;52.36947284155264;28;0.0;-0.31;8.8636055;-4.4629283;-0.46927786;-0.06;9.41176415;4.705882070000001;32.15686417;50.19607925;1893.75;138;13.8;-0.01804174676219563;-0.3106177663812624;0.08283810467093515;9.694786278876293;-3.3233175901171803;-0.5238198636644354;25.617660715277232;3;1;0;0;0;0;0;0;0;0;0;0;0;0;0;0;0;0
139;2022-04-10 13:00:37.816;5.174565776133012;52.36947284155264;28;0.06;-0.37;10.0487709;-3.72070312;-0.36871833;-0.14;9.41176415;4.705882070000001;32.15686417;50.19607925;1893.75;139;13.9;-0.01094703113588617;-0.3160161599111225;0.08803464894173861;9.726966750574501;-3.3594436053013332;-0.5097197016331227;25.83423736113315;3;1;0;0;0;0;0;0;0;0;0;0;0;0;0;0;0;0
140;2022-04-10 13:00:37.914;5.174565776133012;52.36947284155264;28;-0.1;-0.33000001;10.03680038;-2.79890728;-0.81644773;-0.17;9.41176415;4.705882070000001;32.15686417;50.19607925;1893.75;140;14.0;-0.019042767378234186;-0.3172874208630716;0.09548605535348541;9.755133485213811;-3.308485683271591;-0.5376041084919528;26.03112516073646;3;1;0;0;0;0;0;0;0;0;0;0;0;0;0;0;0;0
141;2022-04-10 13:00:38.014;5.174584049209642;52.369401338503785;28;-0.08;-0.34999999;9.66568756;-4.09899855;-1.20910883;-0.14;10.980392460000001;5.4901962300000005;32.15686417;50.19607925;1893.75;141;14.100000000000001;-0.024584341323184357;-0.32026129472520054;0.09953278295627357;9.747002026692352;-3.3803505845638098;-0.5986500731555668;26.2101140196604;3;1;0;0;0;0;0;0;0;0;0;0;0;0;0;0;0;0
142;2022-04-10 13:00:38.114;5.174584049209642;52.369401338503785;28;-0.08;-0.34999999;10.54438591;-3.19156837;-0.90264159;-0.16;10.980392460000001;5.4901962300000005;32.15686417;57.64706039;1893.75;142;14.200000000000001;-0.029622134544192064;-0.32296481573414015;0.1050298093092876;9.819491557950936;-3.3631885443844647;-0.6262856988860871;26.37283112297445;3;1;0;0;0;0;0;0;0;0;0;0;0;0;0;0;0;0
143;2022-04-10 13:00:38.216;5.174584049209642;52.369401338503785;28;0.07;-0.17;10.72395706;-2.70074201;-0.74701375;-0.08;10.980392460000001;5.4901962300000005;32.15686417;57.64706039;1893.75;143;14.3;-0.020565566940519326;-0.30905890816632897;0.10275436960752088;9.90171578454451;-3.3029660662181266;-0.6372609882791064;26.520755728332478;3;1;0;0;0;0;0;0;0;0;0;0;0;0;0;0;0;0
144;2022-04-10 13:00:38.316;5.174584049209642;52.369401338503785;31;0.13;-0.25;9.24668884;-1.46769047;-1.43656492;-0.13;10.980392460000001;5.4901962300000005;32.15686417;57.64706039;2067.0;144;14.4;-0.006877774500939154;-0.3036899111697694;0.10523124756358833;9.842167821212366;-3.1361226640982753;-0.7099250544122221;26.927960158419634;3;1;0;0;0;0;0;0;0;0;0;0;0;0;0;0;0;0
145;2022-04-10 13:00:38.418;5.174584049209642;52.369401338503785;31;-0.09;-0.09;8.88754845;-1.1013664;-1.47247899;-0.18000001;10.980392460000001;5.4901962300000005;32.15686417;57.64706039;2067.0;145;14.5;-0.014434347294402908;-0.2842635380272287;0.11202841393679049;9.755384163468525;-2.951144654494951;-0.779248202205906;27.298145933596384;3;1;0;0;0;0;0;0;0;0;0;0;0;0;0;0;0;0
146;2022-04-10 13:00:38.518;5.174584049209642;52.369401338503785;31;0.05;-0.07;9.81413269;-0.20351335;-1.85795724;-0.23;10.980392460000001;5.4901962300000005;34.50980377;57.64706039;2067.0;146;14.600000000000001;-0.008576674539065821;-0.2647850185439833;0.12275311240279625;9.76072494300195;-2.7013597849359567;-0.8773127408711595;27.634678398338057;3;1;0;0;0;0;0;0;0;0;0;0;0;0;0;0;0;0
147;2022-04-10 13:00:38.617;5.174584049209642;52.369401338503785;31;0.08;0.0;10.49650097;-0.32562137;-0.83320761;-0.11;10.980392460000001;5.4901962300000005;34.50980377;57.64706039;2067.0;147;14.700000000000001;-0.000524243558014075;-0.240713635217196;0.12159373768082224;9.827613722759663;-2.485383403853059;-0.873303180520216;27.9406169545939;3;1;0;0;0;0;0;0;0;0;0;0;0;0;0;0;0;0
148;2022-04-10 13:00:38.717;5.174584049209642;52.369401338503785;31;0.02;0.0;9.5435791;0.02394275;-0.90024734;-0.11;10.980392460000001;5.4901962300000005;34.50980377;57.64706039;2067.0;148;14.8;0.0013415980341585229;-0.21883056259033984;0.12053976081134732;9.801792375860128;-2.257262689296573;-0.8757526512294;28.218742875111804;3;1;0;0;0;0;0;0;0;0;0;0;0;0;0;0;0;0
149;2022-04-10 13:00:38.818;5.174584049209642;52.369401338503785;31;-0.01;0.01;9.62498474;-0.04070267;-0.82363051;-0.11;10.980392460000001;5.4901962300000005;34.50980377;57.64706039;2067.0;149;14.9;0.00031054303006526764;-0.19802777131369154;0.1195816001452969;9.78571894448243;-2.055757108435248;-0.8710142718249481;28.471584588215133;3;1;0;0;0;0;0;0;0;0;0;0;0;0;0;0;0;0
150;2022-04-10 13:00:38.915;5.174584049209642;52.369401338503785;31;0.01;0.05;9.54118538;0.48603779;-0.79250497;-0.14;10.980392460000001;5.4901962300000005;34.50980377;57.64706039;2067.0;150;15.0;0.0011914032496120148;-0.1754797794323116;0.12143781935702515;9.763488607946037;-1.8246847150879502;-0.8638770585573142;28.701440663910695;3;1;0;0;0;0;0;0;0;0;0;0;0;0;0;0;0;0
151;2022-04-10 13:00:39.015;5.1746020672246456;52.36932808490396;31;0.07;0.01;10.49171257;-0.35674694;-0.75180227;-0.13;10.980392460000001;5.4901962300000005;34.50980377;57.64706039;2067.0;151;15.100000000000001;0.007446733422591253;-0.15861797268788136;0.12221619981312996;9.829690820135417;-1.6912357582682942;-0.8536884362106613;28.910400710306956;3;1;0;0;0;0;0;0;0;0;0;0;0;0;0;0;0;0
152;2022-04-10 13:00:39.116;5.1746020672246456;52.36932808490396;31;0.02;0.03;9.58907032;-0.74701375;-1.48205614;-0.13;10.980392460000001;5.4901962300000005;34.50980377;57.64706039;2067.0;152;15.200000000000001;0.008587940005092195;-0.1414708762981044;0.12292381834057477;9.80781621905482;-1.6053973540144377;-0.9108127994489842;29.100364370321834;3;1;0;0;0;0;0;0;0;0;0;0;0;0;0;0;0;0
153;2022-04-10 13:00:39.216;5.1746020672246456;52.36932808490396;31;0.02;-0.03;8.63375473;-0.69912827;-1.23305154;-0.17;10.980392460000001;5.4901962300000005;34.50980377;57.25490189;2067.0;153;15.3;0.009625400442653392;-0.13133715599246593;0.1272034730256089;9.701083311349981;-1.5230092206827393;-0.9401072427765166;29.273058591387283;3;1;0;0;0;0;0;0;0;0;0;0;0;0;0;0;0;0
154;2022-04-10 13:00:39.318;5.1746020672246456;52.36932808490396;31;-0.04;-0.1;9.62498474;-0.67279124;-0.88588166;-0.13;10.980392460000001;5.4901962300000005;34.50980377;57.25490189;2067.0;154;15.4;0.005113998670821227;-0.12848832253605963;0.12745770284813343;9.694165256753749;-1.4457166473174494;-0.9351776424501816;29.43005332515611;3;1;0;0;0;0;0;0;0;0;0;0;0;0;0;0;0;0
155;2022-04-10 13:00:39.418;5.1746020672246456;52.36932808490396;34;0.04;-0.08;10.34087276;-0.66321415;-0.47885495;-0.13;10.980392460000001;5.4901962300000005;32.94117737;57.25490189;2308.5;155;15.5;0.008285454443733417;-0.12408029167649554;0.1276888208516749;9.752956868472243;-1.3745800318303671;-0.8936937468432777;29.84550316783304;3;1;0;0;0;0;0;0;0;0;0;0;0;0;0;0;0;0
156;2022-04-10 13:00:39.516;5.1746020672246456;52.36932808490396;34;0.0;-0.02;9.24190044;-0.2083019;-1.08221221;-0.13;10.980392460000001;5.4901962300000005;32.94117737;57.25490189;2308.5;156;15.600000000000001;0.007532231073554081;-0.11461844397722881;0.12789892811362555;9.706497178419053;-1.2685547134861035;-0.9108317943848139;30.223184817834866;3;1;0;0;0;0;0;0;0;0;0;0;0;0;0;0;0;0
157;2022-04-10 13:00:39.617;5.1746020672246456;52.36932808490396;34;0.01;-0.03;10.37678719;0.30167863;-0.9433443;-0.13;10.980392460000001;5.4901962300000005;32.94117737;57.25490189;2308.5;157;15.700000000000001;0.00775657376792553;-0.10692585594277654;0.1280899347038318;9.767432651589512;-1.1258061865497095;-0.9137874775658086;30.566531751589398;3;1;0;0;0;0;0;0;0;0;0;0;0;0;0;0;0;0
158;2022-04-10 13:00:39.716;5.1746020672246456;52.36932808490396;34;0.11;-0.01;9.83807564;-0.11492519;-0.70631105;-0.08;10.980392460000001;5.4901962300000005;32.94117737;57.25490189;2308.5;158;15.8;0.017051433134835554;-0.09811441218344305;0.1237181213119232;9.773854743128615;-1.0339078900442291;-0.894925979206043;30.878665310545934;3;1;0;0;0;0;0;0;0;0;0;0;0;0;0;0;0;0
159;2022-04-10 13:00:39.837;5.1746020672246456;52.36932808490396;34;0.0;0.0;10.06553173;0.10295381;-1.03672099;-0.11;11.76470566;5.88235283;32.94117737;59.2156868;2308.5;159;15.9;0.015501302480414958;-0.08919491804102418;0.12247101907725948;9.800370839163655;-0.9305568017726527;-0.9078164378048904;31.162423077213905;3;1;0;0;0;0;0;0;0;0;0;0;0;0;0;0;0;0
160;2022-04-10 13:00:39.915;5.1746020672246456;52.36932808490396;34;-0.02;0.02;9.42625999;-0.87391031;-0.93137288;-0.16;11.76470566;5.88235283;32.94117737;59.2156868;2308.5;160;16.0;0.012273910646586754;-0.0792681051592839;0.12588274535487326;9.766360754598352;-0.9254071195866841;-0.9099579330138756;31.42038467153883;3;1;0;0;0;0;0;0;0;0;0;0;0;0;0;0;0;0
161;2022-04-10 13:00:40.015;5.1745641901023305;52.36924030165685;36;0.01;-0.07;9.94821167;-0.84278476;-0.70870537;-0.1;11.76470566;5.88235283;37.64706039;59.2156868;2082.5;161;16.1;0.012067191456180985;-0.0784255499788512;0.12352976804098038;9.782892659254678;-0.9178959945084798;-0.8916622418635826;31.836713419764003;3;1;0;0;0;0;0;0;0;0;0;0;0;0;0;0;0;0
162;2022-04-10 13:00:40.117;5.1745641901023305;52.36924030165685;36;0.08;-0.03;8.98331928;-0.37590113;-1.24741721;-0.08;11.76470566;5.88235283;37.64706039;59.2156868;2082.5;162;16.2;0.018242902429607764;-0.07402322646523242;0.11957251569231588;9.71020415721611;-0.8686237252760527;-0.9240036083942185;32.215194085737046;3;1;0;0;0;0;0;0;0;0;0;0;0;0;0;0;0;0
163;2022-04-10 13:00:40.221;5.1745641901023305;52.36924030165685;36;0.04;-0.02;10.15172482;-0.17478207;-1.19234884;-0.09;11.76470566;5.88235283;37.64706039;59.2156868;2082.5;163;16.3;0.020220820712517008;-0.06911202325985914;0.11688410473721451;9.750342405821055;-0.8055472008924844;-0.9483986334202988;32.55926740667812;3;1;0;0;0;0;0;0;0;0;0;0;0;0;0;0;0;0
164;2022-04-10 13:00:40.317;5.1745641901023305;52.36924030165685;36;0.07;-0.01;9.75427532;-0.20590763;-1.28093708;-0.13;11.76470566;5.88235283;37.64706039;59.2156868;2082.5;164;16.400000000000002;0.02474620131741461;-0.06373820216828308;0.11807645902845935;9.750699943526596;-0.7510345045626695;-0.9786294057647708;32.87206132508595;3;1;0;0;0;0;0;0;0;0;0;0;0;0;0;0;0;0
165;2022-04-10 13:00:40.417;5.1745641901023305;52.36924030165685;36;0.2;0.12;11.78940868;1.12052059;-0.98883551;-0.13;11.76470566;5.88235283;37.64706039;59.2156868;2082.5;165;16.5;0.04067836697734346;-0.04703472699680043;0.11916041744442273;9.936037126320945;-0.5808931094408347;-0.979557233547338;33.15641942469604;3;1;0;0;0;0;0;0;0;0;0;0;0;0;0;0;0;0
