;device_time;lon;lat;raw_speed_kph;raw_g_x;raw_g_y;raw_roll;raw_yaw;raw_pitch;raw_g_z;apps_d;apps_e;engine_load;engine_load_abs;engine_rpm;num_samples;cumulative_time;g_x;g_y;g_z;roll;yaw;pitch;speed_kph;sample_nr;roundabout_1;roundabout_2;roundabout_3;roundabout_4;turning_right_1;turning_right_2;turning_right_3;turning_left_1;turning_left_2;road_50km_1;road_50km_2;road_100km;entering_highway;exiting_highway;speed_bumps;road_50km_3;road_50km_4
0;2022-04-10 12:15:05.579;5.173806073520141;52.36980503994396;0;0.0;-0.04;10.25467873;0.54589468;-0.85715038;-0.04;0.0;0.0;23.92156792;30.58823586;995.0;0;0.0;0.0;-0.04;0.04;10.25467873;0.54589468;-0.85715038;0.0;4;0;0;0;0;0;0;0;0;0;0;0;0;0;0;0;0;0
1;2022-04-10 12:15:05.679;5.173806073520141;52.36980503994396;0;0.0;-0.02;9.89074898;0.0670397;-1.04390383;-0.04;0.0;0.0;23.92156792;30.58823586;995.0;1;0.1;0.0;-0.029523809523809525;0.04;10.064048860952381;0.2950658809523809;-0.9549736157142857;0.0;4;0;0;0;0;0;0;0;0;0;0;0;0;0;0;0;0;0
2;2022-04-10 12:15:05.779;5.173806073520141;52.36980503994396;0;-0.02;-0.04;9.70160198;0.29928434;-0.23463893;0.0;0.0;0.0;23.92156792;30.58823586;995.0;2;0.2;-0.007311178247734139;-0.033353474320241695;0.02537764350453172;9.931553173353475;0.2966079762537764;-0.6916488514501511;0.0;4;0;0;0;0;0;0;0;0;0;0;0;0;0;0;0;0;0
3;2022-04-10 12:15:05.879;5.173806073520141;52.36980503994396;0;0.0;-0.02;9.7470932;0.09816527;-0.8834874;-0.02;0.0;0.0;24.31372643;30.58823586;995.0;3;0.30000000000000004;-0.005214393449687568;-0.029523809523809525;0.02383538030596854;9.87865159513036;0.23969626713423828;-0.7466665433527258;0.0;4;0;0;0;0;0;0;0;0;0;0;0;0;0;0;0;0;0
4;2022-04-10 12:15:05.978;5.173806073520141;52.36980503994396;0;-0.03;-0.04;10.22594738;0.29689008;-0.43096948;0.02;0.0;0.0;24.31372643;30.58823586;995.0;4;0.4;-0.01115837578418044;-0.032036166483759475;0.013322959492882994;9.961938643438764;0.253412252362451;-0.6709573706193181;0.0;4;0;0;0;0;0;0;0;0;0;0;0;0;0;0;0;0;0
5;2022-04-10 12:15:06.078;5.173806873574886;52.36980433809731;0;0.03;-0.02;9.42386532;-0.0191542;-0.44533512;-0.02;0.0;0.0;24.31372643;30.58823586;995.0;5;0.5;-0.002567224108009606;-0.029523809523809518;0.014716684746896221;9.849624455949845;0.19651837136091632;-0.6238623397863808;0.0;4;0;0;0;0;0;0;0;0;0;0;0;0;0;0;0;0;0
6;2022-04-10 12:15:06.181;5.173806873574886;52.36980433809731;0;0.0;-0.02;10.05356026;0.36632404;-0.51716334;-0.02;0.0;0.0;24.31372643;30.58823586;995.0;6;0.6000000000000001;-0.0020878405164194884;-0.027745406928999166;0.01570325021020491;9.887705852075085;0.22822656974164793;-0.6039381930875851;0.0;4;0;0;0;0;0;0;0;0;0;0;0;0;0;0;0;0;0
7;2022-04-10 12:15:06.280;5.173806873574886;52.36980433809731;0;0.01;-0.02;9.85962391;0.16281068;-0.74940801;-0.01;0.0;0.0;24.31372643;30.58823586;995.0;7;0.7000000000000001;-2.8028343509237087e-05;-0.026425561299432434;0.014731395544172902;9.88292058658067;0.21707946320855198;-0.6287267811947992;0.0;4;0;0;0;0;0;0;0;0;0;0;0;0;0;0;0;0;0
8;2022-04-10 12:15:06.380;5.173806873574886;52.36980433809731;0;0.01;-0.02;9.65132141;0.19154198;0.0095771;-0.03;0.39215659999999986;0.0;24.31372643;30.98039246;995.0;8;0.8;0.0015549464268723443;-0.025411254092260898;0.017141621642920848;9.846361490334633;0.21304824288952018;-0.5279672993548804;0.0;4;0;0;0;0;0;0;0;0;0;0;0;0;0;0;0;0;0
9;2022-04-10 12:15:06.481;5.173806873574886;52.36980433809731;0;-0.01;-0.03;9.90032673;0.17238778;-0.73025382;0.03;0.39215659999999986;0.0;24.31372643;30.98039246;995.0;9;0.9;-0.00015461204502547948;-0.026090160696597725;0.010167001797758021;9.854345666915787;0.20703251280855592;-0.5578956627019708;0.0;4;0;0;0;0;0;0;0;0;0;0;0;0;0;0;0;0;0
10;2022-04-10 12:15:06.582;5.173806873574886;52.36980433809731;1;0.02;-0.02;10.31932449;0.32322711;-0.25379312;0.0;0.39215659999999986;0.0;25.09803963;30.98039246;1001.0;10;1.0;0.0026663583156465815;-0.025237742263613173;0.008743962214346448;9.919427121985743;0.22329586305390065;-0.5153314963637254;0.1399664927496497;4;0;0;0;0;0;0;0;0;0;0;0;0;0;0;0;0;0
11;2022-04-10 12:15:06.681;5.173806873574886;52.36980433809731;1;-0.03;-0.04;9.31372929;-0.00478855;-0.70870537;0.0;0.39215659999999986;0.0;25.09803963;30.98039246;1001.0;11;1.1;-0.001692026264951718;-0.027207340339755894;0.00757733232190178;9.838614193102757;0.19286456797890636;-0.5411316697715833;0.2547131914963664;4;0;0;0;0;0;0;0;0;0;0;0;0;0;0;0;0;0
12;2022-04-10 12:15:06.779;5.173806873574886;52.36980433809731;1;-0.01;-0.03;10.19482231;0.35914123;-0.53152901;0.0;0.39215659999999986;0.0;25.09803963;30.98039246;1001.0;12;1.2000000000000002;-0.002755284699422279;-0.027564746252804674;0.006607581723382147;9.884201877512508;0.21414473435734654;-0.5399027168016896;0.3500953521185351;4;0;0;0;0;0;0;0;0;0;0;0;0;0;0;0;0;0
13;2022-04-10 12:15:06.878;5.173806873574886;52.36980433809731;1;0.03;-0.02;9.76864147;-0.0383084;-0.39505535;0.0;4.705881120000001;0.0;25.09803963;33.72549057;1001.0;13;1.3;0.0012869027449330262;-0.02663121376778981;0.005792168756439503;9.869941069444495;0.18299058932848628;-0.5220277322669332;0.430297262491213;4;0;0;0;0;0;0;0;0;0;0;0;0;0;0;0;0;0
14;2022-04-10 12:15:06.978;5.173806860003896;52.369804065913065;1;0.08;0.0;9.2035923;0.10295381;-1.37910223;0.0;4.705881120000001;0.0;29.01960754;33.72549057;1115.5;14;1.4000000000000001;0.01069481927823003;-0.023448208079474977;0.005099879390277562;9.790297988132567;0.17342446417556148;-0.6244666607131276;0.49838905394880884;4;0;0;0;0;0;0;0;0;0;0;0;0;0;0;0;0;0
15;2022-04-10 12:15:07.080;5.173806860003896;52.369804065913065;1;-0.05;-0.05;9.16049576;-0.12689656;-0.76616794;-0.01;4.705881120000001;0.0;29.01960754;33.72549057;1115.5;15;1.5;0.0036422677379218133;-0.026533444731200336;0.005669258351525897;9.717116904031391;0.13852808377895667;-0.6409319140474715;0.5566747048870211;4;0;0;0;0;0;0;0;0;0;0;0;0;0;0;0;0;0
16;2022-04-10 12:15:07.181;5.173806860003896;52.369804065913065;1;-0.02;-0.02;9.9170866;0.06225114;-0.21787901;-0.11;5.882352830000002;3.1372547200000014;29.01960754;33.72549057;1115.5;16;1.6;0.0009628651537155588;-0.025793002702093795;0.017493168895297145;9.739779675897466;0.12988353907866657;-0.592986892151683;0.6069172177684917;4;0;0;0;0;0;0;0;0;0;0;0;0;0;0;0;0;0
17;2022-04-10 12:15:07.283;5.173806860003896;52.369804065913065;1;0.0;-0.04;9.70639038;0.07901107;-0.65363705;0.01;5.882352830000002;3.1372547200000014;29.01960754;37.25490189;1253.0;17;1.7000000000000002;0.0008561357335677357;-0.027367786645407163;0.014445670538026586;9.736078617471446;0.1242445468425241;-0.5997096987191923;0.6504887368496105;4;0;0;0;0;0;0;0;0;0;0;0;0;0;0;0;0;0
18;2022-04-10 12:15:07.382;5.173806860003896;52.369804065913065;2;0.07;0.01;9.73751545;0.21069619;-1.28811979;-0.06;5.882352830000002;3.1372547200000014;26.27450943;37.25490189;1253.0;18;1.8;0.008370619761471472;-0.023306694039662415;0.019396468194125348;9.736234770952324;0.1336400224727207;-0.6745253991498779;0.7971522324469047;4;0;0;0;0;0;0;0;0;0;0;0;0;0;0;0;0;0
19;2022-04-10 12:15:07.482;5.173806860003896;52.369804065913065;2;0.07;0.0;10.38636398;0.409421;-1.59458697;-0.09;5.882352830000002;3.1372547200000014;26.27450943;37.25490189;1253.0;19;1.9000000000000001;0.014951496014000663;-0.02081797082458307;0.026935617606429478;9.805656528178153;0.16308832259977535;-0.7727709326768728;0.9255940937517056;4;0;0;0;0;0;0;0;0;0;0;0;0;0;0;0;0;0
20;2022-04-10 12:15:07.584;5.173806860003896;52.369804065913065;2;0.0;-0.05;9.49808788;-0.08858817;-1.75260913;-0.12;9.80392075;4.705882070000001;26.27450943;53.72549057;1253.0;20;2.0;0.013379898192781665;-0.023885383839835104;0.03671790163110959;9.77332703975108;0.13663383088526962;-0.8757647451099695;1.0385282094939359;4;0;0;0;0;0;0;0;0;0;0;0;0;0;0;0;0;0
21;2022-04-10 12:15:07.679;5.173806860003896;52.369804065913065;2;0.0;-0.03;10.30256462;0.45730647;-1.64007819;-0.13;9.80392075;4.705882070000001;26.27450943;53.72549057;1717.25;21;2.1;0.011993192614837047;-0.02451910856734203;0.04638574844628975;9.828177733980205;0.16986865307506166;-0.9549789291086839;1.138176074950076;4;0;0;0;0;0;0;0;0;0;0;0;0;0;0;0;0;0
22;2022-04-10 12:15:07.782;5.173806860003896;52.369804065913065;3;0.0;-0.04;9.84286404;0.36392978;-1.98485386;-0.09;9.80392075;4.705882070000001;27.45098114;53.72549057;1717.25;22;2.2;0.010765833131020678;-0.026103392212907615;0.05084914422363895;9.829680701334645;0.18972848291526234;-1.0603742816364528;1.3287114332148353;4;0;0;0;0;0;0;0;0;0;0;0;0;0;0;0;0;0
23;2022-04-10 12:15:07.880;5.173806860003896;52.369804065913065;3;0.02;-0.03;9.90750885;0.09098244;-2.12611604;-0.15000001;9.80392075;4.705882070000001;27.45098114;53.72549057;1717.25;23;2.3000000000000003;0.01170016104675007;-0.02649765728129828;0.06088138893808081;9.837555479098501;0.17973719883164038;-1.168207753775954;1.4978151093063357;4;0;0;0;0;0;0;0;0;0;0;0;0;0;0;0;0;0
24;2022-04-10 12:15:07.979;5.173807768739057;52.36979957312534;3;0.02;-0.05;10.36002731;-0.15562786;-1.65444386;-0.11;9.80392075;4.705882070000001;27.45098114;53.72549057;1717.25;24;2.4000000000000004;0.012531413098538419;-0.028851482544269683;0.06580075501930177;9.889882492174873;0.14614945154857242;-1.2169056578231225;1.6482631215615158;4;0;0;0;0;0;0;0;0;0;0;0;0;0;0;0;0;0
25;2022-04-10 12:15:08.078;5.173807768739057;52.36979957312534;3;0.03;-0.02;9.64174461;-0.05506832;-1.71669507;-0.1;9.80392075;4.705882070000001;27.45098114;49.41176605;1717.25;25;2.5;0.014264916872450293;-0.027973101340239795;0.06919453383915679;9.865258407947165;0.12618150747128687;-1.2665025048409728;1.7824033925134217;4;0;0;0;0;0;0;0;0;0;0;0;0;0;0;0;0;0
26;2022-04-10 12:15:08.179;5.173807768739057;52.36979957312534;6;-0.01;-0.08;9.37119198;-0.88109314;-1.73584926;-0.15000001;9.80392075;4.705882070000001;27.45098114;49.41176605;1722.25;26;2.6;0.011876859880960367;-0.03309338259828278;0.07714708868659023;9.816634347385916;0.027049527053277882;-1.3126937531350555;2.1974825423302433;4;0;0;0;0;0;0;0;0;0;0;0;0;0;0;0;0;0
27;2022-04-10 12:15:08.278;5.173807768739057;52.36979957312534;6;0.0;-0.1;9.40710545;-0.65363705;-1.4772675;-0.11;9.80392075;4.705882070000001;27.45098114;49.41176605;1722.25;27;2.7;0.010716695674272329;-0.03962900425906192;0.08035625105554399;9.776630442893179;-0.03944180235410048;-1.3287697675350676;2.5689228635861117;4;0;0;0;0;0;0;0;0;0;0;0;0;0;0;0;0;0
28;2022-04-10 12:15:08.382;5.173807768739057;52.36979957312534;6;0.0;-0.08;9.96736622;-0.43096948;-1.4341706;-0.1;9.41176415;4.705882070000001;27.45098114;49.80392075;1722.25;28;2.8000000000000003;0.009676902677349903;-0.043546021213363255;0.08226219606010199;9.79513668132023;-0.07742997983821572;-1.3389963383734964;2.9018249153732687;4;0;0;0;0;0;0;0;0;0;0;0;0;0;0;0;0;0
29;2022-04-10 12:15:08.477;5.173807768739057;52.36979957312534;6;-0.01;-0.11;9.53639698;-0.73743665;-1.19713736;-0.05;9.41176415;4.705882070000001;27.45098114;49.80392075;1737.5;29;2.9000000000000004;0.0077793471828467055;-0.04995455586162044;0.07915096923734316;9.770184942220993;-0.14107817203138498;-1.3253160712973626;3.2005995371298543;4;0;0;0;0;0;0;0;0;0;0;0;0;0;0;0;0;0
30;2022-04-10 12:15:08.577;5.173807768739057;52.36979957312534;8;-0.03;-0.14;9.62498474;-1.25938857;-0.88109314;-0.14;9.41176415;4.705882070000001;27.05882263;49.80392075;1737.5;30;3.0;0.004156094368943189;-0.05859042262963354;0.08498673502935242;9.756259422578466;-0.2483304566366911;-1.2827125827290258;3.660889153781557;4;0;0;0;0;0;0;0;0;0;0;0;0;0;0;0;0;0
31;2022-04-10 12:15:08.679;5.173807768739057;52.36979957312534;8;0.07;-0.12;10.39594078;-0.84039044;-0.81644773;-0.09;9.41176415;4.705882070000001;27.05882263;49.80392075;1737.5;31;3.1;0.010439501468179358;-0.06445066695614951;0.08546514505690189;9.817303468249046;-0.30483005013717085;-1.238217471789252;4.074965439721705;4;0;0;0;0;0;0;0;0;0;0;0;0;0;0;0;0;0
32;2022-04-10 12:15:08.779;5.173807768739057;52.36979957312534;8;0.02;-0.18000001;10.2474966;-1.22108018;-1.07024086;-0.04;9.41176415;4.705882070000001;27.05882263;49.80392075;1737.5;32;3.2;0.011347743668712744;-0.07542779218105641;0.0811459808149315;9.85817158358167;-0.3918733179558775;-1.2222597843295626;4.447841604529595;4;0;0;0;0;0;0;0;0;0;0;0;0;0;0;0;0;0
33;2022-04-10 12:15:08.878;5.173807768739057;52.36979957312534;8;0.1;-0.2;10.69043732;-1.63289547;-0.46209505;0.01;9.41176415;4.705882070000001;27.05882263;49.80392075;1737.5;33;3.3000000000000003;0.019735351757589913;-0.08721387525656078;0.07252243531717122;9.936914292586067;-0.5092894771347545;-1.1503387285279454;4.78392004994989;4;0;0;0;0;0;0;0;0;0;0;0;0;0;0;0;0;0
34;2022-04-10 12:15:08.977;5.17380928898023;52.3697932819214;8;0.06;-0.23;10.94423008;-1.58022141;-0.72785956;0.03;9.41176415;4.705882070000001;27.05882263;49.80392075;1737.5;34;3.4000000000000004;0.023530833123964364;-0.10067337632006997;0.06285832523879735;10.03186727164022;-0.6102391283368265;-1.110514419069798;5.087078578734172;4;0;0;0;0;0;0;0;0;0;0;0;0;0;0;0;0;0
35;2022-04-10 12:15:09.079;5.17380928898023;52.3697932819214;8;-0.02;-0.25;9.55076218;-2.81327295;-1.4341706;-0.04;8.62745095;4.705882070000001;27.05882263;49.80392075;1737.5;35;3.5;0.01944118797342181;-0.11470234977528564;0.060710825817039016;9.986668295105021;-0.8172102781788013;-1.1409213475798714;5.360742419039427;4;0;0;0;0;0;0;0;0;0;0;0;0;0;0;0;0;0
36;2022-04-10 12:15:09.180;5.17380928898023;52.3697932819214;8;0.03;-0.09;8.98092461;-0.42618093;-1.08460653;-0.11;8.62745095;3.9215688699999998;27.05882263;43.13725662;1737.5;36;3.6;0.02043016413223555;-0.11238863920510585;0.06532742643762637;9.89246673872324;-0.7805850686597873;-1.135646700031052;5.607944738577671;4;0;0;0;0;0;0;0;0;0;0;0;0;0;0;0;0;0
37;2022-04-10 12:15:09.281;5.17380928898023;52.3697932819214;8;0.01;-0.30000001;9.88356686;-2.63370228;-1.02714384;-0.04;8.62745095;3.9215688699999998;27.05882263;43.13725662;1737.5;37;3.7;0.0194559211399515;-0.12991272233097267;0.06296168536139668;9.891635434021955;-0.9536778823624424;-1.125511849832355;5.83137775900296;4;0;0;0;0;0;0;0;0;0;0;0;0;0;0;0;0;0
38;2022-04-10 12:15:09.378;5.17380928898023;52.3697932819214;8;0.07;-0.23999999;10.2570734;-2.37990928;-0.09816527;0.04;8.62745095;3.9215688699999998;27.05882263;43.13725662;1902.5;38;3.8000000000000003;0.024165296029771386;-0.1401699517778662;0.053368372225804754;9.925684612868979;-1.0865650272583816;-1.029790248107231;6.033436147593535;4;0;0;0;0;0;0;0;0;0;0;0;0;0;0;0;0;0
39;2022-04-10 12:15:09.479;5.17380928898023;52.3697932819214;11;-0.01;-0.25999999;9.99849129;-1.0582695;-0.00239427;0.09;8.62745095;3.9215688699999998;27.05882263;43.13725662;1902.5;39;3.9000000000000004;0.020989184061318653;-0.15130972408499976;0.04004040332639371;9.932452947567956;-1.083934587214756;-0.9342803289318456;6.495143339592317;4;0;0;0;0;0;0;0;0;0;0;0;0;0;0;0;0;0
40;2022-04-10 12:15:09.580;5.17380928898023;52.3697932819214;11;0.0;-0.18000001;9.64653301;-1.13488626;-0.52913475;0.04;8.62745095;3.9215688699999998;22.74509811;43.13725662;1902.5;40;4.0;0.01904196397584883;-0.1539713950117185;0.03261485116815191;9.905927426440403;-1.088661503723081;-0.8966939412699604;6.9130703702802;4;0;0;0;0;0;0;0;0;0;0;0;0;0;0;0;0;0
41;2022-04-10 12:15:09.681;5.17380928898023;52.3697932819214;11;0.01;-0.17;9.84046936;-1.34797668;-0.35674694;0.02;8.62745095;3.9215688699999998;22.74509811;43.13725662;1902.5;41;4.1000000000000005;0.018204678185161687;-0.15545564370338233;0.027742716377537804;9.899866010019945;-1.1126740869390868;-0.8466948533400586;7.291520020781204;4;0;0;0;0;0;0;0;0;0;0;0;0;0;0;0;0;0
42;2022-04-10 12:15:09.779;5.17380928898023;52.3697932819214;11;0.1;-0.15000001;10.27622795;-1.46290195;-0.61772293;-0.03;8.23529435;3.9215688699999998;22.74509811;41.17647171;1902.5;42;4.2;0.025766138639756166;-0.15495130485382977;0.027951387979621475;9.934658292300048;-1.1450504390075715;-0.8255278464118675;7.634345552698499;4;0;0;0;0;0;0;0;0;0;0;0;0;0;0;0;0;0
43;2022-04-10 12:15:09.878;5.17380928898023;52.3697932819214;11;0.09;-0.17;9.64413929;-2.01358509;-0.18196489;0.0;8.23529435;3.9215688699999998;22.74509811;41.17647171;1902.5;43;4.3;0.031695054642869036;-0.15634033001265848;0.025371418038655665;9.907842797707795;-1.225217953189028;-0.7661256770501085;7.9450023011950845;4;0;0;0;0;0;0;0;0;0;0;0;0;0;0;0;0;0
44;2022-04-10 12:15:09.981;5.17380928898023;52.3697932819214;12;-0.06;-0.19;9.40950012;0.28731298;0.02633702;0.04;8.23529435;3.9215688699999998;22.35294151;41.17647171;1976.5;44;4.4;0.023243187628887024;-0.15944286433771607;0.019345896445042542;9.86190873882335;-1.0858024705151001;-0.6930815052014153;8.318766201830565;4;0;0;0;0;0;0;0;0;0;0;0;0;0;0;0;0;0
45;2022-04-10 12:15:10.077;5.173808021737987;52.36978834241025;12;-0.02;-0.14;9.43344307;-1.07742369;-1.29530263;-0.06;8.23529435;3.9215688699999998;22.35294151;41.17647171;1976.5;45;4.5;0.019262339573077637;-0.15765300810966923;0.023088400593587695;9.822465376336883;-1.085031143192752;-0.7485203136073971;8.657650387108184;4;0;0;0;0;0;0;0;0;0;0;0;0;0;0;0;0;0
46;2022-04-10 12:15:10.177;5.173808021737987;52.36978834241025;12;0.05;-0.12;9.68963051;-1.3934679;-1.91781414;0.0;8.23529435;3.9215688699999998;22.35294151;41.17647171;1976.5;46;4.6000000000000005;0.022088718363858013;-0.15419075164472898;0.020965383914881702;9.810250990346663;-1.1133924138824864;-0.8560388177877553;8.964984970353703;4;0;0;0;0;0;0;0;0;0;0;0;0;0;0;0;0;0
47;2022-04-10 12:15:10.279;5.173808021737987;52.36978834241025;12;0.0;-0.16;9.83328629;-1.30009127;-0.99841261;-0.02;8.23529435;3.9215688699999998;22.35294151;42.74509811;1976.5;47;4.7;0.020059739465495965;-0.15472436532633918;0.020876707715572734;9.812366918312431;-1.130541803592239;-0.8691166892749073;9.243768979001294;4;0;0;0;0;0;0;0;0;0;0;0;0;0;0;0;0;0
48;2022-04-10 12:15:10.377;5.173808021737987;52.36978834241025;12;0.01;-0.14;10.33608437;0.95531565;-1.65204966;0.0;8.23529435;3.9215688699999998;24.31372643;42.74509811;1717.0;48;4.800000000000001;0.019136567196561417;-0.15337312498919517;0.018960873046516672;9.860427947110773;-0.9391247430698025;-0.9409656680170534;9.496705553958378;4;0;0;0;0;0;0;0;0;0;0;0;0;0;0;0;0;0
49;2022-04-10 12:15:10.479;5.173808021737987;52.36978834241025;12;0.0;0.07;9.70160198;1.08460653;-1.26178277;-0.06;8.23529435;3.9215688699999998;24.31372643;42.74509811;1717.0;49;4.9;0.017381932322449365;-0.13289200781600338;0.022723757090245933;9.845865169056347;-0.7535685024396906;-0.9703814388587533;9.726233017796558;4;0;0;0;0;0;0;0;0;0;0;0;0;0;0;0;0;0
50;2022-04-10 12:15:10.581;5.173808021737987;52.36978834241025;12;0.01;0.01;8.88994217;0.9864412;-0.9337672;-0.03;8.23529435;3.9215688699999998;24.31372643;42.74509811;1717.0;50;5.0;0.016705610033041433;-0.11980044240428613;0.023390396263846522;9.758284844152342;-0.5941512531149828;-0.9670268936301857;9.934552360728944;4;0;0;0;0;0;0;0;0;0;0;0;0;0;0;0;0;0
51;2022-04-10 12:15:10.681;5.173808021737987;52.36978834241025;12;0.11;-0.07;9.72793865;-0.74701375;0.02633702;0.05;8.23529435;3.9215688699999998;24.31372643;42.74509811;1717.0;51;5.1000000000000005;0.025247051024322842;-0.11524103062950988;0.01667123834624381;9.755506539618125;-0.6081463711213896;-0.8760808115115762;10.12365161029436;4;0;0;0;0;0;0;0;0;0;0;0;0;0;0;0;0;0
52;2022-04-10 12:15:10.782;5.173808021737987;52.36978834241025;12;0.0;-0.08;10.28101635;0.73025382;-0.55307746;0.02;8.23529435;3.9215688699999998;24.31372643;42.74509811;1717.0;52;5.2;0.022937080493621885;-0.11201666426104682;0.013316015598742506;9.803587884817883;-0.485689891083525;-0.8465277273675879;10.295327481720792;4;0;0;0;0;0;0;0;0;0;0;0;0;0;0;0;0;0
53;2022-04-10 12:15:10.878;5.173808021737987;52.36978834241025;12;0.0;0.01;9.69920731;0.56983739;-1.83640873;-0.12;8.23529435;3.9215688699999998;24.31372643;42.74509811;1717.0;53;5.300000000000001;0.020839688131013327;-0.10085932364817961;0.02307131877074246;9.794043208001293;-0.38917129280397644;-0.9370435563280278;10.451204648458804;4;0;0;0;0;0;0;0;0;0;0;0;0;0;0;0;0;0
54;2022-04-10 12:15:10.977;5.173815231263029;52.36977965827765;12;-0.01;0.23999999;8.77262306;1.15882897;1.21629155;-0.15000001;8.23529435;3.9215688699999998;24.31372643;42.74509811;1717.0;54;5.4;0.0180211720004385;-0.06970733956543747;0.034671648908408445;9.700693069342119;-0.24769568214566215;-0.7402448822968458;10.59275292426281;4;0;0;0;0;0;0;0;0;0;0;0;0;0;0;0;0;0
55;2022-04-10 12:15:11.079;5.173815231263029;52.36977965827765;12;-0.03;-0.09;11.48773098;1.85795724;0.19154198;0.07;8.23529435;4.313725470000001;24.31372643;43.92156982;1717.0;55;5.5;0.013634517681675302;-0.07156104039834625;0.02511006759731628;9.863936014943475;-0.055347784333791325;-0.6551276997419523;10.721302607771014;4;0;0;0;0;0;0;0;0;0;0;0;0;0;0;0;0;0
56;2022-04-10 12:15:11.178;5.173815231263029;52.36977965827765;14;-0.02;0.0;8.43981838;1.21629155;-0.37829542;0.11;8.23529435;4.313725470000001;27.05882263;43.92156982;1748.5;56;5.6000000000000005;0.010563409324339336;-0.06502692829045201;0.012773406144774893;9.733902350958834;0.060763355541936806;-0.6298506336058419;11.020674671249004;4;0;0;0;0;0;0;0;0;0;0;0;0;0;0;0;0;0
57;2022-04-10 12:15:11.280;5.173815231263029;52.36977965827765;14;-0.03;0.23;9.38555717;2.64806795;-1.21389735;-0.06;8.23529435;4.313725470000001;27.05882263;43.92156982;1748.5;57;5.7;0.006861113858333903;-0.03809928889442496;0.017083862470253588;9.702108258560024;0.29691130831003487;-0.6831576298879319;11.292603062873903;4;0;0;0;0;0;0;0;0;0;0;0;0;0;0;0;0;0
58;2022-04-10 12:15:11.378;5.173815231263029;52.36977965827765;14;-0.01;0.05;9.62737942;0.8092649;-0.7685622;-0.08;8.62745095;4.313725470000001;27.05882263;43.92156982;1748.5;58;5.800000000000001;0.005322727601868203;-0.030061223534193958;0.022824249617798286;9.695290095823665;0.3436577884375681;-0.6909498325860252;11.539622463482095;4;0;0;0;0;0;0;0;0;0;0;0;0;0;0;0;0;0
59;2022-04-10 12:15:11.481;5.173815231263029;52.36977965827765;14;0.01;0.05;11.00887585;1.44853628;-0.34477556;0.0;8.62745095;4.313725470000001;27.05882263;47.45098114;1748.5;59;5.9;0.00574933527843053;-0.022758947838576633;0.02074248074271274;9.815100472225597;0.4444322582669082;-0.6593757463359781;11.764030164162364;4;0;0;0;0;0;0;0;0;0;0;0;0;0;0;0;0;0
60;2022-04-10 12:15:11.577;5.173815231263029;52.36977965827765;16;0.16;0.11;8.26264191;3.79013705;-1.17798316;-0.03;8.62745095;4.313725470000001;27.05882263;47.45098114;1867.5;60;6.0;0.019814116200389045;-0.010653810268182767;0.021586593670651067;9.673545234149087;0.7494980744188996;-0.706663060597179;12.150271532007501;4;0;0;0;0;0;0;0;0;0;0;0;0;0;0;0;0;0
61;2022-04-10 12:15:11.682;5.173815231263029;52.36977965827765;16;0.1;0.16;10.67128277;2.00161386;-1.23065722;-0.06;8.62745095;4.313725470000001;25.09803963;47.45098114;1867.5;61;6.1000000000000005;0.02712358188541382;0.004902396274246873;0.025088225904461428;9.764495510374623;0.8636365852726928;-0.7544285418242737;12.501199361197191;4;0;0;0;0;0;0;0;0;0;0;0;0;0;0;0;0;0
62;2022-04-10 12:15:11.780;5.173815231263029;52.36977965827765;16;0.0;0.15000001;10.19482231;0.69194543;0.79250497;-0.06;8.62745095;4.313725470000001;25.09803963;47.45098114;1867.5;62;6.2;0.024651702299539786;0.018125717251650776;0.028269874333418217;9.803712898245527;0.8479896893875322;-0.613450355951294;12.820058939207081;4;0;0;0;0;0;0;0;0;0;0;0;0;0;0;0;0;0
63;2022-04-10 12:15:11.878;5.173815231263029;52.36977965827765;16;0.06;0.08;10.771842;2.09977889;-0.81884199;0.04;9.01960755;4.313725470000001;25.09803963;47.45098114;1867.5;63;6.300000000000001;0.02787240859959982;0.023763298273175037;0.022049568726817983;9.891922506632172;0.9620445555913776;-0.6321643018212159;13.10979442505997;4;0;0;0;0;0;0;0;0;0;0;0;0;0;0;0;0;0
64;2022-04-10 12:15:11.977;5.173815231263029;52.36977965827765;16;0.11;0.23;9.42386532;1.55149007;-0.62969428;-0.05;9.01960755;4.313725470000001;25.09803963;48.23529434;1867.5;64;6.4;0.035353809895383205;0.04255040137978876;0.02459570930124946;9.849284903570144;1.015740011163558;-0.6319392955335753;13.373077292178502;4;0;0;0;0;0;0;0;0;0;0;0;0;0;0;0;0;0
65;2022-04-10 12:15:12.078;5.173830037718105;52.36977465443984;17;0.0;0.12;9.72793865;1.64247251;-1.11094356;-0.04;9.01960755;4.313725470000001;25.88235283;48.23529434;1970.25;65;6.5;0.03213385775680154;0.04960435119304516;0.025998700348764614;9.838232936898143;1.0728215154178014;-0.6755660166796834;13.703409937063977;4;0;0;0;0;0;0;0;0;0;0;0;0;0;0;0;0;0
66;2022-04-10 12:15:12.180;5.173830037718105;52.36977465443984;17;0.0;0.17;10.43903828;2.59060526;-0.88588166;0.02;9.01960755;4.313725470000001;25.88235283;48.23529434;1970.25;66;6.6000000000000005;0.02920766630408849;0.06056788757106327;0.021809940791317033;9.892943811422908;1.2110347935768226;-0.694717898240667;14.003605878001705;4;0;0;0;0;0;0;0;0;0;0;0;0;0;0;0;0;0
67;2022-04-10 12:15:12.279;5.173830037718105;52.36977465443984;17;0.05;0.13;9.56512833;3.2633965;-0.61532861;-0.1;9.41176415;4.313725470000001;25.88235283;48.23529434;1970.25;67;6.7;0.031100778964937095;0.06688958349183094;0.028929035415580708;9.863096674137596;1.3978994326257124;-0.6874896155042409;14.276423337177185;4;0;0;0;0;0;0;0;0;0;0;0;0;0;0;0;0;0
68;2022-04-10 12:15:12.379;5.173830037718105;52.36977465443984;17;-0.03;0.27000001;9.72315025;1.35994804;-0.62011719;0.03;9.41176415;4.313725470000001;25.88235283;47.45098114;1970.25;68;6.800000000000001;0.02553841515025842;0.08537992201012247;0.023564378208548287;9.850356526813725;1.3944444938076808;-0.6813563067628421;14.524366563637237;4;0;0;0;0;0;0;0;0;0;0;0;0;0;0;0;0;0
69;2022-04-10 12:15:12.480;5.173830037718105;52.36977465443984;18;-0.03;0.2;9.39513397;2.38709188;-0.87151605;-0.02;9.41176415;4.313725470000001;25.49019623;47.45098114;2029.75;69;6.9;0.02048306709329845;0.0958131399366162;0.02323993300423152;9.808920190147537;1.4847995754472472;-0.6986654735059896;14.840733832881142;4;0;0;0;0;0;0;0;0;0;0;0;0;0;0;0;0;0
70;2022-04-10 12:15:12.581;5.173830037718105;52.36977465443984;18;0.01;0.20999999;9.74948692;2.42300606;-0.42618093;0.03;9.41176415;4.313725470000001;25.49019623;47.45098114;2029.75;70;7.0;0.019528962708418703;0.10620572574871381;0.01839436127622893;9.803510938909247;1.570189367658597;-0.6738656038249858;15.12827083672015;4;0;0;0;0;0;0;0;0;0;0;0;0;0;0;0;0;0
71;2022-04-10 12:15:12.680;5.173830037718105;52.36977465443984;18;-0.02;0.03;10.06553173;2.67440486;-0.58659732;0.04;9.01960755;4.313725470000001;25.49019623;47.45098114;2029.75;71;7.1000000000000005;0.01593165617163339;0.09927067517836498;0.013080221892408383;9.827355963923365;1.670677752287353;-0.6659238126332125;15.389610608450196;4;0;0;0;0;0;0;0;0;0;0;0;0;0;0;0;0;0
72;2022-04-10 12:15:12.778;5.173830037718105;52.36977465443984;18;-0.05;0.20999999;9.39992332;2.17879009;-0.25379312;0.0;9.01960755;4.313725470000001;25.49019623;45.88235474;2029.75;72;7.2;0.009932161711193661;0.10934656208087698;0.01188997848974698;9.788461449082819;1.7169137689809495;-0.6284217089245854;15.627144709723563;4;0;0;0;0;0;0;0;0;0;0;0;0;0;0;0;0;0
73;2022-04-10 12:15:12.881;5.173830037718105;52.36977465443984;19;0.13;0.12;11.05436707;1.6616267;-0.57462597;0.0;9.01960755;4.313725470000001;24.31372643;45.88235474;2083.25;73;7.300000000000001;0.02085686798072945;0.11031589476551483;0.010808135721501737;9.903643393478363;1.7118833212130167;-0.6235269539703894;15.934033330865294;4;0;0;0;0;0;0;0;0;0;0;0;0;0;0;0;0;0
74;2022-04-10 12:15:12.977;5.1738504235002685;52.36975832758734;19;-0.05;0.07;9.17964935;1.07502937;-0.42857519;0.01;9.01960755;4.313725470000001;24.31372643;45.88235474;2083.25;74;7.4;0.014410266027729015;0.1066479295655428;0.008914998581753859;9.83777396476021;1.6539419523285996;-0.6057901211386844;16.21297688680194;4;0;0;0;0;0;0;0;0;0;0;0;0;0;0;0;0;0
75;2022-04-10 12:15:13.078;5.1738504235002685;52.36975832758734;19;0.0;0.11;10.15172482;2.17879009;-1.27854276;0.0;9.01960755;4.313725470000001;24.31372643;45.49019623;2083.25;75;7.5;0.013099304830068189;0.10695288120647319;0.008103964476249392;9.866335365944602;1.7016895471216285;-0.666993197020421;16.46652384779183;4;1;0;0;0;0;0;0;0;0;0;0;0;0;0;0;0;0
76;2022-04-10 12:15:13.179;5.1738504235002685;52.36975832758734;19;0.03;0.07;9.65371609;0.7996878;-0.40223816;-0.02;9.01960755;4.313725470000001;24.31372643;45.49019623;2083.25;76;7.6000000000000005;0.014636730645120666;0.10359134412553259;0.009186125412654787;9.846993773168196;1.6196360719655043;-0.6429089079135125;16.696989612605716;4;1;0;0;0;0;0;0;0;0;0;0;0;0;0;0;0;0
77;2022-04-10 12:15:13.280;5.1738504235002685;52.36975832758734;20;0.03;0.0;10.60903168;0.0670397;-0.4932206;0.06;9.01960755;4.313725470000001;24.31372643;45.49019623;2112.75;77;7.7;0.016034216997570357;0.09416838301593168;0.002892760126290768;9.916310892477085;1.478407522848412;-0.6292928368417661;16.997440762146816;4;1;0;0;0;0;0;0;0;0;0;0;0;0;0;0;0;0
78;2022-04-10 12:15:13.378;5.1738504235002685;52.36975832758734;20;0.04;0.12;10.16609097;1.58979845;-0.85954463;-0.02;9.01960755;4.313725470000001;24.31372643;45.49019623;2112.75;78;7.800000000000001;0.01821409514748016;0.09651797357321498;0.004448799351138288;9.939030372713546;1.4885394116405004;-0.6502360646441835;17.270547352310903;4;1;0;0;0;0;0;0;0;0;0;0;0;0;0;0;0;0
79;2022-04-10 12:15:13.477;5.1738504235002685;52.36975832758734;20;-0.13;-0.05;10.4222784;0.39266106;0.09098244;0.08;5.490196230000002;4.313725470000001;24.31372643;45.49019623;2112.75;79;7.9;0.004733505464575705;0.0831916520722418;-0.003232113939421835;9.98298346883736;1.3888654475270108;-0.582819652483507;17.51880060491688;4;1;0;0;0;0;0;0;0;0;0;0;0;0;0;0;0;0
80;2022-04-10 12:15:13.579;5.1738504235002685;52.36975832758734;20;0.0;-0.03;10.14214802;0.16520496;0.33040991;0.05;5.490196230000002;2.3529405600000004;24.31372643;28.62745094;2112.75;80;8.0;0.00430299572346526;0.07289693303279682;-0.007485627676946808;9.997459397982851;1.27757419337409;-0.49976192170418476;17.744464337052523;4;1;0;0;0;0;0;0;0;0;0;0;0;0;0;0;0;0
81;2022-04-10 12:15:13.678;5.1738504235002685;52.36975832758734;20;0.07;-0.01;10.15890789;0.37350687;-0.2466103;0.05;5.490196230000002;2.3529405600000004;24.31372643;28.62745094;1762.25;81;8.1;0.010277861273247226;0.0653578064803073;-0.011352130592275977;10.012142457638921;1.1953530820069043;-0.476738849038267;17.94959579589536;4;1;0;0;0;0;0;0;0;0;0;0;0;0;0;0;0;0
82;2022-04-10 12:15:13.782;5.1738504235002685;52.36975832758734;20;0.01;-0.04;9.83807564;-0.08379962;-0.67997402;0.0;5.490196230000002;2.3529405600000004;14.11764717;28.62745094;1762.25;82;8.200000000000001;0.010252591889161076;0.05577630975961719;-0.010319740058755628;9.996312395319809;1.0790238053354895;-0.4952215527804213;18.136064571338114;4;1;0;0;0;0;0;0;0;0;0;0;0;0;0;0;0;0
83;2022-04-10 12:15:13.878;5.1738504235002685;52.36975832758734;20;-0.02;-0.08;9.30415154;-0.50279772;0.16041641;0.04;5.490196230000002;2.3529405600000004;14.11764717;28.62745094;1762.25;83;8.3;0.007501438925295477;0.0434288917801436;-0.01301884549093882;9.9333676930754;0.9351738835278868;-0.4355982209636056;18.305569766060106;4;1;0;0;0;0;0;0;0;0;0;0;0;0;0;0;0;0
84;2022-04-10 12:15:13.984;5.173894845784623;52.36974496761551;20;0.06;-0.01;9.98651981;0.29928434;0.24900457;0.07;0.0;0.0;14.11764717;24.70588303;1762.25;84;8.4;0.012275482518615155;0.03857024702341965;-0.018200521141759945;9.938201168852274;0.8773482148011107;-0.37334273240806587;18.459655585501082;4;1;0;0;0;0;0;0;0;0;0;0;0;0;0;0;0;0
85;2022-04-10 12:15:14.081;5.173894845784623;52.36974496761551;20;0.0;-0.04;10.18763924;-0.08858817;0.25139886;0.05;0.0;0.0;14.50980377;24.70588303;1514.0;85;8.5;0.011159221956479901;0.03142552843688196;-0.021092179705248466;9.960883607696942;0.7895116112093666;-0.3165323870653742;18.599725494720783;4;1;0;0;0;0;0;0;0;0;0;0;0;0;0;0;0;0
86;2022-04-10 12:15:14.176;5.173894845784623;52.36974496761551;20;0.0;-0.04;9.78300667;-0.07901107;0.00718282;0.06;0.0;0.0;14.50980377;24.70588303;1514.0;86;8.6;0.010144493026791;0.024930671509949404;-0.02463014059519167;9.944708924971795;0.7105352189347819;-0.2870963576656071;18.727055075183834;4;1;0;0;0;0;0;0;0;0;0;0;0;0;0;0;0;0
87;2022-04-10 12:15:14.278;5.173894845784623;52.36974496761551;20;0.02;0.0;9.27542019;-0.13647367;0.35674694;0.03;0.0;0.0;14.50980377;25.88235283;1514.0;87;8.700000000000001;0.011040652299549338;0.022663730548873842;-0.02511842083405803;9.883850634512651;0.633516870513839;-0.2285518157181651;18.84280370193492;4;1;0;0;0;0;0;0;0;0;0;0;0;0;0;0;0;0
88;2022-04-10 12:15:14.380;5.173894845784623;52.36974496761551;20;-0.01;-0.04;10.11581135;0.44772938;0.24421602;0.11;0.0;0.0;14.50980377;25.88235283;1280.5;88;8.8;0.009127469624475311;0.01696584809091505;-0.03283652597553612;9.904942339078183;0.6166236010925212;-0.18556402143539893;18.94802515028162;4;1;0;0;0;0;0;0;0;0;0;0;0;0;0;0;0;0
89;2022-04-10 12:15:14.481;5.173894845784623;52.36974496761551;20;0.02;-0.05;10.32411289;-0.10774237;-0.10055954;0.08;0.0;0.0;17.25490189;25.88235283;1280.5;89;8.9;0.010116067547512025;0.010876897676382323;-0.037124921671237356;9.943055926414972;0.5507597524936176;-0.1778348865520399;19.043677230855206;4;1;0;0;0;0;0;0;0;0;0;0;0;0;0;0;0;0
90;2022-04-10 12:15:14.577;5.173894845784623;52.36974496761551;20;0.04;0.0;10.16130257;0.41899809;-0.2083019;0.04;0.0;0.0;17.25490189;25.88235283;1280.5;90;9.0;0.012833253606835132;0.00988791957646397;-0.03738633715819832;9.962899925807827;0.538779369622317;-0.18060508904602643;19.1306305426613;4;1;0;0;0;0;0;0;0;0;0;0;0;0;0;0;0;0
91;2022-04-10 12:15:14.678;5.173894845784623;52.36974496761551;20;0.06;-0.03;8.8636055;-0.58180881;0.21069619;0.09;0.0;0.0;17.25490189;27.05882263;1280.5;91;9.1;0.01712180673154721;0.006261180926483697;-0.042170141542370435;9.862948521369638;0.4368918682208821;-0.1450267112421283;19.209676425362666;4;1;0;0;0;0;0;0;0;0;0;0;0;0;0;0;0;0
92;2022-04-10 12:15:14.785;5.173894845784623;52.36974496761551;20;0.04;-0.04;9.591465;-0.45970076;0.86912173;0.15000001;0.0;0.0;17.25490189;27.05882263;1280.5;92;9.200000000000001;0.01920193663450134;0.0020550242312414014;-0.05197424325522804;9.83826471070619;0.35537191973341925;-0.05281835921413029;19.28153418446638;4;1;0;0;0;0;0;0;0;0;0;0;0;0;0;0;0;0
93;2022-04-10 12:15:14.878;5.173894845784623;52.36974496761551;20;-0.04;-0.03;9.93384647;0.28013015;1.06545234;0.08;0.0;0.0;19.2156868;27.05882263;1180.5;93;9.3;0.013819250425970587;-0.0008594435489066749;-0.05452236689593015;9.8469550787378;0.34853087940141264;0.048855684106879085;19.346857656238075;4;1;0;0;0;0;0;0;0;0;0;0;0;0;0;0;0;0
94;2022-04-10 12:15:14.980;5.173967290695876;52.36971906855027;20;0.08;-0.01;10.4797411;0.20111908;0.14844504;0.07;0.0;0.0;19.2156868;27.05882263;1180.5;94;9.4;0.019836385414823146;-0.0016905003500680609;-0.05592958890980211;9.904487804394442;0.3351282403914727;0.05791032011083486;19.40624117296532;4;1;0;0;0;0;0;0;0;0;0;0;0;0;0;0;0;0
95;2022-04-10 12:15:15.077;5.173967290695876;52.36971906855027;20;-0.02;-0.07;9.77821827;-0.18675344;0.32083282;0.1;0.0;0.0;19.2156868;27.05882263;1180.5;95;9.5;0.016214511031174356;-0.007901114700884485;-0.05993641561715357;9.893007536109652;0.2876794101368553;0.08181490526125186;19.460224983577366;4;1;0;0;0;0;0;0;0;0;0;0;0;0;0;0;0;0
96;2022-04-10 12:15:15.179;5.173967290695876;52.36971906855027;20;0.02;-0.05;9.65132141;-0.38547826;0.11971374;0.04;0.0;0.0;19.2156868;27.84313774;1180.5;96;9.600000000000001;0.01655867963349008;-0.011728655774644782;-0.05812383912977055;9.87103394778136;0.22647734710694103;0.08526058667489393;19.509300179542013;4;1;0;0;0;0;0;0;0;0;0;0;0;0;0;0;0;0
97;2022-04-10 12:15:15.279;5.173967290695876;52.36971906855027;19;0.01;-0.02;10.24510193;0.1699935;0.17957062;0.09;0.0;0.0;18.8235302;27.84313774;1163.25;97;9.700000000000001;0.01596238367296718;-0.012480662188327345;-0.061021926401305944;9.905043114141455;0.22134200100882107;0.09383497893845015;19.46299609751249;4;1;0;0;0;0;0;0;0;0;0;0;0;0;0;0;0;0
98;2022-04-10 12:15:15.380;5.173967290695876;52.36971906855027;19;0.02;-0.04;9.96018314;-0.0478855;0.15562786;0.07;0.7843132100000005;0.0;18.8235302;27.84313774;1163.25;98;9.8;0.016329469004288284;-0.014982619883193089;-0.061838180065512775;9.910056243924446;0.1968648198197889;0.09945296202066994;19.420902183160642;4;1;0;0;0;0;0;0;0;0;0;0;0;0;0;0;0;0
99;2022-04-10 12:15:15.479;5.173967290695876;52.36971906855027;19;0.0;-0.1;9.61061954;-0.32083282;0.17478207;0.09;0.7843132100000005;0.39215659999999986;18.8235302;26.66666603;1163.25;99;9.9;0.01484486409066187;-0.022712033511518067;-0.06439853130782337;9.882832749893527;0.1497979825792503;0.10630155971945852;19.382635571483785;4;1;0;0;0;0;0;0;0;0;0;0;0;0;0;0;0;0
100;2022-04-10 12:15:15.579;5.173967290695876;52.36971906855027;19;-0.03;-0.05;9.81652641;0.43096948;-0.10295381;0.08;0.7843132100000005;0.39215659999999986;20.3921566;26.66666603;1146.75;100;10.0;0.010767789304373835;-0.02519292139902154;-0.06581694021425555;9.876804503135896;0.17536071414287877;0.08727708926830963;19.347848224650054;4;1;0;0;0;0;0;0;0;0;0;0;0;0;0;0;0;0
101;2022-04-10 12:15:15.678;5.173967290695876;52.36971906855027;19;0.0;-0.03;10.6401577;0.51476908;-0.64166564;0.04;0.7843132100000005;0.39215659999999986;20.3921566;26.66666603;1146.75;101;10.100000000000001;0.009788840658431318;-0.025629954754183455;-0.06346980488770729;9.946204410333417;0.2062178706849767;0.021005594013755003;19.316223762201076;4;1;0;0;0;0;0;0;0;0;0;0;0;0;0;0;0;0
102;2022-04-10 12:15:15.778;5.173967290695876;52.36971906855027;19;0.05;-0.06;10.22115898;-0.27294734;-0.47167215;0.01;3.5294113200000012;0.39215659999999986;20.3921566;26.66666603;1146.75;102;10.200000000000001;0.013444599909458385;-0.028754674680766677;-0.058608648505509266;9.971201643144651;0.16265502195305553;-0.023785733815271635;19.28747458005884;4;1;0;0;0;0;0;0;0;0;0;0;0;0;0;0;0;0
103;2022-04-10 12:15:15.876;5.173967290695876;52.36971906855027;19;-0.03;-0.05;9.81892109;-0.20351335;-0.0191542;0.13;3.5294113200000012;1.5686273600000007;20.3921566;26.66666603;1146.75;103;10.3;0.00949489506613589;-0.030686163622688525;-0.06509909305688698;9.957357270321499;0.12936533819054885;-0.023364664416996254;19.261339231970545;4;1;0;0;0;0;0;0;0;0;0;0;0;0;0;0;0;0
104;2022-04-10 12:15:15.977;5.174068100126986;52.369689658372266;19;0.03;-0.07;8.89233685;0.12450229;0.41181526;0.05;3.5294113200000012;1.5686273600000007;20.3921566;25.88235283;1146.75;104;10.4;0.011359079510346613;-0.034260309790348185;-0.06372638638266494;9.860532869435296;0.12892322297984848;0.016198929534243504;19.237580049441473;4;1;0;0;0;0;0;0;0;0;0;0;0;0;0;0;0;0
105;2022-04-10 12:15:16.077;5.174068100126986;52.369689658372266;19;0.0;0.0;10.26425648;-0.17478207;0.56744313;0.02;3.5294113200000012;1.5686273600000007;20.3921566;25.88235283;1146.75;105;10.5;0.010326393618180383;-0.031145608590351252;-0.05975109751426175;9.897236519285165;0.10131251991620463;0.06631409145743612;19.215980978399237;4;1;0;0;0;0;0;0;0;0;0;0;0;0;0;0;0;0
106;2022-04-10 12:15:16.177;5.174068100126986;52.369689658372266;19;0.08;-0.05;10.51326084;-0.12929083;-0.10295381;0.05;3.5294113200000012;1.5686273600000007;20.3921566;25.88235283;1146.75;106;10.600000000000001;0.016660593705664754;-0.03285970800214264;-0.05886460109279874;9.953240815729659;0.08034779833700761;0.05092552738133057;19.196345612823723;4;1;0;0;0;0;0;0;0;0;0;0;0;0;0;0;0;0
107;2022-04-10 12:15:16.277;5.174068100126986;52.369689658372266;19;0.01;-0.06;9.15331268;-0.87151605;-0.08619389;-0.05;3.5294113200000012;1.5686273600000007;20.3921566;25.88235283;1562.25;107;10.700000000000001;0.016055064688332007;-0.035327090801608285;-0.04896748413369357;9.88051761425991;-0.006188208239683684;0.038459703802639696;19.178495407384887;4;1;0;0;0;0;0;0;0;0;0;0;0;0;0;0;0;0
108;2022-04-10 12:15:16.377;5.174068100126986;52.369689658372266;19;-0.03;-0.03;9.98412609;0.15083931;-1.0606637;-0.05;3.5294113200000012;1.5686273600000007;31.37254906;25.88235283;1562.25;108;10.8;0.01186811177250108;-0.03484279491546353;-0.039970163229463035;9.8899368564766;0.008087460024134996;-0.06146368077085718;19.162268052772095;4;1;0;0;0;0;0;0;0;0;0;0;0;0;0;0;0;0
109;2022-04-10 12:15:16.476;5.174068100126986;52.369689658372266;19;0.01;-0.02;9.97933769;0.18675344;-0.90743017;-0.01;3.5294113200000012;1.5686273600000007;31.37254906;25.88235283;1562.25;109;10.9;0.011698278678087773;-0.03349341217116427;-0.03542729402082054;9.898064432365745;0.024330276269044333;-0.13837187692412722;19.147515998889467;4;1;0;0;0;0;0;0;0;0;0;0;0;0;0;0;0;0
110;2022-04-10 12:15:16.577;5.174068100126986;52.369689658372266;19;-0.16;-0.20999999;8.03758049;-1.70472372;-0.65124273;0.0;3.5294113200000012;1.5686273600000007;31.37254906;25.88235283;1562.25;110;11.0;-0.003911052752442523;-0.04953987282418305;-0.03220654901210307;9.728925226654692;-0.13286044862836727;-0.18499768580442197;19.134105112445532;4;1;0;0;0;0;0;0;0;0;0;0;0;0;0;0;0;0
111;2022-04-10 12:15:16.676;5.174068100126986;52.369689658372266;19;0.03;-0.08;10.32411289;-0.29689008;0.07422252;-0.16;8.62745095;1.5686273600000007;31.37254906;25.88235283;1562.25;111;11.100000000000001;-0.000828158493273574;-0.052309039322475215;-0.01473282235283833;9.783034447145443;-0.1477725780919028;-0.16143166766369982;19.121913456695363;4;1;0;0;0;0;0;0;0;0;0;0;0;0;0;0;0;0
112;2022-04-10 12:15:16.778;5.174068100126986;52.369689658372266;19;0.0;0.03;10.18045616;0.51955765;0.08858817;-0.03;8.62745095;1.5686273600000007;31.37254906;25.88235283;1562.25;112;11.200000000000001;-0.0007528697749749264;-0.044826242097892446;-0.010666116657997687;9.819164453210584;-0.08710491850372011;-0.1387021137439797;19.110830182210464;4;1;0;0;0;0;0;0;0;0;0;0;0;0;0;0;0;0
113;2022-04-10 12:15:16.879;5.174068100126986;52.369689658372266;19;0.06;-0.08;10.11581135;-0.07661679;-1.41501641;0.04;8.62745095;3.9215688699999998;31.37254906;25.88235283;1562.25;113;11.3;0.004770223926195268;-0.04802391755643741;-0.01333288428423763;9.846132868253328;-0.08615143405614556;-0.2547329033424782;19.10075451856637;4;1;0;0;0;0;0;0;0;0;0;0;0;0;0;0;0;0
114;2022-04-10 12:15:16.977;5.174158904465033;52.36966688384103;19;0.07;0.04;10.40791225;0.80687064;-1.04629815;-0.04;8.62745095;3.9215688699999998;31.37254906;42.74509811;1562.25;114;11.4;0.010700306584621122;-0.040021604219694876;-0.008484356031435627;9.89720460834006;-0.0049661988200168546;-0.32669463040567154;19.091594857760047;4;1;0;0;0;0;0;0;0;0;0;0;0;0;0;0;0;0
115;2022-04-10 12:15:17.078;5.174158904465033;52.36966688384103;19;0.0;-0.13;10.20439911;0.11013664;-0.35195839;-0.01;8.62745095;3.9215688699999998;31.37254906;42.74509811;1562.25;115;11.5;0.009727536078170054;-0.0482015875632246;-0.006803933490649318;9.925131822256361;0.005497860870929673;-0.32899137209443347;19.083267921006698;4;1;0;0;0;0;0;0;0;0;0;0;0;0;0;0;0;0
116;2022-04-10 12:15:17.179;5.174158904465033;52.36966688384103;19;0.04;-0.04;9.41907692;-0.65842557;0.15802214;0.0;8.62745095;3.9215688699999998;31.37254906;42.74509811;1759.5;116;11.600000000000001;0.012479617763803188;-0.04745597798931773;-0.006185385202071491;9.879126170650967;-0.05485968120033195;-0.28471678081068774;19.07569800132672;4;1;0;0;0;0;0;0;0;0;0;0;0;0;0;0;0;0
117;2022-04-10 12:15:17.277;5.174158904465033;52.36966688384103;21;0.0;-0.08;9.37119198;-0.45251793;-0.50998056;0.04;8.62745095;3.9215688699999998;31.37254906;42.74509811;1759.5;117;11.700000000000001;0.0113450922506503;-0.05041456405906255;-0.009259481214607991;9.83294973246168;-0.09101090292184018;-0.30519557347217297;19.250636829889096;4;1;0;0;0;0;0;0;0;0;0;0;0;0;0;0;0;0
118;2022-04-10 12:15:17.377;5.174158904465033;52.36966688384103;21;0.04;-0.23999999;10.1062336;-1.96809387;0.2083019;0.08;8.62745095;3.9215688699999998;20.0;42.74509811;1759.5;118;11.8;0.013950114773013613;-0.06764980727840923;-0.01569051377250528;9.857794015198973;-0.26165683374652177;-0.25851343108760966;19.409671732314678;4;1;0;0;0;0;0;0;0;0;0;0;0;0;0;0;0;0
119;2022-04-10 12:15:17.477;5.174158904465033;52.36966688384103;21;0.08;-0.07;9.85722923;-0.74222517;-0.05267405;-0.01;8.62745095;3.9215688699999998;20.0;42.74509811;1759.5;119;11.9;0.019954714561851737;-0.067863463466778;-0.013354987328463849;9.857742670536151;-0.3053453355580424;-0.23980055823452798;19.554248588845308;4;1;0;0;0;0;0;0;0;0;0;0;0;0;0;0;0;0
120;2022-04-10 12:15:17.577;5.174158904465033;52.36966688384103;21;-0.14;-0.25;7.92983818;-0.75659084;-1.32642829;0.01;7.058822630000002;3.9215688699999998;20.0;42.74509811;1759.5;120;12.0;0.005413234282885425;-0.08442149278983951;-0.013049985489620431;9.682476907312765;-0.34636805640618346;-0.33858586615951236;19.685681824128064;4;1;0;0;0;0;0;0;0;0;0;0;0;0;0;0;0;0
121;2022-04-10 12:15:17.677;5.174158904465033;52.36966688384103;21;-0.18000001;-0.1;10.99690437;-1.28572559;1.16122329;-0.07;7.058822630000002;3.5294113200000012;20.0;38.82352829;1759.5;121;12.100000000000001;-0.011442665457710974;-0.08583773334297923;-0.005499919504392188;9.801971378233834;-0.43176495708644846;-0.2022383637789246;19.805166359795543;4;1;0;0;0;0;0;0;0;0;0;0;0;0;0;0;0;0
122;2022-04-10 12:15:17.777;5.174158904465033;52.36966688384103;21;0.11;-0.1;10.84367085;-0.66800267;0.1340794;0.07;7.058822630000002;3.5294113200000012;21.1764698;38.82352829;1799.75;122;12.200000000000001;-0.0004023336724644235;-0.08712522256380081;-0.011363610705196652;9.896672097667723;-0.4532412868501561;-0.17166377384056006;19.91378848008839;4;1;0;0;0;0;0;0;0;0;0;0;0;0;0;0;0;0
123;2022-04-10 12:15:17.877;5.174158904465033;52.36966688384103;21;0.0;-0.17;10.07271385;-1.86035156;-0.4836435;0.0;7.058822630000002;3.5294113200000012;21.1764698;38.82352829;1799.75;123;12.3;-0.00036575761459259126;-0.09465934874581873;-0.010330547575679453;9.912676011239569;-0.5811613450136429;-0.2000257760785285;20.012535709396797;4;1;0;0;0;0;0;0;0;0;0;0;0;0;0;0;0;0
124;2022-04-10 12:15:17.976;5.174265352487034;52.36963826594191;21;0.0;-0.25;9.17246723;-2.93298674;-0.39026681;-0.01;7.058822630000002;3.5294113200000012;21.1764698;38.4313736;1799.75;124;12.4;-0.000332506699658061;-0.10878132071482538;-0.008482303599229836;9.845383853163229;-0.7949650856047031;-0.217320531357994;20.102305791598113;4;1;0;0;0;0;0;0;0;0;0;0;0;0;0;0;0;0
125;2022-04-10 12:15:18.078;5.174265352487034;52.36963826594191;22;-0.06;-0.16;10.62339687;-1.01996112;-0.79250497;0.11;7.058822630000002;3.5294113200000012;19.6078434;38.4313736;1824.75;125;12.5;-0.005756857299438912;-0.11343759263665802;-0.017711241282065797;9.91611273988339;-0.8154193950890509;-0.2696103441548473;20.27482449731499;4;1;0;0;0;0;0;0;0;0;0;0;0;0;0;0;0;0
126;2022-04-10 12:15:18.178;5.174265352487034;52.36963826594191;22;0.15000001;-0.08;11.18365765;-0.4668836;-0.90982443;-0.02;7.058822630000002;3.5294113200000012;19.6078434;38.4313736;1824.75;126;12.600000000000001;0.008402936286108529;-0.11039779466214905;-0.01428292764384748;10.031344733174302;-0.7837341474257948;-0.32781194684052206;20.431659502027177;4;1;0;0;0;0;0;0;0;0;0;0;0;0;0;0;0;0
127;2022-04-10 12:15:18.280;5.174265352487034;52.36963826594191;22;-0.06;-0.28999999;10.18763924;-1.95612252;-0.409421;0.1;6.666666030000002;3.1372547200000014;19.6078434;38.4313736;1824.75;127;12.700000000000001;0.0021844562417465243;-0.12672534912502445;-0.02207542797860457;10.04555339620119;-0.8903154448806428;-0.3352309890054496;20.574236628374738;4;1;0;0;0;0;0;0;0;0;0;0;0;0;0;0;0;0
128;2022-04-10 12:15:18.379;5.174265352487034;52.36963826594191;22;0.09;-0.41;11.58350182;-2.74144459;-0.46927786;0.02;6.666666030000002;3.1372547200000014;19.6078434;35.29411697;1824.75;128;12.8;0.010167724011953799;-0.15247770791781917;-0.021886751844723395;10.185367528853531;-1.0586006824395549;-0.3474171239322444;20.7038520732665;4;1;0;0;0;0;0;0;0;0;0;0;0;0;0;0;0;0
129;2022-04-10 12:15:18.479;5.174265352487034;52.36963826594191;22;0.06;-0.25999999;10.2570734;-1.6185298;0.71349388;0.13;6.666666030000002;3.1372547200000014;19.6078434;35.29411697;1816.25;129;12.9;0.014697949759518778;-0.1622525014841914;-0.031715269822979175;10.19188627152138;-1.1095035411769754;-0.25097026794192656;20.821684192990464;4;1;0;0;0;0;0;0;0;0;0;0;0;0;0;0;0;0
130;2022-04-10 12:15:18.579;5.174265352487034;52.36963826594191;22;-0.02;-0.2;9.47175121;-1.6592325;-0.89067024;-0.02;6.666666030000002;3.1372547200000014;19.6078434;35.29411697;1816.25;130;13.0;0.011543578765124891;-0.1656841052318027;-0.02701386388322023;10.126419200243317;-1.159479090006456;-0.30912503071493463;20.928804216785156;4;1;0;0;0;0;0;0;0;0;0;0;0;0;0;0;0;0
131;2022-04-10 12:15:18.678;5.174265352487034;52.36963826594191;22;0.2;-0.09;9.43104839;-1.61374128;-1.19713736;0.16;6.666666030000002;3.1372547200000014;19.6078434;35.29411697;1816.25;131;13.100000000000001;0.028676039577941386;-0.1588037083817484;-0.03910355417203794;10.063203454773854;-1.200775794665349;-0.38985370174181955;21.026185986313244;4;1;0;0;0;0;0;0;0;0;0;0;0;0;0;0;0;0
132;2022-04-10 12:15:18.778;5.174265352487034;52.36963826594191;22;-0.2;-0.55000001;7.94180965;-4.26180935;-0.16759923;0.13;6.666666030000002;3.1372547200000014;16.07843208;35.29411697;1816.25;132;13.200000000000001;0.00788724375377179;-0.1943671196447821;-0.04736689324747325;9.870348869958155;-1.4790524418831033;-0.36964868663583356;21.114714809615474;4;1;0;0;0;0;0;0;0;0;0;0;0;0;0;0;0;0
133;2022-04-10 12:15:18.879;5.174265352487034;52.36963826594191;22;0.05;-0.25;10.08947372;-2.15484738;-0.84996754;-0.07;6.666666030000002;3.1372547200000014;16.07843208;35.29411697;1816.25;133;13.3;0.011715687014119921;-0.19942466858801383;-0.036697145373121486;9.890269367453321;-1.5404885198515867;-0.41331416096927576;21.195195510066355;4;1;0;0;0;0;0;0;0;0;0;0;0;0;0;0;0;0
134;2022-04-10 12:15:18.980;5.174359783587711;52.3696037184847;22;0.11;-0.23;10.83409309;-1.89865994;0.09337672;0.07;6.666666030000002;3.1372547200000014;16.07843208;35.29411697;1816.25;134;13.4;0.020650647630020072;-0.20220425134832107;-0.03972468542959984;9.976071745606163;-1.5730496421257676;-0.36725123466539417;21.26835974352943;4;1;0;0;0;0;0;0;0;0;0;0;0;0;0;0;0;0
135;2022-04-10 12:15:19.077;5.174359783587711;52.3696037184847;22;-0.08;-0.43000001;10.51565456;-1.5586729;-0.24900457;0.13;6.666666030000002;3.1372547200000014;16.07843208;35.29411697;1816.25;135;13.5;0.011500567275283348;-0.22291300529288485;-0.04793155147386685;10.025124843882166;-1.571742662500821;-0.3565015126432851;21.334872650252834;4;1;0;0;0;0;0;0;0;0;0;0;0;0;0;0;0;0
136;2022-04-10 12:15:19.180;5.174359783587711;52.3696037184847;22;-0.23999999;-0.37;8.00166607;-2.8443985;-0.28731298;0.13;6.666666030000002;3.1372547200000014;16.07843208;35.29411697;1816.25;136;13.600000000000001;-0.011363168541821773;-0.23628457880170398;-0.055392335443293084;9.841173653697698;-1.6874388946281664;-0.35021163261650756;21.395338901994396;4;1;0;0;0;0;0;0;0;0;0;0;0;0;0;0;0;0
137;2022-04-10 12:15:19.281;5.174359783587711;52.3696037184847;22;0.03;-0.23999999;9.7087841;-2.36075497;0.42618093;-0.03;6.666666030000002;3.1372547200000014;16.07843208;35.29411697;1816.25;137;13.700000000000001;-0.007602873197462633;-0.23662234411137084;-0.04762938079713949;9.829138216376018;-1.7486495656855088;-0.27963035363034666;21.45030819936451;4;1;0;0;0;0;0;0;0;0;0;0;0;0;0;0;0;0
138;2022-04-10 12:15:19.381;5.174359783587711;52.3696037184847;22;0.04;-0.25999999;10.09426212;-1.12770343;-0.44294083;0.11;6.666666030000002;3.1372547200000014;16.07843208;35.29411697;1816.25;138;13.8;-0.0032753316380752743;-0.23874758839492546;-0.05329944708842145;9.853240431941042;-1.692199817428228;-0.2944767867572171;21.500280269374592;4;1;0;0;0;0;0;0;0;0;0;0;0;0;0;0;0;0
139;2022-04-10 12:15:19.479;5.174359783587711;52.3696037184847;22;0.02;-0.25;9.87398911;-2.47328591;-0.48843205;0.07;6.666666030000002;3.1372547200000014;16.07843208;35.29411697;1816.25;139;13.9;-0.0011593890056868935;-0.23977053654460553;-0.05481768160552966;9.855126678425231;-1.763207757875127;-0.3121091116861629;21.54570940863318;4;1;0;0;0;0;0;0;0;0;0;0;0;0;0;0;0;0
140;2022-04-10 12:15:19.576;5.174359783587711;52.3696037184847;22;0.04;-0.20999999;9.83568096;-2.07104778;0.36632404;0.06;6.666666030000002;3.1372547200000014;16.07843208;35.29411697;1816.25;140;14.0;0.0025823790851074112;-0.23706411927755816;-0.055288802146266705;9.853358883264423;-1.7911932552229404;-0.25043328072653537;21.587008613499645;4;1;0;0;0;0;0;0;0;0;0;0;0;0;0;0;0;0
141;2022-04-10 12:15:19.678;5.174359783587711;52.3696037184847;22;-0.03;-0.28;9.59864807;-2.04710507;0.15323359;0.05;6.666666030000002;3.1372547200000014;16.07843208;35.29411697;1816.25;141;14.100000000000001;-0.0003796593020822566;-0.24096738633351722;-0.05480800131405696;9.83020332410311;-1.8144579964846212;-0.2137362438525386;21.62455333474905;4;1;0;0;0;0;0;0;0;0;0;0;0;0;0;0;0;0
142;2022-04-10 12:15:19.777;5.174359783587711;52.3696037184847;22;0.0;-0.25;9.73272705;-2.08541346;0.10295381;0.07;6.666666030000002;3.1372547200000014;16.07843208;35.29411697;1816.25;142;14.200000000000001;-0.00034514477849828073;-0.2417885340196319;-0.05618909376736424;9.821341833964562;-1.8390903410219943;-0.184946204276119;21.658684890887034;4;1;0;0;0;0;0;0;0;0;0;0;0;0;0;0;0;0
143;2022-04-10 12:15:19.877;5.174359783587711;52.3696037184847;22;0.0;-0.23;10.00088596;-2.19076157;-0.54828894;0.04;6.666666030000002;3.1372547200000014;16.07843208;35.29411697;1816.25;143;14.3;-0.0003137679460922483;-0.24071684793515405;-0.05471735635863313;9.837664045114947;-1.8710604877577397;-0.21797739824162282;21.689713571149504;4;1;0;0;0;0;0;0;0;0;0;0;0;0;0;0;0;0
144;2022-04-10 12:15:19.977;5.174441944053209;52.36955435020992;22;0.0;-0.30000001;9.51245403;-2.48046875;-0.25618741;-0.01;6.666666030000002;3.1372547200000014;16.07843208;35.29411697;1816.25;144;14.4;-0.00028524355895929423;-0.24610623167005655;-0.04883395446884206;9.808099468853467;-1.926461294024637;-0.22145103913236644;21.717921456399935;4;1;0;0;0;0;0;0;0;0;0;0;0;0;0;0;0;0
145;2022-04-10 12:15:20.078;5.174441944053209;52.36955435020992;22;0.0;-0.23;9.98891449;-1.47966182;-0.60814577;0.03;6.666666030000002;3.1372547200000014;16.07843208;35.29411697;1816.25;145;14.5;-0.00025931230285779666;-0.24464202746579652;-0.04712177524026504;9.824537212925428;-1.8858431232613118;-0.25660513739075785;21.743564983572004;4;1;0;0;0;0;0;0;0;0;0;0;0;0;0;0;0;0
146;2022-04-10 12:15:20.180;5.174441944053209;52.36955435020992;22;0.0;-0.31;9.66808128;-2.74623322;0.21548474;0.08;6.666666030000002;3.1372547200000014;16.07843208;33.33333206;1816.25;146;14.600000000000001;-0.00023573843774772393;-0.2505836662211088;-0.05011070722306295;9.810313934593442;-1.964060469137427;-0.21368784049897294;21.766877276973247;4;1;0;0;0;0;0;0;0;0;0;0;0;0;0;0;0;0
147;2022-04-10 12:15:20.277;5.174441944053209;52.36955435020992;22;0.02;-0.30000001;9.52681923;-2.77257013;-0.03351985;0.01;6.666666030000002;3.1372547200000014;16.07843208;33.33333206;1816.25;147;14.700000000000001;0.0016038755234731097;-0.25507606447026576;-0.04646427656628279;9.784541669444499;-2.0375614023739534;-0.19730892002089703;21.788070267645526;4;1;0;0;0;0;0;0;0;0;0;0;0;0;0;0;0;0
148;2022-04-10 12:15:20.376;5.174441944053209;52.36955435020992;22;0.02;-0.30000001;9.52681923;-2.77257013;-0.03351985;0.01;6.666666030000002;3.1372547200000014;16.07843208;33.33333206;1816.25;148;14.8;0.003276251613050632;-0.25916006229542043;-0.043149340078926166;9.76111234083648;-2.1043804230476315;-0.18241899443974544;21.807336620051025;4;1;0;0;0;0;0;0;0;0;0;0;0;0;0;0;0;0
149;2022-04-10 12:15:20.475;5.174441944053209;52.36955435020992;22;0.13;-0.28999999;9.17246723;-2.56426835;-0.24900457;0.07;6.666666030000002;3.1372547200000014;16.07843208;33.33333206;1816.25;149;14.9;0.014796599496858598;-0.2619636938198241;-0.04559031067155777;9.707599115862799;-2.146188442250764;-0.18847223232342464;21.824851483600554;4;1;0;0;0;0;0;0;0;0;0;0;0;0;0;0;0;0
150;2022-04-10 12:15:20.576;5.174441944053209;52.36955435020992;22;-0.04;-0.33000001;9.39513397;-3.13649988;0.19872481;0.0;6.666666030000002;3.1372547200000014;16.07843208;33.33333206;1816.25;150;15.0;0.0098150876522848;-0.26814881694835224;-0.041445734645062106;9.679193177548665;-2.23621680536566;-0.15327248142230057;21.84077408494835;4;1;0;0;0;0;0;0;0;0;0;0;0;0;0;0;0;0
151;2022-04-10 12:15:20.676;5.174441944053209;52.36955435020992;22;0.03;-0.27000001;10.05834866;-2.33920646;-0.45970076;0.01;6.666666030000002;3.1372547200000014;16.07843208;33.33333206;1816.25;151;15.100000000000001;0.011650080621341274;-0.26831710731174957;-0.038587030035079684;9.713661875380597;-2.245579506024648;-0.18112961188805685;21.855249175529778;4;1;0;0;0;0;0;0;0;0;0;0;0;0;0;0;0;0
152;2022-04-10 12:15:20.776;5.174441944053209;52.36955435020992;22;0.11;-0.25999999;9.91469193;-2.48286295;-0.84039044;0.02;6.666666030000002;3.1372547200000014;16.07843208;33.33333206;1816.25;152;15.200000000000001;0.02059098653545199;-0.2675610053867986;-0.03689729924713093;9.731937343379105;-2.2671507382225276;-0.24106244227822232;21.868408347502207;4;1;0;0;0;0;0;0;0;0;0;0;0;0;0;0;0;0
153;2022-04-10 12:15:20.876;5.174441944053209;52.36955435020992;23;-0.03;-0.28999999;9.37119198;-2.63370228;-0.86433321;0.04;6.666666030000002;3.1372547200000014;20.0;33.33333206;1853.25;153;15.3;0.015991803999508208;-0.2696009139401736;-0.037179363071026816;9.699142296498309;-2.300473619726031;-0.2977234450847505;21.971280359344487;4;1;0;0;0;0;0;0;0;0;0;0;0;0;0;0;0;0
154;2022-04-10 12:15:20.976;5.1744963235583885;52.369500316909146;23;-0.04;-0.37;9.55794525;-3.20114541;-0.31843856;-0.03;6.666666030000002;3.1372547200000014;20.0;33.33333206;1853.25;154;15.4;0.010901638045817529;-0.2787281070852253;-0.03107214590228246;9.686306196435277;-2.3823529048146566;-0.29960663807259064;22.064800362572168;4;1;0;0;0;0;0;0;0;0;0;0;0;0;0;0;0;0
155;2022-04-10 12:15:21.076;5.1744963235583885;52.369500316909146;23;0.06;-0.36000001;10.29298782;-3.18438554;-0.66321415;0.0;6.666666030000002;3.1372547200000014;20.0;33.33333206;1853.25;155;15.5;0.015365127053653033;-0.2861164644736955;-0.0282474043800679;9.741459090549421;-2.455264988000156;-0.3326618779636672;22.149818541094827;4;1;0;0;0;0;0;0;0;0;0;0;0;0;0;0;0;0
156;2022-04-10 12:15:21.176;5.1744963235583885;52.369500316909146;23;-0.07;-0.30000001;8.91627979;-2.33920646;0.42139238;-0.04;9.01960755;3.1372547200000014;20.0;33.33333206;1853.25;156;15.600000000000001;0.007604658496159316;-0.287378605376452;-0.022043092922894105;9.666442766703462;-2.44471420938059;-0.2641114691311078;22.227107789148672;4;1;0;0;0;0;0;0;0;0;0;0;0;0;0;0;0;0
157;2022-04-10 12:15:21.276;5.1744963235583885;52.369500316909146;23;-0.03;-0.30000001;10.15411949;-2.32005239;-0.27294734;-0.01;9.01960755;4.705882070000001;20.0;47.84313583;1853.25;157;15.700000000000001;0.004186052192490285;-0.28852600612765483;-0.019130083635322825;9.710777027060711;-2.4333813134415174;-0.26491473035082835;22.297370737669876;4;1;0;0;0;0;0;0;0;0;0;0;0;0;0;0;0;0
158;2022-04-10 12:15:21.376;5.1744963235583885;52.369500316909146;23;0.13;-0.30000001;10.93944168;-3.18199134;-1.10615492;0.0;9.01960755;4.705882070000001;20.0;47.84313583;2058.0;158;15.8;0.015623686809821843;-0.2895690976622318;-0.017390984667102097;9.822473842973766;-2.5014367882426645;-0.3413911312769236;22.36124614189988;4;1;0;0;0;0;0;0;0;0;0;0;0;0;0;0;0;0
159;2022-04-10 12:15:21.476;5.1744963235583885;52.369500316909146;23;-0.02;-0.30000001;9.39752865;-2.64567375;-0.77574503;-0.01;9.01960755;4.705882070000001;26.66666603;47.84313583;2058.0;159;15.9;0.01238516905528965;-0.29051736264620637;-0.014900894558459216;9.783842452587491;-2.5145492424365443;-0.3808778587533489;22.41931468829365;4;1;0;0;0;0;0;0;0;0;0;0;0;0;0;0;0;0
160;2022-04-10 12:15:21.576;5.1744963235583885;52.369500316909146;23;-0.01;-0.30000001;9.35203743;-2.34160066;-0.40463245;-0.01;9.01960755;4.705882070000001;26.66666603;47.84313583;2058.0;160;16.0;0.010350153245721494;-0.29137942168332454;-0.012637176380870562;9.744587442029111;-2.4988266406267714;-0.38303736751637707;22.4721042735225;4;1;0;0;0;0;0;0;0;0;0;0;0;0;0;0;0;0
161;2022-04-10 12:15:21.676;5.1744963235583885;52.369500316909146;23;0.05;-0.31;10.25946712;-3.12213445;0.62251145;0.03;9.01960755;4.705882070000001;26.66666603;47.84313583;2058.0;161;16.1;0.013954685478797784;-0.29307220186371036;-0.014215615202594812;9.791394694700314;-2.5554909980942195;-0.2916238206461507;22.52009480356373;4;1;0;0;0;0;0;0;0;0;0;0;0;0;0;0;0;0
162;2022-04-10 12:15:21.775;5.1744963235583885;52.369500316909146;23;0.06;-0.38999999;9.68963051;-3.14128852;-0.24421602;0.01;9.01960755;4.313725470000001;26.66666603;50.19607925;2058.0;162;16.2;0.01814062391206677;-0.3018838205447951;-0.0138323773882828;9.782143403525591;-2.6087453278030552;-0.287314019815708;22.56372255650617;4;1;0;0;0;0;0;0;0;0;0;0;0;0;0;0;0;0
