;device_time;lon;lat;raw_speed_kph;raw_g_x;raw_g_y;raw_roll;raw_yaw;raw_pitch;raw_g_z;apps_d;apps_e;engine_load;engine_load_abs;engine_rpm;num_samples;cumulative_time;g_x;g_y;g_z;roll;yaw;pitch;speed_kph;sample_nr;roundabout_1;roundabout_2;roundabout_3;roundabout_4;turning_right_1;turning_right_2;turning_right_3;turning_left_1;turning_left_2;road_50km_1;road_50km_2;road_100km;entering_highway;exiting_highway;speed_bumps;road_50km_3;road_50km_4
0;2022-05-02 00:46:27.599;5.173742503330309;52.36975487841188;0;-0.05;0.0;10.20918751;0.34716985;-0.43575802;0.04;0.0;0.0;0.0;0.0;0.0;0;0.0;-0.05;0.0;-0.008473805000000001;10.20918751;0.34716985;-0.43575802;0.0;5;0;0;0;0;0;0;0;0;0;0;0;0;0;0;0;0;0
1;2022-05-02 00:46:27.703;5.173742503330309;52.36975487841188;0;-0.01;0.01;9.95060635;0.35195839;-0.55307746;0.0;0.0;0.0;0.0;0.0;0.0;1;0.1;-0.029047619047619048;0.005238095238095238;0.012478575952380954;10.073740235714283;0.34967813285714283;-0.49721106;0.0;5;0;0;0;0;0;0;0;0;0;0;0;0;0;0;0;0;0
2;2022-05-02 00:46:27.797;5.173742503330309;52.36975487841188;0;0.0;0.0;10.04398251;0.14126222;-0.61054009;0.0;0.0;0.0;0.0;0.0;0.0;2;0.2;-0.018429003021148034;0.003323262839879154;0.019441602854984898;10.062862033867066;0.27348983842900304;-0.5386394969486404;0.0;5;0;0;0;0;0;0;0;0;0;0;0;0;0;0;0;0;0
3;2022-05-02 00:46:27.900;5.173742503330309;52.36975487841188;0;-0.03;0.02;9.64174461;0.10055954;-1.08700073;-0.02;0.0;0.0;0.0;0.0;0.0;3;0.30000000000000004;-0.021747468218056454;0.008106011635423401;0.028643195646412413;9.94208907735617;0.223894874583064;-0.6959049141413488;0.0;5;0;0;0;0;0;0;0;0;0;0;0;0;0;0;0;0;0
4;2022-05-02 00:46:27.999;5.173742503330309;52.36975487841188;0;0.0;0.01;9.86201763;0.26337022;-1.03432667;-0.04;0.0;0.0;0.0;0.0;0.0;4;0.4;-0.016532079736613647;0.008560220143814188;0.03892722037222977;9.922886671814217;0.23336168974169136;-0.7770638292701183;0.0;5;0;0;0;0;0;0;0;0;0;0;0;0;0;0;0;0;0
5;2022-05-02 00:46:28.100;5.173742503330309;52.36975487841188;0;0.0;0.0;9.9362402;0.17238778;-0.96968132;-0.03;0.0;0.0;0.0;0.0;0.0;5;0.5;-0.013081272900004014;0.006773411305133359;0.04364439433874315;9.925674006928158;0.2206343627541827;-0.8172696451414987;0.0;5;0;0;0;0;0;0;0;0;0;0;0;0;0;0;0;0;0
6;2022-05-02 00:46:28.202;5.173742503330309;52.36975487841188;0;-0.02;0.0;9.90272045;0.21309046;-1.02474964;-0.01;0.0;0.0;0.0;0.0;0.0;6;0.6000000000000001;-0.01437322253388286;0.005508596819852831;0.04324885816270677;9.921387837082035;0.21922567264971396;-0.8560128560703966;0.0;5;0;0;0;0;0;0;0;0;0;0;0;0;0;0;0;0;0
7;2022-05-02 00:46:28.299;5.173742503330309;52.36975487841188;0;-0.02;0.0;9.84525776;0.33998701;-1.12291491;-0.01;0.0;0.0;0.0;0.0;0.0;7;0.7000000000000001;-0.015332045965017794;0.004569911802477326;0.04295531006802869;9.908414993894276;0.23980384559575488;-0.9014939408772461;0.0;5;0;0;0;0;0;0;0;0;0;0;0;0;0;0;0;0;0
8;2022-05-02 00:46:28.399;5.173742503330309;52.36975487841188;0;0.0;0.0;9.87398911;0.32083282;-1.40304506;0.0;0.0;0.0;0.0;0.0;0.0;8;0.8;-0.012911805304582972;0.0038485282125642647;0.041151166702978505;9.902980694769264;0.2525946772286588;-0.9806663106025327;0.0;5;0;0;0;0;0;0;0;0;0;0;0;0;0;0;0;0;0
9;2022-05-02 00:46:28.497;5.173742503330309;52.36975487841188;0;-0.02;0.0;9.73033237;0.29449579;-1.14925194;-0.04;0.0;0.0;0.0;0.0;0.0;9;0.9;-0.013960506254319126;0.0032791370819549395;0.04564516304367507;9.877437313141648;0.258793961905012;-1.0056086149914487;0.0;5;0;0;0;0;0;0;0;0;0;0;0;0;0;0;0;0;0
10;2022-05-02 00:46:28.606;5.173742503330309;52.36975487841188;0;-0.02;0.01;9.65371609;0.11253092;-1.18756032;-0.04;0.0;0.0;0.0;0.0;0.0;10;1.0;-0.014805833011885523;0.004219832692844883;0.04926764031534348;9.84612383818485;0.23832203691067244;-1.0310757569913145;0.0;5;0;0;0;0;0;0;0;0;0;0;0;0;0;0;0;0;0
11;2022-05-02 00:46:28.702;5.173742503330309;52.36975487841188;0;0.0;0.01;9.78061295;0.16281068;-0.92897862;-0.01;0.0;0.0;0.0;0.0;0.0;11;1.1;-0.01283042107038953;0.004991029525419779;0.04823476742611857;9.837383297161967;0.22824722139437129;-1.0174538349121385;0.0;5;0;0;0;0;0;0;0;0;0;0;0;0;0;0;0;0;0
12;2022-05-02 00:46:28.797;5.173742503330309;52.36975487841188;0;-0.02;0.01;9.71836185;0.2849187;-1.02714384;-0.02;0.0;0.0;0.0;0.0;0.0;12;1.2000000000000002;-0.013747987195611093;0.00563207995178833;0.04865600589424404;9.822150875681865;0.23550006421056277;-1.0186939663771992;0.0;5;0;0;0;0;0;0;0;0;0;0;0;0;0;0;0;0;0
13;2022-05-02 00:46:28.899;5.173742503330309;52.36975487841188;0;0.0;0.01;9.78779507;0.17238778;-0.9433443;-0.02;0.0;0.0;0.0;0.0;0.0;13;1.3;-0.01205140779667713;0.006171105997168434;0.049010203467938676;9.817911174893357;0.22771165128234236;-1.0093953912568416;0.0;5;0;0;0;0;0;0;0;0;0;0;0;0;0;0;0;0;0
14;2022-05-02 00:46:29.001;5.173742503330309;52.36975487841188;0;0.0;0.0;9.78779507;0.27773589;-1.31206262;0.0;0.0;0.0;0.0;0.0;0.0;14;1.4000000000000001;-0.010611004069550704;0.0054335254398774815;0.046920486533019855;9.814311649388388;0.23369062910063867;-1.0455706673503844;0.0;5;0;0;0;0;0;0;0;0;0;0;0;0;0;0;0;0;0
15;2022-05-02 00:46:29.099;5.173742503330309;52.36975487841188;1;-0.01;0.0;9.65371609;0.0287313;-1.21150303;-0.03;0.0;0.0;33.72549057;0.0;906.25;15;1.5;-0.010540007273727142;0.004802166476031675;0.04861762498686216;9.795650938751137;0.20987498471222685;-1.06485149813146;0.1161969279120635;5;0;0;0;0;0;0;0;0;0;0;0;0;0;0;0;0;0
16;2022-05-02 00:46:29.199;5.173742503330309;52.36975487841188;1;0.0;0.0;9.62019634;0.07182825;-1.28093708;-0.04;0.0;0.0;33.72549057;0.0;906.25;16;1.6;-0.009345497379844194;0.004257931996991851;0.05121387685128111;9.775766488134304;0.1942300059043822;-1.0893406999663415;0.21635924150787422;5;0;0;0;0;0;0;0;0;0;0;0;0;0;0;0;0;0
17;2022-05-02 00:46:29.302;5.173742503330309;52.36975487841188;1;-0.03;0.0;10.41509533;0.37111259;-1.4772675;-0.09;0.0;0.0;33.72549057;0.0;906.25;17;1.7000000000000002;-0.011634959283813084;0.003785958729173238;0.05900769192113138;9.846633313372289;0.21383667207349644;-1.1323407008154986;0.3032224158945675;5;0;0;0;0;0;0;0;0;0;0;0;0;0;0;0;0;0
18;2022-05-02 00:46:29.397;5.173742503330309;52.36975487841188;1;0.03;0.03;9.07669544;0.01675992;-2.0375278;-0.08;0.0;0.0;33.72549057;0.0;906.25;18;1.8;-0.007110114746124663;0.006634873763447199;0.06471534880063218;9.762957257466008;0.1924185734260017;-1.2307155034281532;0.37894748683630747;5;0;0;0;0;0;0;0;0;0;0;0;0;0;0;0;0;0
19;2022-05-02 00:46:29.498;5.173742503330309;52.36975487841188;1;0.0;-0.01;9.85483551;0.17717634;-1.94415116;-0.09;0.0;0.0;33.72549057;0.0;906.25;19;1.9000000000000001;-0.006350886191425075;0.004858577372180676;0.07078169487116723;9.772768152981826;0.19079098522698923;-1.3068972166284114;0.44526439152744735;5;0;0;0;0;0;0;0;0;0;0;0;0;0;0;0;0;0
20;2022-05-02 00:46:29.601;5.173742503330309;52.36975487841188;1;0.01;0.01;9.26823807;-0.18675344;-2.39666915;-0.08;0.0;0.0;33.72549057;0.0;906.25;20;2.0;-0.004632194156234708;0.005399008148624753;0.07506447483975157;9.719735441177521;0.15110612723388267;-1.4214465028341958;0.5035743608316348;5;0;0;0;0;0;0;0;0;0;0;0;0;0;0;0;0;0
21;2022-05-02 00:46:29.701;5.173742503330309;52.36975487841188;1;-0.02;-0.02;9.51245403;-0.10055954;-2.44694877;-0.08;0.0;0.0;33.72549057;0.0;906.25;21;2.1;-0.006224928404079444;0.0027666304005668383;0.07884340275079874;9.698252595423197;0.12502325429254335;-1.527730548765193;0.5550243937803816;5;0;0;0;0;0;0;0;0;0;0;0;0;0;0;0;0;0
22;2022-05-02 00:46:29.802;5.173742503330309;52.36975487841188;1;0.03;0.03;10.29538155;0.22266756;-2.24343538;-0.13;0.0;0.0;33.72549057;0.0;906.25;22;2.2;-0.002517741264242117;0.005553639291993273;0.08730499529538364;9.759361585247518;0.13501597837357324;-1.6009743580193287;0.6005623124897784;5;0;0;0;0;0;0;0;0;0;0;0;0;0;0;0;0;0
23;2022-05-02 00:46:29.903;5.173742503330309;52.36975487841188;1;-0.02;0.01;9.85244083;0.01675992;-2.29132104;-0.20999999;9.01960755;4.705882070000001;33.72549057;47.45098114;906.25;23;2.3000000000000003;-0.004286624434600945;0.006003529248698396;0.10290934431598436;9.76877949354192;0.1230506394198527;-1.6708247501183182;0.6409780627497089;5;0;0;0;0;0;0;0;0;0;0;0;0;0;0;0;0;0
24;2022-05-02 00:46:29.998;5.173742503330309;52.36975487841188;1;-0.06;-0.01;9.5387907;-0.01436565;-2.4517374;-0.19;9.01960755;4.705882070000001;33.72549057;47.45098114;906.25;24;2.4000000000000004;-0.009866474599363332;0.004400731098184109;0.11478915319699307;9.745745473532992;0.10928801424449713;-1.749035333014923;0.6769351124777009;5;0;0;0;0;0;0;0;0;0;0;0;0;0;0;0;0;0
25;2022-05-02 00:46:30.098;5.173742503330309;52.36975487841188;1;-0.03;-0.01;9.05514717;-0.05027977;-2.68637633;-0.14;9.01960755;4.705882070000001;33.72549057;47.45098114;906.25;25;2.5;-0.011864434850013834;0.0029716674969546605;0.12041948131917674;9.677213612760017;0.09345322704946375;-1.8420528257796067;0.7089946147658605;5;0;0;0;0;0;0;0;0;0;0;0;0;0;0;0;0;0
26;2022-05-02 00:46:30.201;5.173742503330309;52.36975487841188;1;0.0;0.01;9.55315685;-0.09577099;-2.34878349;-0.19;9.01960755;4.705882070000001;33.72549057;47.45098114;906.25;26;2.6;-0.010696784173830362;0.0036633681386934944;0.13037000353861175;9.665004437628367;0.07483052923189037;-1.8919232503046441;0.7376342119432412;5;0;0;0;0;0;0;0;0;0;0;0;0;0;0;0;0;0
27;2022-05-02 00:46:30.299;5.173742503330309;52.36975487841188;1;-0.04;-0.04;9.55315685;-0.02633702;-2.90904379;-0.16;9.01960755;4.705882070000001;33.72549057;47.45098114;906.25;27;2.7;-0.01355920256413872;-0.0006017892653407261;0.13634390784176886;9.65407885889195;0.06494820590118029;-1.9912783707547435;0.7632628208022976;5;0;0;0;0;0;0;0;0;0;0;0;0;0;0;0;0;0
28;2022-05-02 00:46:30.398;5.173742503330309;52.36975487841188;1;-0.03;-0.06;9.62259007;-1.01517248;-2.00400805;-0.18000001;9.01960755;4.705882070000001;33.72549057;47.45098114;906.25;28;2.8000000000000003;-0.01515437952513696;-0.0063649316955110054;0.14363850950385978;9.651023642697837;-0.03985106797643251;-1.9925134745343593;0.7862323693014578;5;0;0;0;0;0;0;0;0;0;0;0;0;0;0;0;0;0
29;2022-05-02 00:46:30.499;5.173768031196123;52.36975878508446;1;-0.03;-0.08;10.20918751;-0.55786604;-2.21470428;-0.14;9.01960755;4.705882070000001;33.72549057;47.45098114;906.25;29;2.9000000000000004;-0.01658602703406185;-0.013465979596212409;0.1463278774247111;9.704850554920743;-0.08980619417267725;-2.013940596000216;0.8068471961789561;5;0;0;0;0;0;0;0;0;0;0;0;0;0;0;0;0;0
30;2022-05-02 00:46:30.600;5.173768031196123;52.36975878508446;1;-0.01;-0.09;9.86441231;-0.74222517;-1.89626563;-0.11;9.01960755;4.705882070000001;33.72549057;47.45098114;906.25;30;3.0;-0.01595438983641213;-0.020806024500780756;0.14586736895502783;9.720153428612134;-0.1523768595303807;-2.0026549020038975;0.8253716412036627;5;0;0;0;0;0;0;0;0;0;0;0;0;0;0;0;0;0
31;2022-05-02 00:46:30.697;5.173768031196123;52.36975878508446;1;0.0;-0.08;10.17806244;-0.83320761;-1.5179702;-0.08;9.01960755;4.705882070000001;33.72549057;47.45098114;906.25;31;3.1;-0.014431881027110741;-0.026454836525509312;0.14259023078776595;9.763851151360853;-0.21734774377363408;-1.9564020063368763;0.8420362217578168;5;0;0;0;0;0;0;0;0;0;0;0;0;0;0;0;0;0
32;2022-05-02 00:46:30.798;5.173768031196123;52.36975878508446;1;0.06;-0.09;10.37918091;-1.16361761;-1.40065074;-0.09;9.01960755;4.705882070000001;33.72549057;47.45098114;906.25;32;3.2;-0.007360892501889093;-0.03249159275900818;0.14058915875660366;9.822307146325969;-0.30724287034463305;-1.9036059359847899;0.8570426954346583;5;0;0;0;0;0;0;0;0;0;0;0;0;0;0;0;0;0
33;2022-05-02 00:46:30.898;5.173768031196123;52.36975878508446;1;0.09;-0.07;10.6401577;-1.11573207;-1.32882249;-0.03;9.01960755;4.705882070000001;33.72549057;47.45098114;906.25;33;3.3000000000000003;0.0018506610815580663;-0.03604035545264772;0.13310881723142748;9.89968599942424;-0.38373602270680174;-1.8492242599800783;0.8705682377474845;5;0;0;0;0;0;0;0;0;0;0;0;0;0;0;0;0;0
34;2022-05-02 00:46:31.000;5.173768031196123;52.36975878508446;1;-0.18000001;-0.05;7.56351423;0.36632404;-2.22188711;-0.17;9.01960755;4.705882070000001;33.72549057;47.45098114;1896.25;34;3.4000000000000004;-0.015291195700534862;-0.03735623856782367;0.1395580697095183;9.679470579532396;-0.31303283477563804;-1.8843527154598112;0.8827689116212227;5;0;0;0;0;0;0;0;0;0;0;0;0;0;0;0;0;0
35;2022-05-02 00:46:31.104;5.173768031196123;52.36975878508446;11;-0.2;-0.17;8.13335133;-2.34160066;-1.02714384;-0.25999999;9.01960755;4.705882070000001;29.01960754;47.45098114;1896.25;35;3.5;-0.03264426274647582;-0.04981788647945502;0.15383520665208392;9.534215397463994;-0.5036132113411472;-1.803819450439521;1.8332649643771852;5;0;0;0;0;0;0;0;0;0;0;0;0;0;0;0;0;0
36;2022-05-02 00:46:31.206;5.173768031196123;52.36975878508446;11;0.25;0.09;12.53163433;-1.73106074;-1.515576;-0.23999999;9.01960755;4.705882070000001;29.01960754;47.45098114;1896.25;36;3.6;-0.006170788592552632;-0.036722042367840664;0.16485856528377205;9.814964392217687;-0.6185803439108749;-1.776821536308524;2.691854205437054;5;0;0;0;0;0;0;0;0;0;0;0;0;0;0;0;0;0
37;2022-05-02 00:46:31.306;5.173768031196123;52.36975878508446;11;-0.23;-0.30000001;9.50048256;-1.17558897;-1.58979845;-0.08;9.01960755;4.705882070000001;29.01960754;47.45098114;1896.25;37;3.7;-0.027077846038390946;-0.061313861991818354;0.1598769861492425;9.785589809291247;-0.6706084561945486;-1.759352402657186;3.4678873259716867;5;0;0;0;0;0;0;0;0;0;0;0;0;0;0;0;0;0
38;2022-05-02 00:46:31.398;5.173768031196123;52.36975878508446;11;-0.01;-0.2;9.88835526;-1.42219925;-1.4772675;-0.09;9.01960755;4.705882070000001;29.01960754;47.45098114;1896.25;38;3.8000000000000003;-0.025486641269814595;-0.07423575176866568;0.15630370403754243;9.795164838533521;-0.7406368925929598;-1.733069530610999;4.169681543897395;5;0;0;0;0;0;0;0;0;0;0;0;0;0;0;0;0;0
39;2022-05-02 00:46:31.498;5.17381027105423;52.36974748922452;11;0.01;-0.18000001;9.50048256;-1.620924;-1.76458049;-0.04;8.62745095;4.313725470000001;29.01960754;45.49019623;1896.25;39;3.9000000000000004;-0.02218769294637456;-0.08406792550748968;0.14842252364691697;9.767770259223402;-0.822471114520199;-1.7359988872062304;4.8046491489744065;5;0;0;0;0;0;0;0;0;0;0;0;0;0;0;0;0;0
40;2022-05-02 00:46:31.598;5.17381027105423;52.36974748922452;11;0.04;-0.16;10.66649437;-0.50998056;-1.80288899;-0.06;8.62745095;4.313725470000001;29.01960754;45.49019623;1896.25;40;4.0;-0.01641838221850424;-0.09111233753185674;0.14314410626741791;9.851147184914636;-0.7934805695564848;-1.7422044524773077;5.379407633077751;5;0;0;0;0;0;0;0;0;0;0;0;0;0;0;0;0;0
41;2022-05-02 00:46:31.703;5.17381027105423;52.36974748922452;13;0.02;-0.05;10.15172482;0.80447632;-1.3934679;-0.14;8.62745095;4.313725470000001;25.49019623;45.49019623;2118.0;41;4.1000000000000005;-0.013046040321012396;-0.08730533541049229;0.14577228745341758;9.878980671480997;-0.6455097745688096;-1.7099114505517987;6.08507442432859;5;0;0;0;0;0;0;0;0;0;0;0;0;0;0;0;0;0
42;2022-05-02 00:46:31.802;5.17381027105423;52.36974748922452;13;-0.09;-0.11;10.12059975;-0.44772938;-1.40065074;-0.09;8.62745095;4.313725470000001;25.49019623;45.49019623;2118.0;42;4.2;-0.020159947449519645;-0.08940331369355735;0.14353088947126919;9.901316827959883;-0.6272262273066379;-1.6813222527699154;6.72431558295214;5;0;0;0;0;0;0;0;0;0;0;0;0;0;0;0;0;0
43;2022-05-02 00:46:31.899;5.17381027105423;52.36974748922452;13;-0.12;-0.27000001;10.33368969;-1.07742369;-1.55627859;0.0;8.62745095;4.313725470000001;25.49019623;45.49019623;2118.0;43;4.3;-0.029375387293597628;-0.10607275594980779;0.13319262844488966;9.941225722221812;-0.6687803684496382;-1.6697804684588877;7.303574014296424;5;0;0;0;0;0;0;0;0;0;0;0;0;0;0;0;0;0
44;2022-05-02 00:46:31.999;5.17381027105423;52.36974748922452;13;0.0;-0.07;9.33288288;-0.44054657;-2.09020185;-0.2;8.62745095;4.313725470000001;25.49019623;45.49019623;2118.0;44;4.4;-0.026667750901900333;-0.10274779870644228;0.14225639127017278;9.885152547704472;-0.647743228332264;-1.7085322377932268;7.828634335964515;5;0;0;0;0;0;0;0;0;0;0;0;0;0;0;0;0;0
45;2022-05-02 00:46:32.104;5.17381027105423;52.36974748922452;13;0.16;0.07;8.5284071;0.69912827;-1.86514008;-0.13;8.62745095;4.313725470000001;25.49019623;41.96078491;2118.0;45;4.5;-0.009483634882577476;-0.08684511492356335;0.14403031601809002;9.760254320402776;-0.5237539694558118;-1.72294912189353;8.304695932677221;5;0;0;0;0;0;0;0;0;0;0;0;0;0;0;0;0;0
46;2022-05-02 00:46:32.198;5.17381027105423;52.36974748922452;14;-0.02;-0.01;9.34006596;-0.76616794;-2.01597929;-0.1;8.62745095;4.313725470000001;25.49019623;41.96078491;1874.5;46;4.6000000000000005;-0.01045063207465888;-0.07977907931843299;0.1428805413783804;9.721617304654663;-0.5460443355870883;-1.7498937312324219;8.828388575492264;5;0;0;0;0;0;0;0;0;0;0;0;0;0;0;0;0;0
47;2022-05-02 00:46:32.298;5.17381027105423;52.36974748922452;14;-0.1;-0.11;9.27781487;-0.99122977;-1.36952519;-0.07;8.62745095;4.313725470000001;26.66666603;41.96078491;1874.5;47;4.7;-0.01867626902150262;-0.08255504890353584;0.1390819010600458;9.680851436752187;-0.5869372401641094;-1.7149546401068767;9.30343154892359;5;0;0;0;0;0;0;0;0;0;0;0;0;0;0;0;0;0
48;2022-05-02 00:46:32.397;5.17381027105423;52.36974748922452;14;-0.13;-0.03;9.15570641;0.14605077;-2.21709847;-0.14;8.62745095;4.313725470000001;26.66666603;41.96078491;1874.5;48;4.800000000000001;-0.028892336909361365;-0.07773212442257352;0.1420592815929372;9.632659400812356;-0.5196716606959777;-1.7610358791254324;9.734430956816592;5;0;0;0;0;0;0;0;0;0;0;0;0;0;0;0;0;0
49;2022-05-02 00:46:32.497;5.17385694354189;52.36972569584835;14;-0.03;0.03;10.08708;0.67279124;-1.85316873;-0.13;9.01960755;4.313725470000001;26.66666603;41.96078491;1874.5;49;4.9;-0.02899389871340062;-0.06785414888848752;0.14384420596335873;9.674325297452;-0.4103345486552171;-1.769483554799726;10.125541657300388;5;0;0;0;0;0;0;0;0;0;0;0;0;0;0;0;0;0
50;2022-05-02 00:46:32.600;5.17385694354189;52.36972569584835;14;-0.05;0.0;10.34805584;0.38308397;-1.84598589;0.0;9.01960755;4.705882070000001;26.66666603;49.41176605;1874.5;50;5.0;-0.03091844826128565;-0.061637446903489955;0.13355378727644246;9.736051545143868;-0.33764265640314906;-1.77649259148926;10.480514098402478;5;0;0;0;0;0;0;0;0;0;0;0;0;0;0;0;0;0
51;2022-05-02 00:46:32.700;5.17385694354189;52.36972569584835;14;0.05;0.0;9.40710545;-0.58899158;-1.25699425;-0.06;9.01960755;4.705882070000001;26.66666603;49.41176605;1874.5;51;5.1000000000000005;-0.023510069781351197;-0.05599431428034019;0.12970600822389705;9.705935332775914;-0.36065456526374556;-1.7289306273618288;10.802735843555523;5;0;0;0;0;0;0;0;0;0;0;0;0;0;0;0;0;0
52;2022-05-02 00:46:32.799;5.17385694354189;52.36972569584835;16;-0.07;-0.06;9.51484776;-0.35674694;-1.3072741;-0.06;9.01960755;4.705882070000001;33.72549057;49.41176605;1723.0;52;5.2;-0.027763650473843302;-0.05636081316208086;0.1262127589200515;9.688451838902894;-0.3602970383907821;-1.6903513037273512;11.278257797786496;5;0;0;0;0;0;0;0;0;0;0;0;0;0;0;0;0;0
53;2022-05-02 00:46:32.900;5.17385694354189;52.36972569584835;16;-0.05;-0.09;9.67287064;0.51476908;-1.75021493;-0.1;9.01960755;4.705882070000001;33.72549057;49.41176605;1723.0;53;5.300000000000001;-0.029796967210967897;-0.05943681813044782;0.12669862547383506;9.68702707660203;-0.2802800112019601;-1.6958253008464361;11.710019199848231;5;0;0;0;0;0;0;0;0;0;0;0;0;0;0;0;0;0
54;2022-05-02 00:46:32.997;5.17385694354189;52.36972569584835;16;0.03;0.0;10.35044956;0.18914771;-1.67599237;-0.04;9.01960755;4.705882070000001;33.72549057;49.41176605;1723.0;54;5.4;-0.02433197301493129;-0.05400473885847092;0.12165627924150912;9.747658914475993;-0.23737783921092212;-1.6940127197571013;12.102091260814522;5;0;0;0;0;0;0;0;0;0;0;0;0;0;0;0;0;0
55;2022-05-02 00:46:33.102;5.17385694354189;52.36972569584835;16;0.0;-0.02;10.38157558;0.11253092;-1.29290843;-0.03;9.01960755;4.313725470000001;33.72549057;49.41176605;1723.0;55;5.5;-0.0221092876854478;-0.05089846243167809;0.11616349589746242;9.80556614919595;-0.20541425511198244;-1.6573725089575528;12.458158751310934;5;0;0;0;0;0;0;0;0;0;0;0;0;0;0;0;0;0
56;2022-05-02 00:46:33.202;5.17385694354189;52.36972569584835;16;0.04;-0.05;11.07352066;0.54350036;-1.16361761;-0.06;9.01960755;4.313725470000001;33.72549057;48.62745285;1723.0;56;5.6000000000000005;-0.01643819841090519;-0.05081642541515853;0.11391390750126487;9.92134083434845;-0.13703218538322462;-1.612288621892026;12.781558015190745;5;0;0;0;0;0;0;0;0;0;0;0;0;0;0;0;0;0
57;2022-05-02 00:46:33.297;5.17385694354189;52.36972569584835;16;0.03;-0.03;9.30175781;-0.38787252;-1.29290843;-0.16;9.01960755;4.313725470000001;33.72549057;48.62745285;1723.0;57;5.7;-0.012199700358351388;-0.04891647275544119;0.12099772084188717;9.864790375201448;-0.15992683474855132;-1.583138216241476;13.075311014912371;5;0;0;0;0;0;0;0;0;0;0;0;0;0;0;0;0;0
58;2022-05-02 00:46:33.399;5.17385694354189;52.36972569584835;16;-0.01;0.07;10.90592194;0.50279772;-0.38787252;-0.08;9.01960755;4.313725470000001;33.72549057;48.62745285;1805.25;58;5.800000000000001;-0.011999002538025725;-0.03806668733252101;0.12013355105421225;9.959781874809114;-0.09946070211855293;-1.4740837175071624;13.3421558613975;5;0;0;0;0;0;0;0;0;0;0;0;0;0;0;0;0;0
59;2022-05-02 00:46:33.497;5.173913561520798;52.36969617798575;19;0.0;0.07;10.22834206;0.45730647;-2.21470428;-0.12;9.01960755;4.313725470000001;30.98039246;48.62745285;1805.25;59;5.9;-0.01090458977817509;-0.028210071238250256;0.12299683156364122;9.984276885334307;-0.048678722908074575;-1.5416347152864565;13.85820015748876;5;0;0;0;0;0;0;0;0;0;0;0;0;0;0;0;0;0
60;2022-05-02 00:46:33.599;5.173913561520798;52.36969617798575;19;-0.12;0.08;9.62019634;1.13728058;-1.45332479;0.0;9.01960755;4.313725470000001;30.98039246;48.62745285;1805.25;60;6.0;-0.02085205449173622;-0.018343332911626414;0.11465641717137959;9.95107953660769;0.05945862488144352;-1.533582498755458;14.327036311031565;5;0;0;0;0;0;0;0;0;0;0;0;0;0;0;0;0;0
61;2022-05-02 00:46:33.700;5.173913561520798;52.36969617798575;19;0.04;0.12;10.18045616;0.22506183;-1.10376072;-0.01;9.01960755;4.313725470000001;30.98039246;48.62745285;1805.25;61;6.1000000000000005;-0.015304993299741701;-0.005732436869168649;0.10799012100838176;9.971988710120362;0.07455443586195529;-1.4944014435170971;14.753007393638093;5;0;0;0;0;0;0;0;0;0;0;0;0;0;0;0;0;0
62;2022-05-02 00:46:33.797;5.173913561520798;52.36969617798575;19;-0.01;0.0;9.1988039;0.60814577;-2.19315577;-0.03;8.62745095;4.313725470000001;30.98039246;48.62745285;1805.25;62;6.2;-0.014821528221411398;-0.005210017163169945;0.10375567916125078;9.901525312022038;0.12318273029693269;-1.5580816964597624;15.14005267288528;5;0;0;0;0;0;0;0;0;0;0;0;0;0;0;0;0;0
63;2022-05-02 00:46:33.897;5.173913561520798;52.36969617798575;19;-0.1;0.05;8.8157196;1.56106722;-0.70391679;-0.09;8.62745095;4.313725470000001;30.98039246;50.58823395;1805.25;63;6.300000000000001;-0.022582434927909303;-0.00017964054897929953;0.105374812642647;9.802593778543836;0.25419338529333957;-1.4802557621294272;15.49174589386255;5;0;0;0;0;0;0;0;0;0;0;0;0;0;0;0;0;0
64;2022-05-02 00:46:33.998;5.173913561520798;52.36969617798575;21;-0.02;0.09;9.44062519;1.11573207;-0.18435916;-0.07;8.62745095;4.313725470000001;30.98039246;50.58823395;1859.5;64;6.4;-0.02234718838425086;0.008035261022493386;0.10502422336409017;9.769620301284991;0.33267512964047163;-1.3622062448715138;15.993519520782286;5;0;0;0;0;0;0;0;0;0;0;0;0;0;0;0;0;0
65;2022-05-02 00:46:34.098;5.173913561520798;52.36969617798575;21;0.02;0.14;9.95060635;3.26579094;-1.71669507;0.0;8.62745095;4.313725470000001;31.37254906;50.58823395;1859.5;65;6.5;-0.018490293746748283;0.020054337459952054;0.09833017442529693;9.786104137576972;0.5998172722899459;-1.3944923564378042;16.44949944412089;5;0;0;0;0;0;0;0;0;0;0;0;0;0;0;0;0;0
66;2022-05-02 00:46:34.200;5.173913561520798;52.36969617798575;21;0.06;0.15000001;9.42625999;0.91461295;-2.09738469;-0.01;8.62745095;4.313725470000001;31.37254906;50.58823395;1859.5;66;6.6000000000000005;-0.011342766412155009;0.03188752347768915;0.0931574584590912;9.753335807147499;0.6284833735852751;-1.458499533982862;16.86387968856449;5;0;0;0;0;0;0;0;0;0;0;0;0;0;0;0;0;0
67;2022-05-02 00:46:34.299;5.173913561520798;52.36969617798575;21;-0.05;0.08;10.34326744;1.31206262;-1.0582695;-0.02;8.62745095;4.313725470000001;31.37254906;50.58823395;1859.5;67;6.7;-0.014862453014381946;0.036268096614944935;0.08936699063118081;9.807048250374002;0.6907222999610829;-1.4220591538088072;17.240467610001676;5;0;0;0;0;0;0;0;0;0;0;0;0;0;0;0;0;0
68;2022-05-02 00:46:34.398;5.173913561520798;52.36969617798575;21;-0.02;0.12;10.33368969;0.99841261;-1.58022141;0.0;8.23529435;4.313725470000001;31.37254906;49.01960754;1859.5;68;6.800000000000001;-0.015330154178476961;0.04389070499102591;0.08410140230184492;9.854991522730105;0.7187331612901975;-1.4364575956223016;17.582719988457267;5;0;0;0;0;0;0;0;0;0;0;0;0;0;0;0;0;0
69;2022-05-02 00:46:34.498;5.173986757240056;52.36966462804225;21;-0.03;0.13;10.55635738;2.77257013;-1.07502937;-0.01;8.23529435;4.313725470000001;31.37254906;49.01960754;1859.5;69;6.9;-0.01666546733728959;0.051728747470849615;0.08022602179403351;9.918832892963207;0.9056823333360502;-1.4035588268478079;17.89377567522294;5;0;0;0;0;0;0;0;0;0;0;0;0;0;0;0;0;0
70;2022-05-02 00:46:34.598;5.173986757240056;52.36966462804225;21;0.0;0.12;8.39911556;1.33121681;-0.72307098;-0.06;8.23529435;4.313725470000001;31.37254906;49.01960754;1772.5;70;7.0;-0.015148678851528295;0.05794237758688081;0.08125449415901587;9.78051755468927;0.9444118679740694;-1.3416250022565368;18.17648513632946;5;0;0;0;0;0;0;0;0;0;0;0;0;0;0;0;0;0
71;2022-05-02 00:46:34.700;5.173986757240056;52.36966462804225;23;-0.03;0.09;11.21478367;1.59458697;-1.3096683;0.0;8.23529435;4.313725470000001;29.01960754;49.01960754;1772.5;71;7.1000000000000005;-0.01650021329581355;0.060859759849379406;0.07672900390146745;9.91104197320628;1.003580613732096;-1.338716804164684;18.61544584666623;5;0;0;0;0;0;0;0;0;0;0;0;0;0;0;0;0;0
72;2022-05-02 00:46:34.798;5.173986757240056;52.36966462804225;23;0.13;0.14;10.56354046;0.96010423;-1.07981789;-0.01;8.23529435;4.313725470000001;29.01960754;49.01960754;1772.5;72;7.2;-0.0031693299363322216;0.06806117810505789;0.07352570112917733;9.970416502594311;0.99962445157106;-1.315158127020257;19.014421238486307;5;0;0;0;0;0;0;0;0;0;0;0;0;0;0;0;0;0
73;2022-05-02 00:46:34.898;5.173986757240056;52.36966462804225;23;-0.02;0.0;9.77103519;0.65603131;-1.15882897;-0.04;8.23529435;4.313725470000001;29.01960754;49.01960754;1772.5;73;7.300000000000001;-0.004700715271368952;0.061868442483651795;0.07334377050181934;9.95227523923211;0.9683616737832066;-1.3009340837947727;19.377060209123098;5;0;0;0;0;0;0;0;0;0;0;0;0;0;0;0;0;0
74;2022-05-02 00:46:35.002;5.173986757240056;52.36966462804225;23;-0.01;0.1;9.08148479;0.81405342;-0.96010423;-0.04;8.23529435;4.313725470000001;29.01960754;49.01960754;1772.5;74;7.4;-0.005182847494463956;0.06533767532107686;0.07317840635133303;9.8730501821466;0.9543226128064577;-1.2699251715505597;19.70667752635792;5;0;0;0;0;0;0;0;0;0;0;0;0;0;0;0;0;0
75;2022-05-02 00:46:35.102;5.173986757240056;52.36966462804225;23;-0.06;0.05;9.29457474;0.87630457;-1.03432667;-0.06;8.23529435;4.313725470000001;29.01960754;49.01960754;1772.5;75;7.5;-0.010169789426190316;0.06394234388378343;0.0748475801844184;9.820423890793295;0.9472249904142064;-1.2484918063950872;20.006284623549696;5;1;0;0;0;0;0;0;0;0;0;0;0;0;0;0;0;0
76;2022-05-02 00:46:35.200;5.173986757240056;52.36966462804225;23;0.01;0.08;10.29059315;1.05108666;-1.67120385;-0.07;8.62745095;4.313725470000001;29.01960754;49.01960754;1772.5;76;7.6000000000000005;-0.008334979991654931;0.06540307995375458;0.0772744857474682;9.863194341906722;0.9566730995251107;-1.2869451600374866;20.278617522072285;5;1;0;0;0;0;0;0;0;0;0;0;0;0;0;0;0;0
77;2022-05-02 00:46:35.301;5.173986757240056;52.36966462804225;23;-0.01;0.06;9.93384647;0.60575151;-1.29530263;0.0;8.62745095;4.313725470000001;29.01960754;49.01960754;1772.5;77;7.7;-0.00848643491211943;0.06491160054776679;0.07311309206942387;9.869621058935577;0.9247522810578134;-1.2877053790991873;20.526162154978945;5;1;0;0;0;0;0;0;0;0;0;0;0;0;0;0;0;0
78;2022-05-02 00:46:35.403;5.173986757240056;52.36966462804225;25;-0.06;0.0;9.48132801;0.15562786;-0.967287;-0.02;8.62745095;4.313725470000001;29.01960754;49.01960754;1724.0;78;7.800000000000001;-0.013172002454295837;0.05900737535740247;0.07114959247330307;9.834302724748426;0.8547943114034947;-1.2585607847683022;20.93309321012587;5;1;0;0;0;0;0;0;0;0;0;0;0;0;0;0;0;0
79;2022-05-02 00:46:35.499;5.174078214680827;52.369638650381866;25;0.01;0.05;9.7135725;0.57702023;-1.16601181;-0.04;8.62745095;4.313725470000001;28.62745094;49.01960754;1724.0;79;7.9;-0.011064427888551658;0.05818812310482674;0.07118384578862302;9.823321889082703;0.8295297884023579;-1.2501431322286871;21.30299258884797;5;1;0;0;0;0;0;0;0;0;0;0;0;0;0;0;0;0
80;2022-05-02 00:46:35.601;5.174078214680827;52.369638650381866;25;0.0;0.03;9.80216122;0.49082634;-0.61532861;0.0;8.62745095;4.313725470000001;28.62745094;49.01960754;1724.0;80;8.0;-0.010058124204847654;0.055624428677712334;0.06757700407230341;9.821397337767257;0.7987248944445594;-1.1924070975577479;21.6392333971389;5;1;0;0;0;0;0;0;0;0;0;0;0;0;0;0;0;0
81;2022-05-02 00:46:35.698;5.174078214680827;52.369638650381866;25;-0.03;0.03;9.98412609;1.01996112;-0.89785308;0.0;0.0;4.313725470000001;28.62745094;49.01960754;1724.0;81;8.1;-0.011871753730251204;0.05329399492619967;0.0642983349832045;9.836196831692153;0.818845396391208;-1.1656186515481288;21.94488095013493;5;1;0;0;0;0;0;0;0;0;0;0;0;0;0;0;0;0
82;2022-05-02 00:46:35.799;5.174078214680827;52.369638650381866;25;-0.01;0.05;9.50766563;0.33040991;-0.70391679;0.05;0.0;0.0;28.62745094;22.74509811;1724.0;82;8.200000000000001;-0.011701531866039427;0.05299443096755507;0.056770834038489856;9.806319400329285;0.7744258781089935;-1.1236303545234865;22.22272095208174;5;1;0;0;0;0;0;0;0;0;0;0;0;0;0;0;0;0
83;2022-05-02 00:46:35.900;5.174078214680827;52.369638650381866;25;-0.03;0.03;9.88835526;0.62969428;-0.17478207;0.04;0.0;0.0;28.62745094;22.74509811;1747.5;83;8.3;-0.013365583826459465;0.0509033309011354;0.05083752482899388;9.813779693295363;0.7612640714591237;-1.0373426480092935;22.475285079881303;5;1;0;0;0;0;0;0;0;0;0;0;0;0;0;0;0;0
84;2022-05-02 00:46:36.002;5.174078214680827;52.369638650381866;26;-0.04;0.05;9.65132141;0.62969428;0.05027977;0.01;0.0;0.0;12.15686321;22.74509811;1747.5;84;8.4;-0.01578762857001279;0.05082118500964941;0.048172050508989844;9.799006280259444;0.7492995545822511;-0.9384379022342715;22.79581086836389;5;1;0;0;0;0;0;0;0;0;0;0;0;0;0;0;0;0
85;2022-05-02 00:46:36.101;5.174078214680827;52.369638650381866;26;-0.02;0.01;9.43823147;0.43096948;-0.30167863;0.06;0.0;0.0;12.15686321;22.74509811;1747.5;85;8.5;-0.016170676983240498;0.047109145270535425;0.04120232482805959;9.76619952973915;0.720352480000141;-0.8805347393980093;23.087181081782703;5;1;0;0;0;0;0;0;0;0;0;0;0;0;0;0;0;0
86;2022-05-02 00:46:36.203;5.174078214680827;52.369638650381866;26;0.03;0.03;9.72315025;0.36871833;-0.48124924;0.02;0.0;0.0;12.15686321;22.74509811;1747.5;86;8.6;-0.011972290946926334;0.045553378682509;0.03850381882332422;9.762284978193895;0.6883777288872718;-0.8442269619360538;23.352049155451933;5;1;0;0;0;0;0;0;0;0;0;0;0;0;0;0;0;0
87;2022-05-02 00:46:36.301;5.174078214680827;52.369638650381866;26;0.0;0.01;9.96018314;0.06464542;-0.42618093;0.04;0.0;0.0;12.15686321;22.74509811;1747.5;87;8.700000000000001;-0.010883652931914579;0.042320517088394086;0.03423215290944812;9.780279818362592;0.6316618751166061;-0.8062141200824865;23.59282679475559;5;1;0;0;0;0;0;0;0;0;0;0;0;0;0;0;0;0
88;2022-05-02 00:46:36.399;5.174078214680827;52.369638650381866;26;0.01;0.04;9.64174461;0.14605077;-0.65842557;0.04;0.0;0.0;12.15686321;15.68627453;1747.5;88;8.8;-0.008984745882228974;0.0421095173043796;0.03034898913526481;9.767683100506428;0.5875062691065899;-0.7927760151432124;23.81170603892592;5;1;0;0;0;0;0;0;0;0;0;0;0;0;0;0;0;0
89;2022-05-02 00:46:36.499;5.1741828494318645;52.36961662393892;26;-0.05;-0.01;9.95060635;0.01675992;0.18196489;0.1;0.0;0.0;12.15686321;15.68627453;1747.5;89;8.9;-0.01271410727586819;0.03737139666472405;0.021363407522107636;9.784315617342763;0.5356104697094479;-0.7041465240274423;24.01067930367591;5;1;0;0;0;0;0;0;0;0;0;0;0;0;0;0;0;0
90;2022-05-02 00:46:36.599;5.1741828494318645;52.36961662393892;26;-0.04;-0.02;10.06553173;-0.0095771;-0.47885495;0.07;0.0;0.0;12.15686321;15.68627453;1747.5;90;9.0;-0.015195067485642196;0.0321549225788878;0.01592272999573715;9.809885093588372;0.4860394814706686;-0.6836619668091581;24.191557589094625;5;1;0;0;0;0;0;0;0;0;0;0;0;0;0;0;0;0
91;2022-05-02 00:46:36.698;5.1741828494318645;52.36961662393892;26;0.02;0.0;9.82610416;0.01197137;0.03112557;0.01;0.0;0.0;8.23529434;15.68627453;1689.25;91;9.1;-0.011995018124979148;0.029231293025322756;0.01643221515617061;9.81135978356083;0.44293567558533176;-0.6186711722579277;24.35598702180347;5;1;0;0;0;0;0;0;0;0;0;0;0;0;0;0;0;0
92;2022-05-02 00:46:36.798;5.1741828494318645;52.36961662393892;26;0.05;0.03;10.03680038;0.39026681;-0.16759923;0.04;0.0;0.0;8.23529434;15.68627453;1689.25;92;9.200000000000001;-0.0063583102992010206;0.029301185361044934;0.014167711282000287;9.831857281789398;0.43814691971754255;-0.5776588324955856;24.505463884624927;5;1;0;0;0;0;0;0;0;0;0;0;0;0;0;0;0;0
93;2022-05-02 00:46:36.904;5.1741828494318645;52.36961662393892;26;-0.05;-0.01;9.43104839;0.0383084;0.01197137;0.08;0.0;0.0;8.23529434;15.68627453;1689.25;93;9.3;-0.01032624673208741;0.02572789096481865;0.008472295811823283;9.79541542504051;0.40179328995353375;-0.5240491950490872;24.64134827276659;5;1;0;0;0;0;0;0;0;0;0;0;0;0;0;0;0;0
94;2022-05-02 00:46:37.001;5.1741828494318645;52.36961662393892;26;-0.07;0.05;10.44382668;0.83560193;0.41420954;0.06;0.0;0.0;8.23529434;15.68627453;1689.25;94;9.4;-0.015751767461538557;0.02793470423708999;0.005113166800329971;9.854368792515114;0.44123504852065737;-0.4387429768572663;24.764876502625278;5;1;0;0;0;0;0;0;0;0;0;0;0;0;0;0;0;0
95;2022-05-02 00:46:37.097;5.1741828494318645;52.36961662393892;26;-0.22;-0.11;10.36002731;0.54589468;0.47167215;0.13;0.0;0.0;8.23529434;12.54901981;1689.25;95;9.5;-0.03432176154190835;0.015393853286627155;-0.004304831236805209;9.900342633070208;0.45075057143544733;-0.3559691711488867;24.877172387635962;5;1;0;0;0;0;0;0;0;0;0;0;0;0;0;0;0;0
96;2022-05-02 00:46:37.197;5.1741828494318645;52.36961662393892;26;0.05;0.01;10.58987713;0.2753416;0.13168511;0.05;0.0;0.0;8.23529434;12.54901981;1568.75;96;9.600000000000001;-0.026655406401615452;0.014903455622800266;-0.005593044182737997;9.96303364234567;0.4348027609861923;-0.31163268153329043;24.97925748500945;5;1;0;0;0;0;0;0;0;0;0;0;0;0;0;0;0;0
97;2022-05-02 00:46:37.299;5.1741828494318645;52.36961662393892;25;0.01;0.0;9.73272705;-1.00320113;-0.69433969;0.1;0.0;0.0;9.01960754;12.54901981;1568.75;97;9.700000000000001;-0.023322804111209388;0.013548477047489191;-0.011309978956999499;9.94209484088382;0.30406365504895144;-0.34642728288067587;24.981143333776444;5;1;0;0;0;0;0;0;0;0;0;0;0;0;0;0;0;0
98;2022-05-02 00:46:37.398;5.1741828494318645;52.36961662393892;25;0.08;-0.1;10.36002731;-0.73025382;-0.32562137;0.2;0.0;0.0;9.01960754;12.54901981;1568.75;98;9.8;-0.01392907209010325;0.003225064186560891;-0.02559874006796048;9.980091734711547;0.21002728748289837;-0.344535685263511;24.982857713006073;5;1;0;0;0;0;0;0;0;0;0;0;0;0;0;0;0;0
99;2022-05-02 00:46:37.497;5.17428889631895;52.36959801140046;25;-0.07;0.0;10.61860847;-0.22027329;-0.01197137;0.03;0.0;0.0;9.01960754;12.54901981;1568.75;99;9.9;-0.019026799093030577;0.0029318552563212417;-0.02313265792694804;10.038142923172911;0.17090621431759018;-0.3143003716469228;24.98441621582667;5;1;0;0;0;0;0;0;0;0;0;0;0;0;0;0;0;0
100;2022-05-02 00:46:37.598;5.17428889631895;52.36959801140046;25;-0.14;-0.09;8.85642242;-0.81884199;-0.70152253;0.05;0.0;0.0;9.01960754;12.54901981;1568.75;100;10.0;-0.030025088356149685;-0.005517052586113575;-0.022709097900919573;9.930706699078542;0.08092316875770009;-0.3495047084316586;24.985833016943506;5;1;0;0;0;0;0;0;0;0;0;0;0;0;0;0;0;0
101;2022-05-02 00:46:37.698;5.17428889631895;52.36959801140046;25;0.02;-0.05;8.82290268;-1.23065722;-0.36153549;0.07;0.0;0.0;9.01960754;12.54901981;1568.75;101;10.100000000000001;-0.025477080299424866;-0.009561199430690843;-0.024142339045604345;9.829991202722562;-0.03831856316377865;-0.35059848144235206;24.98712100173669;5;1;0;0;0;0;0;0;0;0;0;0;0;0;0;0;0;0
102;2022-05-02 00:46:37.798;5.17428889631895;52.36959801140046;25;0.02;-0.18000001;8.61220646;-2.13329887;-0.71349388;0.03;0.0;0.0;8.62745094;12.54901981;1576.5;102;10.200000000000001;-0.021342574860223135;-0.025056481553250368;-0.02180870872173265;9.719277462759203;-0.22878170232322928;-0.38359077094992733;24.988291883596748;5;1;0;0;0;0;0;0;0;0;0;0;0;0;0;0;0;0
103;2022-05-02 00:46:37.898;5.17428889631895;52.36959801140046;25;-0.17;-0.17;8.80135441;-1.67120385;-1.20432019;0.05;0.0;0.0;8.62745094;12.54901981;1576.5;103;10.3;-0.03485755608445115;-0.038233818161492315;-0.021505520629099904;9.635825776362362;-0.3599174880058647;-0.4582062345112246;24.989356310571804;5;1;0;0;0;0;0;0;0;0;0;0;0;0;0;0;0;0
104;2022-05-02 00:46:38.000;5.17428889631895;52.36959801140046;25;0.18000001;-0.15000001;11.28900528;-1.23305154;-0.37111259;0.13;0.0;0.0;8.62745094;12.54901981;1576.5;104;10.4;-0.015324169949268274;-0.048394838887112865;-0.028502952677587373;9.786121594116489;-0.4392968875596817;-0.45028827370043606;24.9903239623017;5;1;0;0;0;0;0;0;0;0;0;0;0;0;0;0;0;0
105;2022-05-02 00:46:38.100;5.17428889631895;52.36959801140046;25;-0.07;-0.23;11.21238899;-2.68637633;0.18914771;0.07;5.490196230000002;3.1372547200000014;8.62745094;12.54901981;1576.5;105;10.5;-0.020294903562360675;-0.06490507527158652;-0.029409430928474645;9.91578757777687;-0.6435852048191202;-0.39215534851847944;24.991203638125256;5;1;0;0;0;0;0;0;0;0;0;0;0;0;0;0;0;0
106;2022-05-02 00:46:38.200;5.17428889631895;52.36959801140046;25;-0.04;-0.28;8.82769108;-3.19396257;0.47406641;0.06;5.490196230000002;3.1372547200000014;8.62745094;14.90196037;1576.5;106;10.600000000000001;-0.022086342674829985;-0.0844598875137683;-0.02932437085844585;9.81686603073308;-0.8754463265345337;-0.31340498344450607;24.99200333716554;5;1;0;0;0;0;0;0;0;0;0;0;0;0;0;0;0;0
107;2022-05-02 00:46:38.299;5.17428889631895;52.36959801140046;25;0.0;-0.31;9.921875;-2.54750848;-0.51955765;0.03;5.490196230000002;3.1372547200000014;8.62745094;14.90196037;1576.5;107;10.700000000000001;-0.02007842536785032;-0.1049642282254308;-0.026519679016555546;9.826412623841925;-1.0274571227862423;-0.3321467694047735;24.992730331124644;5;1;0;0;0;0;0;0;0;0;0;0;0;0;0;0;0;0
108;2022-05-02 00:46:38.398;5.17428889631895;52.36959801140046;25;-0.09;-0.30000001;10.38397026;-1.07263517;1.10376072;0.08;5.490196230000002;3.1372547200000014;18.43137169;14.90196037;1729.5;108;10.8;-0.02643512777977286;-0.12269529951408503;-0.028515570074856243;9.877101241614017;-1.0315643443870213;-0.2016057075191318;24.993391230452456;5;1;0;0;0;0;0;0;0;0;0;0;0;0;0;0;0;0
109;2022-05-02 00:46:38.497;5.174388988679682;52.369576140190006;25;-0.15000001;-0.15000001;8.16687107;-3.55310392;-2.06625915;-0.03;5.490196230000002;3.1372547200000014;18.43137169;14.90196037;1729.5;109;10.9;-0.03766861317244882;-0.12517761537020425;-0.02032972605085262;9.72162142157341;-1.2608016283203192;-0.37112439949812914;24.99399204449316;5;1;0;0;0;0;0;0;0;0;0;0;0;0;0;0;0;0
110;2022-05-02 00:46:38.599;5.174388988679682;52.369576140190006;25;0.15000001;-0.30000001;9.32330608;-3.0119977;-0.43575802;0.0;5.490196230000002;3.1372547200000014;18.43137169;14.90196037;1729.5;110;11.0;-0.02060739531538302;-0.1410709645654615;-0.015615431507249422;9.685410014980677;-1.420005320361638;-0.3770003326276648;24.99453823615826;5;1;0;0;0;0;0;0;0;0;0;0;0;0;0;0;0;0
111;2022-05-02 00:46:38.700;5.174388988679682;52.369576140190006;25;-0.03;-0.23;10.48692322;-1.92499697;-0.28731298;-0.04;6.666666030000002;3.5294113200000012;18.43137169;14.90196037;1729.5;111;11.100000000000001;-0.021461288211962685;-0.14915560926275193;-0.007693282287788997;9.75827653659653;-1.465914713648941;-0.3688467484097294;24.9950347716246;5;1;0;0;0;0;0;0;0;0;0;0;0;0;0;0;0;0
112;2022-05-02 00:46:38.798;5.174388988679682;52.369576140190006;25;-0.12;-0.11;9.82849789;-1.73106074;0.05267405;0.04;6.666666030000002;3.5294113200000012;18.43137169;34.11764526;1729.5;112;11.200000000000001;-0.030419541219784484;-0.145595933597358;-0.007764240389508223;9.764660430184392;-1.490019404536119;-0.3305258703335476;24.99548616551053;5;1;0;0;0;0;0;0;0;0;0;0;0;0;0;0;0;0
113;2022-05-02 00:46:38.899;5.174388988679682;52.369576140190006;25;0.2;-0.15000001;8.39911556;-2.83003283;-1.34558249;0.0;6.666666030000002;3.5294113200000012;18.43137169;34.11764526;1839.25;113;11.3;-0.00947190991526735;-0.14599631183017237;-0.004192314371530795;9.64051761521753;-1.6118411347206518;-0.4228055082037605;24.99589652194191;5;1;0;0;0;0;0;0;0;0;0;0;0;0;0;0;0;0
114;2022-05-02 00:46:38.999;5.174388988679682;52.369576140190006;25;0.0;-0.11;9.17964935;-2.13090467;-0.98404694;-0.15000001;6.666666030000002;3.5294113200000012;26.27450943;34.11764526;1839.25;114;11.4;-0.008610812237005421;-0.1427238629977577;0.012691480688987837;9.598619772362865;-1.6590295485778228;-0.4738283428999773;24.99626957188223;5;1;0;0;0;0;0;0;0;0;0;0;0;0;0;0;0;0
115;2022-05-02 00:46:39.100;5.174388988679682;52.369576140190006;25;0.05;-0.15000001;9.75667;-1.78373468;-0.15323359;-0.05;6.666666030000002;3.5294113200000012;26.27450943;34.11764526;1839.25;115;11.5;-0.0032824724317474865;-0.14338534135339254;0.018949280815759525;9.612988201787518;-1.6703665577458544;-0.4446829050867944;24.99660870706688;5;1;0;0;0;0;0;0;0;0;0;0;0;0;0;0;0;0
116;2022-05-02 00:46:39.197;5.174388988679682;52.369576140190006;25;-0.02;-0.28;8.97374153;-3.9050622;-0.9864412;0.0;7.450979240000002;3.5294113200000012;26.27450943;34.11764526;1839.25;116;11.600000000000001;-0.004802269484556183;-0.15580503408211122;0.020092653065788633;9.554874033658649;-1.8735236237148685;-0.4939343662602375;24.99691701085067;5;1;0;0;0;0;0;0;0;0;0;0;0;0;0;0;0;0
117;2022-05-02 00:46:39.301;5.174388988679682;52.369576140190006;25;-0.12;-0.11;10.84367085;-2.61694241;-0.23224466;-0.05;7.450979240000002;3.9215688699999998;26.27450943;49.01960754;1839.25;117;11.700000000000001;-0.015274927125254018;-0.15164088572592346;0.0256775934066593;9.672038909785742;-1.9411080318242238;-0.4701440824630161;24.99719728624956;5;1;0;0;0;0;0;0;0;0;0;0;0;0;0;0;0;0
118;2022-05-02 00:46:39.397;5.174388988679682;52.369576140190006;25;0.0;-0.28999999;10.37199879;-1.23065722;-0.79011071;0.05;7.450979240000002;3.9215688699999998;26.27450943;49.01960754;1939.25;118;11.8;-0.013886280910203892;-0.1642191353563437;0.02166378229097726;9.735672381184731;-1.8765208280536794;-0.49923230282755005;24.997452081431856;5;1;0;0;0;0;0;0;0;0;0;0;0;0;0;0;0;0
119;2022-05-02 00:46:39.498;5.174483137631255;52.36955407352728;25;-0.01;-0.18000001;10.25946712;-2.29132104;-0.69194543;-0.07;7.450979240000002;3.9215688699999998;27.05882263;49.01960754;1939.25;119;11.9;-0.013532978834771345;-0.16565377579859938;0.028924079940862834;9.783290598344019;-1.9142303449817306;-0.5167518669986205;24.99768371289107;5;1;0;0;0;0;0;0;0;0;0;0;0;0;0;0;0;0
120;2022-05-02 00:46:39.598;5.174483137631255;52.36955407352728;25;0.01;-0.27000001;10.03919411;-2.281744;-0.8092649;-0.04;7.450979240000002;3.9215688699999998;27.05882263;49.01960754;1939.25;120;12.0;-0.011393596144060877;-0.17513989010901776;0.03279703746932097;9.806554782074125;-1.9476410048759252;-0.5433442216683879;24.997894286511283;5;1;0;0;0;0;0;0;0;0;0;0;0;0;0;0;0;0
121;2022-05-02 00:46:39.699;5.174483137631255;52.36955407352728;25;0.0;-0.27000001;9.67287064;-3.06946039;-0.66560841;-0.01;7.450979240000002;3.9215688699999998;27.05882263;49.01960754;1939.25;121;12.100000000000001;-0.01035780544296012;-0.1837636142472127;0.03359060431901435;9.794401569910535;-2.049625494472898;-0.554459246964201;24.998085716716744;5;1;0;0;0;0;0;0;0;0;0;0;0;0;0;0;0;0
122;2022-05-02 00:46:39.801;5.174483137631255;52.36955407352728;25;-0.03;-0.22;9.62259007;-2.05189347;-0.98165268;-0.01;7.450979240000002;3.9215688699999998;27.05882263;49.01960754;1939.25;122;12.200000000000001;-0.012143473964667577;-0.18705785783039772;0.034312027500066816;9.778782216066613;-2.0498316757371646;-0.593295328331635;24.998259743880087;5;1;0;0;0;0;0;0;0;0;0;0;0;0;0;0;0;0
123;2022-05-02 00:46:39.897;5.174483137631255;52.36955407352728;25;-0.06;-0.25;9.26584339;-2.59060526;-0.96249849;0.0;7.450979240000002;3.5294113200000012;27.05882263;47.45098114;1939.25;123;12.3;-0.016494099292871857;-0.1927799129108758;0.034058768134228666;9.73215107015232;-2.098993272857288;-0.6268594993962372;24.998417950147452;5;1;0;0;0;0;0;0;0;0;0;0;0;0;0;0;0;0
124;2022-05-02 00:46:39.997;5.174483137631255;52.36955407352728;25;0.03;-0.25;9.91948032;-2.73665619;-0.79250497;0.0;7.450979240000002;3.5294113200000012;27.05882263;47.45098114;1939.25;124;12.4;-0.012267334684657466;-0.19798177384948173;0.033828532670927336;9.749181116015816;-2.1569630172149936;-0.6419182793985921;24.99856177382458;5;1;0;0;0;0;0;0;0;0;0;0;0;0;0;0;0;0
125;2022-05-02 00:46:40.100;5.174483137631255;52.36955407352728;25;-0.06;-0.28;10.1062336;-2.55708551;-0.6847626;0.02;7.450979240000002;3.5294113200000012;27.05882263;47.45098114;1939.25;125;12.5;-0.01660669431602534;-0.20543802162535363;0.031801035083373806;9.781640630376573;-2.193338010761299;-0.6458132413501799;24.99869252245479;5;1;0;0;0;0;0;0;0;0;0;0;0;0;0;0;0;0
126;2022-05-02 00:46:40.197;5.174483137631255;52.36955407352728;26;-0.04;-0.25;10.39354706;-2.36314917;-0.73504239;0.04;7.450979240000002;3.5294113200000012;25.88235283;47.45098114;1849.25;126;12.600000000000001;-0.01873337024057309;-0.20948913299199123;0.028139665718675752;9.837268795525015;-2.208775474322504;-0.6539250270364354;25.089720978814583;5;1;0;0;0;0;0;0;0;0;0;0;0;0;0;0;0;0
127;2022-05-02 00:46:40.298;5.174483137631255;52.36955407352728;26;0.03;-0.28999999;9.51005936;-3.6512692;-1.01038396;0.01;7.450979240000002;3.5294113200000012;25.88235283;47.45098114;1849.25;127;12.700000000000001;-0.014303041561874938;-0.21680833864077653;0.027538438082539765;9.807522333521856;-2.339911927437962;-0.6863305476415306;25.17247403351338;5;1;0;0;0;0;0;0;0;0;0;0;0;0;0;0;0;0
128;2022-05-02 00:46:40.398;5.174483137631255;52.36955407352728;26;-0.01;-0.34999999;9.23950672;-3.89069653;-0.99122977;0.02;7.450979240000002;3.5294113200000012;25.88235283;47.45098114;1849.25;128;12.8;-0.013911854175854227;-0.22891672597233978;0.026082772961550864;9.755884314256305;-2.480892990770541;-0.7140487855621022;25.24770401096987;5;1;0;0;0;0;0;0;0;0;0;0;0;0;0;0;0;0
129;2022-05-02 00:46:40.498;5.174548411808892;52.369495708742754;26;-0.09;-0.33000001;8.99289608;-3.12692285;-0.99841261;-0.01;7.84313775;3.5294113200000012;25.88235283;47.45098114;1849.25;129;12.9;-0.020828987107525055;-0.23810615364488635;0.027486726258122693;9.68652145905085;-2.5396232222108854;-0.7399001498356031;25.316094839839728;5;1;0;0;0;0;0;0;0;0;0;0;0;0;0;0;0;0
130;2022-05-02 00:46:40.598;5.174548411808892;52.369495708742754;26;0.03;-0.25999999;10.02004051;-2.97368932;-0.94573855;0.06;7.84313775;3.9215688699999998;25.88235283;36.47058868;1849.25;130;13.0;-0.016208152628323202;-0.24009650992914003;0.022399386001568503;9.716841487400742;-2.5790839257396327;-0.7586128024133796;25.378268271269466;5;1;0;0;0;0;0;0;0;0;0;0;0;0;0;0;0;0
131;2022-05-02 00:46:40.698;5.174548411808892;52.369495708742754;27;0.05;-0.28;9.78540134;-2.7605989;-1.5371244;0.0;7.84313775;3.9215688699999998;25.49019623;36.47058868;1968.25;131;13.100000000000001;-0.010189208975668242;-0.24372411240325043;0.023229098762147828;9.723074222694626;-2.595585343749579;-0.8293868272546605;25.52569893512968;5;1;0;0;0;0;0;0;0;0;0;0;0;0;0;0;0;0
132;2022-05-02 00:46:40.799;5.174548411808892;52.369495708742754;27;-0.03;-0.31999999;9.14852428;-3.0119977;-1.04150951;0.0;7.84313775;3.9215688699999998;25.49019623;36.47058868;1968.25;132;13.200000000000001;-0.011990195604963758;-0.2506583047593662;0.023983382595034505;9.670842246526455;-2.6334411307779386;-0.8486707677558468;25.659726723425788;5;1;0;0;0;0;0;0;0;0;0;0;0;0;0;0;0;0
133;2022-05-02 00:46:40.898;5.174548411808892;52.369495708742754;27;0.0;-0.30000001;8.41827011;-3.41902447;-1.96330535;-0.05;7.84313775;3.9215688699999998;25.49019623;36.47058868;1968.25;133;13.3;-0.01090017472659414;-0.2551439270676782;0.029214562217788308;9.556971728858448;-2.7048580008327416;-0.9500014721436837;25.781570094653357;5;1;0;0;0;0;0;0;0;0;0;0;0;0;0;0;0;0
134;2022-05-02 00:46:41.000;5.174548411808892;52.369495708742754;27;-0.01;-0.23999999;9.83807564;-2.52117133;-1.72387791;-0.07;9.01960755;3.9215688699999998;25.49019623;36.47058868;1968.25;134;13.4;-0.01081834044922881;-0.2537672019611109;0.035788363990949375;9.582526695858991;-2.688159169455733;-1.0203540572486196;25.89233673570493;5;1;0;0;0;0;0;0;0;0;0;0;0;0;0;0;0;0
135;2022-05-02 00:46:41.099;5.174548411808892;52.369495708742754;27;-0.02;-0.46000001;10.4366436;-4.47729397;-0.74222517;-0.15000001;9.01960755;4.705882070000001;25.49019623;48.23529434;1968.25;135;13.5;-0.01165303873143176;-0.2725156830665221;0.049037289729216796;9.660173869416752;-2.8508081694960783;-0.9950695535993918;25.993033632475488;5;1;0;0;0;0;0;0;0;0;0;0;0;0;0;0;0;0
136;2022-05-02 00:46:41.200;5.174548411808892;52.369495708742754;27;-0.01;-0.28;9.74948692;-3.38311028;-0.8092649;-0.03;9.01960755;4.705882070000001;25.49019623;48.23529434;1932.25;136;13.600000000000001;-0.011502762162423883;-0.2731960769670065;0.05017264717672931;9.668293254978668;-2.8991993737196453;-0.9781781854071722;26.084576224878536;5;1;0;0;0;0;0;0;0;0;0;0;0;0;0;0;0;0
137;2022-05-02 00:46:41.302;5.174548411808892;52.369495708742754;29;-0.02;-0.34999999;9.12218666;-3.38550448;-1.07742369;-0.04;9.01960755;4.705882070000001;27.84313774;48.23529434;1932.25;137;13.700000000000001;-0.012275239828109562;-0.2801782644247812;0.05211388256309023;9.618647104574455;-2.943409014604269;-0.9872005215101632;26.349615264074455;5;1;0;0;0;0;0;0;0;0;0;0;0;0;0;0;0;0
138;2022-05-02 00:46:41.398;5.174548411808892;52.369495708742754;29;0.06;-0.44999999;9.81173801;-4.7981267;-1.17319465;0.03;9.01960755;4.705882070000001;27.84313774;48.23529434;1932.25;138;13.8;-0.005704751891942208;-0.2956166303415849;0.047514993764624903;9.636200854208486;-3.1120200106503773;-1.0041091084667315;26.590559755922797;5;1;0;0;0;0;0;0;0;0;0;0;0;0;0;0;0;0
139;2022-05-02 00:46:41.500;5.174574908665742;52.36942377313228;29;-0.01;-0.34999999;9.86441231;-2.94016957;-1.55149007;0.0;11.76470566;4.705882070000001;27.84313774;48.23529434;1932.25;139;13.9;-0.006095229618741058;-0.3005605800555176;0.0460614642737108;9.656947383453154;-3.0963972182699666;-1.0538710938457618;26.80960012930657;5;1;0;0;0;0;0;0;0;0;0;0;0;0;0;0;0;0
140;2022-05-02 00:46:41.600;5.174574908665742;52.36942377313228;29;0.03;-0.25;9.62019634;-3.67760611;-0.99841261;-0.06;11.76470566;5.88235283;27.84313774;56.86274338;1932.25;140;14.0;-0.0028138403250701086;-0.2959641569871954;0.050194627636866634;9.653606374633092;-3.1492344672597627;-1.048829406147501;27.008727680522366;5;1;0;0;0;0;0;0;0;0;0;0;0;0;0;0;0;0
141;2022-05-02 00:46:41.704;5.174574908665742;52.36942377313228;29;-0.03;-0.34;9.23711205;-3.25381947;-1.42219925;-0.06;11.76470566;5.88235283;27.84313774;56.86274338;1932.25;141;14.100000000000001;-0.005285312661300361;-0.2999674207475082;0.05395204783054042;9.615743204040564;-3.1587422073800204;-1.0827721642015196;27.189752676709244;5;1;0;0;0;0;0;0;0;0;0;0;0;0;0;0;0;0
142;2022-05-02 00:46:41.799;5.174574908665742;52.36942377313228;30;0.01;-0.34;11.04000092;-2.6217308;-1.15404046;-0.08;11.76470566;5.88235283;27.84313774;56.86274338;2077.5;142;14.200000000000001;-0.0038957371091054246;-0.30360675051806696;0.059186067514528234;9.745221334189187;-3.109922929719161;-1.089251107987792;27.445230013849553;5;1;0;0;0;0;0;0;0;0;0;0;0;0;0;0;0;0
143;2022-05-02 00:46:41.898;5.174574908665742;52.36942377313228;30;0.05;-0.25999999;11.07831001;-2.116539;-1.85316873;-0.08;11.76470566;5.88235283;36.07843018;56.86274338;2077.5;143;14.3;0.001003880720924734;-0.29964249522062747;0.0639442661329964;9.8664113465234;-3.019615200848799;-1.158698240585834;27.677482085111304;5;1;0;0;0;0;0;0;0;0;0;0;0;0;0;0;0;0
144;2022-05-02 00:46:42.001;5.174574908665742;52.36942377313228;30;-0.06;-0.25;9.11260986;-2.42779469;-2.52835417;-0.05;11.76470566;5.88235283;36.07843018;56.86274338;2077.5;144;14.4;-0.00454193213844432;-0.29512953661681046;0.06554262489396118;9.797883870435488;-2.96581328266398;-1.2832125399466403;27.888620287571378;5;1;0;0;0;0;0;0;0;0;0;0;0;0;0;0;0;0
145;2022-05-02 00:46:42.098;5.174574908665742;52.36942377313228;30;-0.08;-0.19;9.05275345;-1.61134696;-2.27695537;-0.11;13.725490570000002;5.88235283;36.07843018;56.86274338;2077.5;145;14.5;-0.011401762697918644;-0.2855722973655946;0.07245022842798862;9.730144679998284;-2.8426798691629043;-1.373552878985875;28.080564071509038;5;1;0;0;0;0;0;0;0;0;0;0;0;0;0;0;0;0
146;2022-05-02 00:46:42.198;5.174574908665742;52.36942377313228;30;0.03;-0.15000001;10.28819847;-1.36473668;-3.43339014;-0.22;13.725490570000002;6.66666603;36.07843018;76.07843018;2077.5;146;14.600000000000001;-0.007637962992298041;-0.2732475338283506;0.08872987514702421;9.780876884466345;-2.7083212868754174;-1.560810965874554;28.255058390394044;5;1;0;0;0;0;0;0;0;0;0;0;0;0;0;0;0;0
147;2022-05-02 00:46:42.300;5.174574908665742;52.36942377313228;30;-0.07;-0.09;10.53002071;-0.70391679;-1.81725454;-0.1;13.725490570000002;6.66666603;36.07843018;76.07843018;2245.25;147;14.700000000000001;-0.013307243324343467;-0.2565886546563859;0.09262045258913754;9.848980919545358;-2.526102559956735;-1.5841240355051893;28.413689564463695;5;1;0;0;0;0;0;0;0;0;0;0;0;0;0;0;0;0
148;2022-05-02 00:46:42.397;5.174574908665742;52.36942377313228;33;-0.08;-0.08;8.85642242;-0.58659732;-1.89147711;-0.11;13.725490570000002;6.66666603;45.09803772;76.07843018;2245.25;148;14.8;-0.01937022532659599;-0.24053512968079507;0.09706643219507707;9.75874826732208;-2.3497837818873264;-1.6120652430948164;28.83062716029034;5;1;0;0;0;0;0;0;0;0;0;0;0;0;0;0;0;0
149;2022-05-02 00:46:42.497;5.1745561573860055;52.36934200759568;33;-0.02;-0.03;10.0966568;-0.29928434;-2.21949267;-0.09;13.725490570000002;6.66666603;45.09803772;76.07843018;2245.25;149;14.9;-0.019427477605023488;-0.22139556060587043;0.09929004837006355;9.789467243827337;-2.1633746264860423;-1.66728595240296;29.209661289111157;5;1;0;0;0;0;0;0;0;0;0;0;0;0;0;0;0;0
150;2022-05-02 00:46:42.598;5.1745561573860055;52.36934200759568;33;0.02;-0.15000001;10.18285084;-0.57223165;-1.63528967;-0.14;13.725490570000002;6.66666603;45.09803772;76.07843018;2245.25;150;15.0;-0.01584315944487283;-0.21490505235793794;0.10585697448130932;9.82522940903081;-2.0187251837002718;-1.6643771978226358;29.55423772919339;5;1;0;0;0;0;0;0;0;0;0;0;0;0;0;0;0;0
151;2022-05-02 00:46:42.698;5.1745561573860055;52.36934200759568;33;-0.04;0.0;9.8787775;-0.73264807;-2.00161386;-0.13;13.725490570000002;6.66666603;45.09803772;72.15686035;2245.25;151;15.100000000000001;-0.018039236980889193;-0.1953682194354919;0.11091781529572162;9.830097419787664;-1.9018090227256332;-1.695035091864647;29.86748900475248;5;1;0;0;0;0;0;0;0;0;0;0;0;0;0;0;0;0
152;2022-05-02 00:46:42.799;5.1745561573860055;52.36934200759568;33;-0.08;-0.11;9.73272705;0.50279772;-2.17879009;-0.12;13.725490570000002;6.66666603;45.09803772;72.15686035;2245.25;152;15.200000000000001;-0.023672036235024542;-0.18760746860976713;0.11460948789244793;9.82124556387773;-1.6832083082261018;-1.7390128393923947;30.15226286385035;5;1;0;0;0;0;0;0;0;0;0;0;0;0;0;0;0;0
153;2022-05-02 00:46:42.903;5.1745561573860055;52.36934200759568;36;-0.06;0.06;9.32330608;0.7589851;-2.22188711;-0.14;13.725490570000002;6.66666603;45.09803772;72.15686035;2438.5;153;15.3;-0.026974579789837257;-0.1650976892323424;0.11978373617774365;9.775978318958469;-1.4611906319224475;-1.7829105188906753;30.68387555522419;5;1;0;0;0;0;0;0;0;0;0;0;0;0;0;0;0;0
154;2022-05-02 00:46:42.997;5.1745561573860055;52.36934200759568;36;-0.06;-0.01;9.94821167;0.38068968;-1.4772675;-0.12;13.725490570000002;6.66666603;39.60784149;72.15686035;2438.5;154;15.4;-0.029976891870397742;-0.15099789389026874;0.1226694153600914;9.791635902335662;-1.2937469029330555;-1.7551247792357392;31.167159781155156;5;1;0;0;0;0;0;0;0;0;0;0;0;0;0;0;0;0
155;2022-05-02 00:46:43.101;5.1745561573860055;52.36934200759568;36;0.0;0.03;9.5962534;0.96010423;-2.26019549;-0.13;13.725490570000002;6.66666603;39.60784149;72.15686035;2438.5;155;15.5;-0.027251718931279027;-0.13454353415878748;0.12620185110539114;9.77387385047103;-1.088851273898993;-1.801040314417538;31.60650904526236;5;1;0;0;0;0;0;0;0;0;0;0;0;0;0;0;0;0
156;2022-05-02 00:46:43.199;5.1745561573860055;52.36934200759568;36;0.0;-0.03;9.90750885;0.26815879;-1.786129;-0.15000001;13.725490570000002;6.66666603;39.60784149;72.15686035;2438.5;156;15.600000000000001;-0.024774289151658063;-0.12503957349322642;0.13123133941849258;9.786022490645529;-0.965486683502826;-1.7996847399495768;32.005917440571665;5;1;0;0;0;0;0;0;0;0;0;0;0;0;0;0;0;0
157;2022-05-02 00:46:43.303;5.1745561573860055;52.36934200759568;36;0.06;-0.03;9.59864807;0.11253092;-1.32882249;-0.06;13.33333207;6.66666603;39.60784149;72.15686035;2438.5;157;15.700000000000001;-0.01706753336999025;-0.11639960977503062;0.12762177979409098;9.768988447492855;-0.8674850549232888;-1.756879068519219;32.369015959773236;5;1;0;0;0;0;0;0;0;0;0;0;0;0;0;0;0;0
158;2022-05-02 00:46:43.398;5.1745561573860055;52.36934200759568;36;0.0;-0.05;9.21795845;-0.26097596;-1.63050115;-0.09;13.33333207;6.66666603;39.60784149;69.80392456;2438.5;158;15.8;-0.015515939020501041;-0.11036328003119227;0.12706763557662756;9.718894798224692;-0.8123478500210594;-1.745390163823746;32.69910550451127;5;1;0;0;0;0;0;0;0;0;0;0;0;0;0;0;0;0
159;2022-05-02 00:46:43.496;5.174534003322584;52.36925219398451;36;0.01;-0.03;9.87398911;-0.00718282;-1.63528967;-0.03;13.33333207;6.66666603;39.60784149;69.80392456;2635.75;159;15.9;-0.013196307647628358;-0.10305752555993684;0.12110932137691638;9.732994284473621;-0.7391510116653865;-1.7353810256361548;32.9991868938;5;1;0;0;0;0;0;0;0;0;0;0;0;0;0;0;0;0
160;2022-05-02 00:46:43.598;5.174534003322584;52.36925219398451;39;0.05;0.0;10.18763924;-0.36153549;-1.74063778;-0.01;13.33333207;6.66666603;37.64706039;69.80392456;2635.75;160;16.0;-0.007451187525836515;-0.09368865757008854;0.11387449013879286;9.77432565302176;-0.7048223204399878;-1.7358589125000432;33.544715476193936;5;1;0;0;0;0;0;0;0;0;0;0;0;0;0;0;0;0
161;2022-05-02 00:46:43.706;5.174534003322584;52.36925219398451;39;-0.04;-0.05;10.61142635;-0.23942748;-1.6185298;0.01;13.33333207;6.66666603;37.64706039;69.80392456;2635.75;161;16.1;-0.010410171060843946;-0.08971696064507524;0.10547918892715571;9.850425731372331;-0.6625136902485655;-1.7251926274446285;34.040650530584514;5;1;0;0;0;0;0;0;0;0;0;0;0;0;0;0;0;0
162;2022-05-02 00:46:43.800;5.174534003322584;52.36925219398451;39;-0.02;-0.03;9.18204403;0.46209505;-1.80767751;-0.03;13.33333207;6.66666603;37.64706039;69.80392456;2635.75;162;16.2;-0.011281973847779072;-0.08428814506890779;0.10148346149104057;9.789663747640418;-0.5602765137378255;-1.7326912544741655;34.4915005630776;5;1;0;0;0;0;0;0;0;0;0;0;0;0;0;0;0;0
163;2022-05-02 00:46:43.898;5.174534003322584;52.36925219398451;39;0.0;-0.05;10.46537495;0.00718282;-0.60575151;-0.12;13.33333207;6.66666603;37.64706039;69.80392456;2635.75;163;16.3;-0.010256339694665152;-0.08117104046433371;0.10603280164148515;9.851092048763283;-0.5086892931825009;-1.630242170118088;34.90136421496975;5;1;0;0;0;0;0;0;0;0;0;0;0;0;0;0;0;0
164;2022-05-02 00:46:44.003;5.174534003322584;52.36925219398451;39;0.03;-0.01;10.41749001;0.0;-2.1213274;-0.09;13.33333207;6.66666603;37.64706039;67.05882263;2635.75;164;16.400000000000002;-0.006596671908133056;-0.07470094491921361;0.10744129215523501;9.902582780131741;-0.4624448051407705;-1.6748862885320308;35.27396752329266;5;1;0;0;0;0;0;0;0;0;0;0;0;0;0;0;0;0
165;2022-05-02 00:46:44.099;5.174534003322584;52.36925219398451;41;-0.03;-0.02;9.84765244;-0.02394275;-1.90105414;-0.11;13.33333207;6.66666603;40.7843132;67.05882263;2187.25;165;16.5;-0.008724247475431395;-0.06972813107575451;0.11053992010343103;9.897589112175247;-0.4225809765833343;-1.6954470050678483;35.79451600029466;5;1;0;0;0;0;0;0;0;0;0;0;0;0;0;0;0;0
