;device_time;lon;lat;raw_speed_kph;raw_g_x;raw_g_y;raw_roll;raw_yaw;raw_pitch;raw_g_z;apps_d;apps_e;engine_load;engine_load_abs;engine_rpm;num_samples;cumulative_time;g_x;g_y;g_z;roll;yaw;pitch;speed_kph;sample_nr;roundabout_1;roundabout_2;roundabout_3;roundabout_4;turning_right_1;turning_right_2;turning_right_3;turning_left_1;turning_left_2;road_50km_1;road_50km_2;road_100km;entering_highway;exiting_highway;speed_bumps;road_50km_3;road_50km_4
0;2022-05-02 00:57:40.329;5.173680827793369;52.36977832539708;0;0.02;0.03;10.09905148;0.29210153;-1.01038396;-0.03;0.0;0.0;0.0;53.33333206;0.0;0;0.0;0.02;0.03;0.07162289;10.09905148;0.29210153;-1.01038396;0.0;9;0;0;0;0;0;0;0;0;0;0;0;0;0;0;0;0;0
1;2022-05-02 00:57:40.427;5.173680827793369;52.36977832539708;0;0.01;0.0;9.74948692;-0.07661679;-0.87151605;0.0;0.0;0.0;0.0;53.33333206;0.0;1;0.1;0.014761904761904763;0.014285714285714285;0.055908604285714286;9.915946234285714;0.09896336238095237;-0.9376436261904761;0.0;9;0;0;0;0;0;0;0;0;0;0;0;0;0;0;0;0;0
2;2022-05-02 00:57:40.527;5.173680827793369;52.36977832539708;0;0.0;0.01;9.80934429;0.24421602;-1.07263517;-0.02;0.0;0.0;0.0;53.33333206;0.0;2;0.2;0.009365558912386707;0.0127190332326284;0.05799751235649547;9.87697694347432;0.15206176592145015;-0.9869909881268882;0.0;9;0;0;0;0;0;0;0;0;0;0;0;0;0;0;0;0;0
3;2022-05-02 00:57:40.629;5.173680827793369;52.36977832539708;0;-0.02;0.0;9.62737942;0.0670397;-1.13728058;-0.02;0.0;0.0;0.0;53.33333206;0.0;3;0.30000000000000004;0.0009437621202327089;0.00907132083602672;0.059037240355526835;9.80539446044387;0.12767814822236587;-1.0300927866149536;0.0;9;0;0;0;0;0;0;0;0;0;0;0;0;0;0;0;0;0
4;2022-05-02 00:57:40.729;5.173680827793369;52.36977832539708;0;0.0;0.0;10.17566776;0.46927786;-1.43895912;-0.04;0.0;0.0;0.0;53.33333206;0.0;4;0.4;0.000717432965880985;0.006895873941458782;0.06445363806309479;9.894191881924291;0.2095991876834122;-1.128145430913826;0.0;9;0;0;0;0;0;0;0;0;0;0;0;0;0;0;0;0;0
5;2022-05-02 00:57:40.827;5.173680827793369;52.36977832539708;0;0.05;0.0;10.33847904;0.45491222;-1.95851684;-0.06;0.0;0.0;0.0;53.33333206;0.0;5;0.5;0.011004379433382455;0.005456470713268297;0.07221212403334279;9.986929709646597;0.260804353791625;-1.3014721617941287;0.0;9;0;0;0;0;0;0;0;0;0;0;0;0;0;0;0;0;0
6;2022-05-02 00:57:40.928;5.173680827793369;52.36977832539708;0;-0.08;-0.04;9.66808128;-0.06943397;-3.20593405;-0.15000001;0.0;0.0;0.0;53.33333206;0.0;6;0.6000000000000001;-0.0059890751415780305;-0.0030317193608084;0.09450996958522197;9.927390417809953;0.19913820113825603;-1.6570966579829167;0.0;9;0;0;0;0;0;0;0;0;0;0;0;0;0;0;0;0;0
7;2022-05-02 00:57:41.028;5.173680827793369;52.36977832539708;0;-0.03;0.01;9.45977974;0.2466103;-4.05111313;-0.31999999;0.0;0.0;0.0;53.33333206;0.0;7;0.7000000000000001;-0.010080624433532187;-0.0008110667854471217;0.1400269851072649;9.847707850437608;0.20722762016857785;-2.0650458085785197;0.0;9;0;0;0;0;0;0;0;0;0;0;0;0;0;0;0;0;0
8;2022-05-02 00:57:41.129;5.173680827793369;52.36977832539708;0;0.03;-0.03;10.14214802;-0.21069619;-4.54672766;-0.37;0.0;0.0;0.0;53.33333206;0.0;8;0.8;-0.0037536960398277955;-0.005418686874883458;0.18289976632177277;9.894186713863022;0.1412562422688729;-2.4567917853892838;0.0;9;0;0;0;0;0;0;0;0;0;0;0;0;0;0;0;0;0
9;2022-05-02 00:57:41.228;5.173680827793369;52.36977832539708;0;-0.01;-0.02;9.4214716;-0.2370332;-4.76460695;-0.33000001;0.0;0.0;0.0;53.33333206;0.0;9;0.9;-0.0046778389530590875;-0.007575997386204041;0.21082142169807105;9.824248343069778;0.08528818348529764;-2.7982338674623923;0.0;9;0;0;0;0;0;0;0;0;0;0;0;0;0;0;0;0;0
10;2022-05-02 00:57:41.331;5.173680827793369;52.36977832539708;0;-0.01;-0.02;9.78779507;-0.51237482;-5.14529657;-0.33000001;0.0;0.0;0.0;53.33333206;0.0;10;1.0;-0.0054227631686482106;-0.009314941457969543;0.23332824064495095;9.819146106288956;0.0016353890412388703;-3.126744002200095;0.0;9;0;0;0;0;0;0;0;0;0;0;0;0;0;0;0;0;0
11;2022-05-02 00:57:41.427;5.173680827793369;52.36977832539708;0;-0.05;-0.09;9.25866032;-0.81644773;-4.85319519;-0.40000001;0.0;0.0;0.0;53.33333206;0.0;11;1.1;-0.01137031140081168;-0.020080038431323312;0.2611191631218892;9.744365422595903;-0.10751423875701131;-3.3570891837276795;0.0;9;0;0;0;0;0;0;0;0;0;0;0;0;0;0;0;0;0
12;2022-05-02 00:57:41.527;5.173757814275375;52.36977476434799;0;-0.12;-0.16;9.67526436;-0.9433443;-5.58344889;-0.43000001;0.0;0.0;0.0;53.33333206;0.0;12;1.2000000000000002;-0.02527279067198938;-0.03798706173606509;0.2880595315993447;9.735521835702265;-0.21448416797712197;-3.6420197590222445;0.0;9;0;0;0;0;0;0;0;0;0;0;0;0;0;0;0;0;0
13;2022-05-02 00:57:41.627;5.173757814275375;52.36977476434799;0;0.06;-0.07;8.26024818;-0.61054009;-4.38152313;-0.38999999;0.0;0.0;0.0;53.33333206;0.0;13;1.3;-0.014749645873753721;-0.04193763943046936;0.30577606099910204;9.553464720253869;-0.2633597094341522;-3.7332786587282034;0.0;9;0;0;0;0;0;0;0;0;0;0;0;0;0;0;0;0;0
14;2022-05-02 00:57:41.729;5.173757814275375;52.36977476434799;0;-0.09;-0.14;9.63934994;-2.12372184;-4.13012409;-0.38;0.0;0.0;0.0;53.33333206;0.0;14;1.4000000000000001;-0.023743689754744494;-0.053658211170985286;0.31962226113471437;9.563729860452801;-0.48571319641936184;-3.780710265718931;0.0;9;0;0;0;0;0;0;0;0;0;0;0;0;0;0;0;0;0
15;2022-05-02 00:57:41.827;5.173757814275375;52.36977476434799;13;0.01;-0.13;10.37439251;-1.45332479;-4.29772329;-0.27000001;0.0;0.0;0.0;53.33333206;2572.25;15;1.5;-0.019822776668825412;-0.06252889250422829;0.3186927599456014;9.65792636990324;-0.5981466910055281;-3.840785590830916;1.5105600628568256;9;0;0;0;0;0;0;0;0;0;0;0;0;0;0;0;0;0
16;2022-05-02 00:57:41.927;5.173757814275375;52.36977476434799;13;0.23;-0.09;12.09827042;-0.78292787;-2.60257673;-0.17;0.0;0.0;46.66666794;53.33333206;2572.25;16;1.6;0.008489896244795514;-0.06564222144674403;0.30655842116714677;9.934493077744625;-0.6190881325795243;-3.7004581037102127;2.812670139602365;9;0;0;0;0;0;0;0;0;0;0;0;0;0;0;0;0;0
17;2022-05-02 00:57:42.026;5.173757814275375;52.36977476434799;13;0.09;-0.18000001;10.78141975;-1.07263517;-2.54511404;-0.1;0.0;0.0;46.66666794;53.33333206;2572.25;17;1.7000000000000002;0.017524937212278494;-0.07831828560232978;0.28827603392391393;10.028371220793765;-0.6693618517258195;-3.572393232408984;3.941891406629378;9;0;0;0;0;0;0;0;0;0;0;0;0;0;0;0;0;0
18;2022-05-02 00:57:42.128;5.173757814275375;52.36977476434799;13;-0.04;-0.03;8.53558922;-0.21309046;-3.18917394;-0.23;0.0;0.0;46.66666794;53.33333206;2572.25;18;1.8;0.011273186222166576;-0.07306710403666962;0.28646618737630947;9.86613720883744;-0.6197747463204654;-3.5307453539957154;4.926317328871997;9;0;0;0;0;0;0;0;0;0;0;0;0;0;0;0;0;0
19;2022-05-02 00:57:42.228;5.173757814275375;52.36977476434799;13;-0.58999997;-0.64999998;6.05751514;-1.68078089;-4.00801611;-0.23999999;15.68627549;0.0;46.66666794;53.33333206;2572.25;19;1.9000000000000001;-0.05293164951934251;-0.13467284869994098;0.2859490118607827;9.459446918741;-0.7330705495186144;-3.581709030282236;5.788437089856815;9;0;0;0;0;0;0;0;0;0;0;0;0;0;0;0;0;0
20;2022-05-02 00:57:42.331;5.173757814275375;52.36977476434799;13;0.02;-0.23;10.06553173;-3.04072905;-1.79810035;0.04;15.68627549;7.450980190000001;46.66666794;92.94117737;2572.25;20;2.0;-0.045265579088987165;-0.14469297933743025;0.2560626170001197;9.52315436099003;-0.9756356458860932;-3.3942284254508532;6.546466690811251;9;0;0;0;0;0;0;0;0;0;0;0;0;0;0;0;0;0
21;2022-05-02 00:57:42.428;5.173757814275375;52.36977476434799;13;0.08;-0.28;10.45819283;-2.08062482;-2.60497093;-0.09;15.68627549;7.450980190000001;46.66666794;92.94117737;2916.5;21;2.1;-0.0322829334257433;-0.15871632970859215;0.24316556344540227;9.620062651463304;-1.09015779166287;-3.312429015948115;7.215317119144959;9;0;0;0;0;0;0;0;0;0;0;0;0;0;0;0;0;0
22;2022-05-02 00:57:42.529;5.17381042253998;52.36975874121297;18;0.12;-0.23999999;11.38238239;-1.3934679;-3.05270028;-0.19;15.68627549;7.450980190000001;42.35293961;92.94117737;2916.5;22;2.2;-0.01669860083258229;-0.16703473787078132;0.2419843091975314;9.800414949143732;-1.1211979450199003;-3.2858488935800994;8.319000119899412;9;0;0;0;0;0;0;0;0;0;0;0;0;0;0;0;0;0
23;2022-05-02 00:57:42.627;5.17381042253998;52.36975874121297;18;0.16;-0.04;9.1940155;1.16601181;-1.87950575;-0.22;15.68627549;7.450980190000001;42.35293961;92.94117737;2916.5;23;2.3000000000000003;0.0011800489439139565;-0.15418115794915752;0.24397137251676745;9.73905847362657;-0.8897743684736945;-3.1435528232593826;9.298539321268713;9;0;0;0;0;0;0;0;0;0;0;0;0;0;0;0;0;0
24;2022-05-02 00:57:42.730;5.17381042253998;52.36975874121297;18;-0.22;-0.38;7.60182238;-3.5962007;-2.56426835;-0.16;15.68627549;7.450980190000001;42.35293961;92.94117737;2916.5;24;2.4000000000000004;-0.020971750691581914;-0.1767975456699976;0.23973005371763556;9.525008309763143;-1.1608305243542065;-3.085535865378839;10.170014910553347;9;0;0;0;0;0;0;0;0;0;0;0;0;0;0;0;0;0
25;2022-05-02 00:57:42.830;5.17381042253998;52.36975874121297;18;-0.06;-0.02;9.74948692;-0.61054009;-2.74383903;-0.28;14.509803780000002;7.450980190000001;42.35293961;92.94117737;2916.5;25;2.5;-0.024844738120213337;-0.16123766445623336;0.24785672942143555;9.547284554556333;-1.1062221836749266;-3.0516274126228002;10.947027314521398;9;0;0;0;0;0;0;0;0;0;0;0;0;0;0;0;0;0
26;2022-05-02 00:57:42.930;5.17381042253998;52.36975874121297;18;0.08;-0.06;9.77103519;-1.05108666;-2.2027328;-0.25;14.509803780000002;6.66666603;42.35293961;92.94117737;2916.5;26;2.6;-0.014526334343888225;-0.1512742545802528;0.25216402156299556;9.56930520569354;-1.1007959638579177;-2.968082567801442;11.641152945401577;9;0;0;0;0;0;0;0;0;0;0;0;0;0;0;0;0;0
27;2022-05-02 00:57:43.030;5.17381042253998;52.36975874121297;18;-0.12;-0.13;11.34886265;3.28255081;-0.2849187;-0.25999999;14.509803780000002;6.66666603;42.35293961;58.4313736;2916.5;27;2.7;-0.024829290922383087;-0.149196127117661;0.25699529833458135;9.743137251480263;-0.6726186439685266;-2.705983771376965;12.262302544074137;9;0;0;0;0;0;0;0;0;0;0;0;0;0;0;0;0;0
28;2022-05-02 00:57:43.129;5.17381042253998;52.36975874121297;18;-0.15000001;-0.16;8.26503658;-1.45571911;-2.26019549;-0.13;14.509803780000002;6.66666603;42.35293961;58.4313736;2916.5;28;2.8000000000000003;-0.0369740453385327;-0.15024437852874337;0.24871199581160222;9.599723761570196;-0.7485993758298427;-2.6627309304664366;12.819005637496302;9;0;0;0;0;0;0;0;0;0;0;0;0;0;0;0;0;0
29;2022-05-02 00:57:43.227;5.17381042253998;52.36975874121297;22;0.06;0.06;10.96817303;1.96569967;-1.83880305;-0.01;14.509803780000002;6.66666603;32.94117737;58.4313736;2520.5;29;2.9000000000000004;-0.02762228731168871;-0.12996931887086036;0.2297055738268035;9.731691097631016;-0.4868441009985052;-2.583274884853468;13.704381074029087;9;0;0;0;0;0;0;0;0;0;0;0;0;0;0;0;0;0
30;2022-05-02 00:57:43.338;5.17381042253998;52.36975874121297;22;0.04;-0.04;9.65850449;-1.00798965;-1.81486034;-0.03;14.509803780000002;6.66666603;32.94117737;58.4313736;2520.5;30;3.0;-0.02113692795386705;-0.1213407529460411;0.21454455142393503;9.724672088521205;-0.536824903147736;-2.5095795891563304;14.499977791757509;9;0;0;0;0;0;0;0;0;0;0;0;0;0;0;0;0;0
31;2022-05-02 00:57:43.433;5.17381042253998;52.36975874121297;22;0.03;-0.07;8.72713184;-1.62571263;-0.09577099;-0.02;0.0;6.66666603;32.94117737;58.4313736;2520.5;31;3.1;-0.016256990576839686;-0.11644136478779787;0.19995141567645702;9.629477986360055;-0.6407361885977821;-2.279232650547902;15.215696161377915;9;0;0;0;0;0;0;0;0;0;0;0;0;0;0;0;0;0
32;2022-05-02 00:57:43.528;5.173878093472276;52.36972230484326;22;-0.19;-0.03;7.95378113;-0.20111908;-1.42459357;-0.05;0.0;0.0;32.94117737;46.66666794;2520.5;32;3.2;-0.032762482699511784;-0.10822948178706614;0.18966026420423499;9.470287689412485;-0.5989728005510149;-2.198042399161415;15.860201364424455;9;0;0;0;0;0;0;0;0;0;0;0;0;0;0;0;0;0
33;2022-05-02 00:57:43.630;5.173878093472276;52.36972230484326;22;0.14;0.11;9.64174461;0.63687712;-0.59856868;-0.02;0.0;0.0;32.94117737;46.66666794;2520.5;33;3.3000000000000003;-0.01641699915163821;-0.08758225358986713;0.1775463332114259;9.486509650516776;-0.4820459989193052;-2.046712255293999;16.44110281951416;9;0;0;0;0;0;0;0;0;0;0;0;0;0;0;0;0;0
34;2022-05-02 00:57:43.732;5.173878093472276;52.36972230484326;24;0.05;0.01;10.27383327;-0.600963;-0.08379962;0.02;0.0;0.0;9.01960754;46.66666794;2196.0;34;3.4000000000000004;-0.010156309099836532;-0.07838382168107769;0.16284846425881516;9.560725426824181;-0.4932555159882141;-1.8616814986305847;17.153629928310707;9;0;0;0;0;0;0;0;0;0;0;0;0;0;0;0;0;0
35;2022-05-02 00:57:43.831;5.173878093472276;52.36972230484326;24;0.1;-0.01;10.56354046;-0.56504887;0.85954463;-0.01;0.0;0.0;9.01960754;46.66666794;2196.0;35;3.5;0.00019268224680061994;-0.0719592820009578;0.15239901733257522;9.654938134071012;-0.5000003752294642;-1.6060270936530436;17.79683434580415;9;0;0;0;0;0;0;0;0;0;0;0;0;0;0;0;0;0
36;2022-05-02 00:57:43.929;5.173878093472276;52.36972230484326;24;-0.05;0.03;9.32570076;0.45012367;-0.04070267;0.08;0.0;0.0;9.01960754;46.66666794;2196.0;36;3.6;-0.0045085441756462785;-0.06240941040414409;0.13453024183701648;9.624100582201818;-0.41100835356240917;-1.4594132007354517;18.377845062325072;9;0;0;0;0;0;0;0;0;0;0;0;0;0;0;0;0;0
37;2022-05-02 00:57:44.031;5.173878093472276;52.36972230484326;24;-0.04;0.14;9.59385872;2.09259629;-0.08379962;0.01;0.0;0.0;9.01960754;46.66666794;2196.0;37;3.7;-0.00782366958349779;-0.04350309721880039;0.12491804732975381;9.621275801886743;-0.17715591859428395;-1.330922232220363;18.90298972736794;9;0;0;0;0;0;0;0;0;0;0;0;0;0;0;0;0;0
38;2022-05-02 00:57:44.126;5.173878093472276;52.36972230484326;24;0.11;0.15000001;8.3105278;1.31924546;0.42618093;0.08;0.0;0.0;9.01960754;46.66666794;2196.0;38;3.8000000000000003;0.003154388449755822;-0.02547371188245697;0.10970324609285198;9.499148663234974;-0.03773078242835365;-1.167206566654552;19.3778966350109;9;0;0;0;0;0;0;0;0;0;0;0;0;0;0;0;0;0
39;2022-05-02 00:57:44.234;5.173878093472276;52.36972230484326;24;0.0;0.02;8.70558357;1.2689656;-0.38068968;-0.1;0.0;0.0;9.01960754;16.07843208;2196.0;39;3.9000000000000004;0.0028611467082035667;-0.021246334474868057;0.11267059526945211;9.425376388931435;0.08374376928482678;-1.0940895155124541;19.80758171088951;9;0;0;0;0;0;0;0;0;0;0;0;0;0;0;0;0;0
40;2022-05-02 00:57:44.330;5.173878093472276;52.36972230484326;24;0.0;0.28999999;9.87159538;3.0119977;-0.14365649;0.07;0.0;0.0;9.01960754;16.07843208;1702.5;40;4.0;0.0025957108379280154;0.007628780097262856;0.0995852402643348;9.466773261691632;0.3554053475808966;-1.005915422047697;20.19652303778424;9;0;0;0;0;0;0;0;0;0;0;0;0;0;0;0;0;0
41;2022-05-02 00:57:44.428;5.173878093472276;52.36972230484326;24;-0.46000001;0.1;11.61941528;2.05189347;-0.70631105;0.11;0.0;0.0;9.01960754;16.07843208;1702.5;41;4.1000000000000005;-0.040240649152536716;0.01618235430963289;0.08403192799474654;9.666107895094271;0.5125001339309696;-0.9781720596307135;20.54872497357775;9;0;0;0;0;0;0;0;0;0;0;0;0;0;0;0;0;0
42;2022-05-02 00:57:44.528;5.173954043567344;52.36967896038697;24;-0.11;0.09;11.1501379;2.39906335;0.67997402;-0.11;0.0;0.0;9.01960754;16.07843208;1702.5;42;4.2;-0.0466894601733595;0.02300632903525982;0.09028028517399547;9.803297088150183;0.686900977853204;-0.8248869360945406;20.867773533461126;9;0;0;0;0;0;0;0;0;0;0;0;0;0;0;0;0;0
43;2022-05-02 00:57:44.628;5.173954043567344;52.36967896038697;24;-0.07;0.15000001;8.59065819;1.90584278;-0.83081335;0.01;0.0;0.0;9.01960754;16.07843208;1702.5;43;4.3;-0.04884107039408504;0.03472810399042498;0.08486608833788148;9.69136805232719;0.7994117845300757;-0.8254339561475323;21.156884404730185;9;0;0;0;0;0;0;0;0;0;0;0;0;0;0;0;0;0
44;2022-05-02 00:57:44.728;5.173954043567344;52.36967896038697;24;0.06;0.28999999;10.57551193;2.70313621;-0.70391679;0.15000001;8.62745095;4.313725470000001;9.01960754;45.09803772;1702.5;44;4.4;-0.038808792686054895;0.058257443073806946;0.06705415829881683;9.772862812370917;0.9748849955773674;-0.8142332765449625;21.418944719871373;9;0;0;0;0;0;0;0;0;0;0;0;0;0;0;0;0;0
45;2022-05-02 00:57:44.827;5.173954043567344;52.36967896038697;24;0.04;0.1;8.79417133;2.94016957;-1.73584926;-0.19;8.62745095;4.313725470000001;9.01960754;45.09803772;2021.75;45;4.5;-0.031553873556656724;0.062100147224347965;0.08220389983179395;9.68276718578878;1.1558036490388972;-0.8990746908140862;21.656549518620597;9;0;0;0;0;0;0;0;0;0;0;0;0;0;0;0;0;0
46;2022-05-02 00:57:44.929;5.173954043567344;52.36967896038697;25;-0.06;0.14;9.20119762;1.5778271;-0.88588166;0.0;8.62745095;4.313725470000001;24.31372643;45.09803772;2021.75;46;4.6000000000000005;-0.034169542001900595;0.06926316772206845;0.07847240875849901;9.638486066532268;1.1946094044035334;-0.8978615697775097;21.96398532854705;9;0;0;0;0;0;0;0;0;0;0;0;0;0;0;0;0;0
47;2022-05-02 00:57:45.033;5.173954043567344;52.36967896038697;25;0.03;0.19;9.34485435;2.01597929;-1.06545234;-0.03;8.62745095;4.313725470000001;24.31372643;45.09803772;2021.75;47;4.7;-0.0282751915694895;0.08035355698375733;0.07784324011249603;9.61151426369066;1.270057066788152;-0.9132557692389893;22.24286116018311;9;0;0;0;0;0;0;0;0;0;0;0;0;0;0;0;0;0
48;2022-05-02 00:57:45.128;5.173954043567344;52.36967896038697;25;-0.02;0.15000001;10.49410629;1.98006523;-0.21787901;-0.02;8.62745095;4.313725470000001;24.31372643;45.09803772;2021.75;48;4.800000000000001;-0.027515785483151357;0.08674494259317363;0.0763547147418713;9.692508854680435;1.335213808594687;-0.8494417367988002;22.495881044768744;9;0;0;0;0;0;0;0;0;0;0;0;0;0;0;0;0;0
49;2022-05-02 00:57:45.227;5.173954043567344;52.36967896038697;25;-0.06;0.15000001;9.13415813;1.64965534;-0.64166564;-0.04;8.62745095;4.313725470000001;24.31372643;45.09803772;2021.75;49;4.9;-0.030494268251975296;0.09254480973215921;0.07683775456483954;9.641313588390142;1.364045002361357;-0.8303907136082059;22.72548410798498;9;0;0;0;0;0;0;0;0;0;0;0;0;0;0;0;0;0
50;2022-05-02 00:57:45.327;5.173954043567344;52.36967896038697;25;-0.04;0.16;9.3687973;1.73345494;-0.97207558;0.0;8.62745095;4.313725470000001;24.31372643;45.88235474;2021.75;50;5.0;-0.03136517006704214;0.09872495968770045;0.07361141804706176;9.616346028134345;1.3978898229097674;-0.843371682415132;22.93387206498428;9;1;0;0;0;0;0;0;0;0;0;0;0;0;0;0;0;0
51;2022-05-02 00:57:45.427;5.173954043567344;52.36967896038697;25;0.04;0.2;10.13257122;1.7454263;-1.18037748;-0.01;8.62745095;4.313725470000001;24.31372643;45.88235474;2021.75;51;5.1000000000000005;-0.024831428979541735;0.10799705826751341;0.07159828826652906;9.663608323499533;1.4297080524135495;-0.8742257898787249;23.123033598101383;9;1;0;0;0;0;0;0;0;0;0;0;0;0;0;0;0;0
52;2022-05-02 00:57:45.527;5.174044620517335;52.36964835935401;26;-0.01;0.19;10.5922718;1.91781414;-0.81405342;-0.04;8.62745095;4.313725470000001;24.31372643;45.88235474;2066.0;52;5.2;-0.02347443232128174;0.11549989012895899;0.0725154858657268;9.748576079202476;1.4743671564449154;-0.8687203389233487;23.386260681525904;9;1;0;0;0;0;0;0;0;0;0;0;0;0;0;0;0;0
53;2022-05-02 00:57:45.630;5.174044620517335;52.36964835935401;26;-0.12;0.1;9.00247288;1.44135344;-0.32322711;0.0;8.62745095;4.313725470000001;19.2156868;45.88235474;2066.0;53;5.300000000000001;-0.032300838476245305;0.11408256279356466;0.06969063225595962;9.680351565966792;1.4713483451907043;-0.8188398263395149;23.625263935926206;9;1;0;0;0;0;0;0;0;0;0;0;0;0;0;0;0;0
54;2022-05-02 00:57:45.730;5.174044620517335;52.36964835935401;26;0.0;0.12;9.7614584;1.3096683;-0.12210801;0.07;8.62745095;4.313725470000001;19.2156868;45.88235474;2066.0;54;5.4;-0.02934878416591535;0.11462337216060975;0.060727976334691895;9.687764122120125;1.4565720020115462;-0.7551637653269908;23.84229699650761;9;1;0;0;0;0;0;0;0;0;0;0;0;0;0;0;0;0
55;2022-05-02 00:57:45.839;5.174044620517335;52.36964835935401;26;0.01;0.09;9.40471172;1.21150303;-0.11253092;0.1;8.62745095;4.313725470000001;19.2156868;45.88235474;2066.0;55;5.5;-0.025754338074555534;0.11237406800306304;0.049847924482730246;9.661907755220433;1.4341853583773698;-0.6964603220560314;24.039399582816657;9;1;0;0;0;0;0;0;0;0;0;0;0;0;0;0;0;0
56;2022-05-02 00:57:45.928;5.174044620517335;52.36964835935401;26;0.0;0.06;9.40710545;0.59856868;-0.76377368;0.01;0.0;4.313725470000001;19.2156868;45.88235474;2066.0;56;5.6000000000000005;-0.023402754988186038;0.10759188442980132;0.04818382879857709;9.638642207117828;1.357886676505912;-0.7026065857871951;24.218418541363775;9;1;0;0;0;0;0;0;0;0;0;0;0;0;0;0;0;0
57;2022-05-02 00:57:46.029;5.174044620517335;52.36964835935401;26;0.03;0.08;10.48213482;1.15643477;-0.10055954;0.06;0.0;0.0;19.2156868;45.88235474;2066.0;57;5.7;-0.01852858930639937;0.10507352341615486;0.0421086919688143;9.715629297904817;1.3394997979742926;-0.6476566670040506;24.381026691578374;9;1;0;0;0;0;0;0;0;0;0;0;0;0;0;0;0;0
58;2022-05-02 00:57:46.128;5.174044620517335;52.36964835935401;26;0.0;0.04;9.87159538;0.58659732;-0.90982443;0.0;0.0;0.0;19.2156868;18.03921509;2066.0;58;5.800000000000001;-0.01683806474318533;0.09913629916606588;0.042064368024473074;9.729859441843466;1.2708059480717173;-0.6715765151748154;24.528739725734155;9;1;0;0;0;0;0;0;0;0;0;0;0;0;0;0;0;0
59;2022-05-02 00:57:46.227;5.174044620517335;52.36964835935401;26;0.01;0.06;9.20119762;0.22506183;-0.31125572;0.0;0.0;0.0;19.2156868;18.03921509;2066.0;59;5.9;-0.014390201230234339;0.09556673035858053;0.042024101412173775;9.681640913541816;1.1754250443066327;-0.6387121437715131;24.66293138142513;9;1;0;0;0;0;0;0;0;0;0;0;0;0;0;0;0;0
60;2022-05-02 00:57:46.335;5.174044620517335;52.36964835935401;26;-0.01;0.0;10.02004051;0.40223816;-0.01675992;0.04;0.0;0.0;19.2156868;18.03921509;1772.25;60;6.0;-0.013989896838561113;0.08685282868206241;0.03834026518028689;9.71249663916773;1.1049248350586927;-0.5820017121694117;24.784847077748555;9;1;0;0;0;0;0;0;0;0;0;0;0;0;0;0;0;0
61;2022-05-02 00:57:46.429;5.174044620517335;52.36964835935401;26;-0.02;0.03;10.45340347;0.43336374;-0.31125572;0.05;0.0;0.0;8.62745094;18.03921509;1772.25;61;6.1000000000000005;-0.014537756894974304;0.08167032297586299;0.03408167208891297;9.780035123488771;1.0437076663111808;-0.5573214511889882;24.895616182812628;9;1;0;0;0;0;0;0;0;0;0;0;0;0;0;0;0;0
62;2022-05-02 00:57:46.528;5.174153082082955;52.3696267824846;26;0.0;0.0;9.83328629;0.12929083;-0.22985038;0.06;0.0;0.0;8.62745094;18.03921509;1772.25;62;6.2;-0.013212873454251033;0.07422738254901845;0.029300895232330777;9.784888113480255;0.9603732335579369;-0.5274777137631556;24.996263059917865;9;1;0;0;0;0;0;0;0;0;0;0;0;0;0;0;0;0
63;2022-05-02 00:57:46.628;5.174153082082955;52.3696267824846;26;0.03;0.02;9.56752205;0.50998056;-0.14844504;0.05;0.0;0.0;8.62745094;18.03921509;1772.25;63;6.300000000000001;-0.00927559831423796;0.06928653719088072;0.02586792117927241;9.765083135712938;0.9193363911752827;-0.4929427290614255;25.087717022253468;9;1;0;0;0;0;0;0;0;0;0;0;0;0;0;0;0;0
64;2022-05-02 00:57:46.729;5.174153082082955;52.3696267824846;26;-0.02;-0.05;9.2514782;0.19633053;-0.42139238;0.04;0.0;0.0;8.62745094;18.03921509;1772.25;64;6.4;-0.010252536165455288;0.05842014699615963;0.02365932350109877;9.718296366905484;0.8534742747486054;-0.48642486015702596;25.170821310781292;9;1;0;0;0;0;0;0;0;0;0;0;0;0;0;0;0;0
65;2022-05-02 00:57:46.828;5.174153082082955;52.3696267824846;26;0.02;0.01;10.1062336;-0.10774237;-0.04070267;0.16;0.0;0.0;8.62745094;12.15686321;1772.25;65;6.5;-0.007497197524111354;0.054010139805079425;0.010722937884902427;9.753628890529798;0.7659286438800426;-0.44582940174232083;25.24634119679971;9;1;0;0;0;0;0;0;0;0;0;0;0;0;0;0;0;0
66;2022-05-02 00:57:46.928;5.174153082082955;52.3696267824846;26;0.06;0.02;10.49410629;0.38547826;-0.30886146;0.06;0.0;0.0;8.62745094;12.15686321;1772.25;66;6.6000000000000005;-0.0013507297090127016;0.05091308929977138;0.00807301293537413;9.821058660514334;0.7312838567549879;-0.4333567498915718;25.314971299194426;9;1;0;0;0;0;0;0;0;0;0;0;0;0;0;0;0;0
67;2022-05-02 00:57:47.027;5.174153082082955;52.3696267824846;26;0.0;-0.01;10.40791225;0.19154198;0.48124924;0.13;0.0;0.0;7.84313726;12.15686321;1615.75;67;6.7;-0.0012277476738590857;0.04536703842105381;-0.0007086347401470267;9.874490852233063;0.6821411200416012;-0.350083164325168;25.377342196348444;9;1;0;0;0;0;0;0;0;0;0;0;0;0;0;0;0;0
68;2022-05-02 00:57:47.129;5.174153082082955;52.3696267824846;26;-0.03;-0.01;9.0288105;0.22027329;-0.96489275;0.09;0.0;0.0;7.84313726;12.15686321;1615.75;68;6.800000000000001;-0.0038470552819923837;0.0403266507818729;-0.005048176827465896;9.797503588408729;0.6400945709057573;-0.4060529023580945;25.43402640389261;9;1;0;0;0;0;0;0;0;0;0;0;0;0;0;0;0;0
69;2022-05-02 00:57:47.227;5.174153082082955;52.3696267824846;26;-0.01;-0.01;9.3592205;1.09418356;-0.63687712;0.12;0.0;0.0;7.84313726;12.15686321;1615.75;69;6.9;-0.0044071230664368445;0.035745700181191956;-0.011722895197260656;9.757609155818402;0.6814277253087744;-0.4270635263918969;25.485543781758565;9;1;0;0;0;0;0;0;0;0;0;0;0;0;0;0;0;0
70;2022-05-02 00:57:47.342;5.174153082082955;52.3696267824846;26;-0.01;0.0;9.98891449;0.41181526;1.72148359;0.03;0.0;0.0;7.84313726;12.94117641;1615.75;70;7.0;-0.004916152376171654;0.032492346083584915;-0.009598105207181663;9.778661146769583;0.6568892545463593;-0.2315159632001362;25.53236642720043;9;1;0;0;0;0;0;0;0;0;0;0;0;0;0;0;0;0
71;2022-05-02 00:57:47.428;5.174153082082955;52.3696267824846;26;-0.08;0.04;10.2666502;0.38787252;-0.31843856;0.03;0.0;0.0;7.84313726;12.94117641;1615.75;71;7.1000000000000005;-0.011749107185953837;0.03317557505441976;-0.007666902879941588;9.823070260765675;0.6324075684260667;-0.23942629537781085;25.57492310445657;9;1;0;0;0;0;0;0;0;0;0;0;0;0;0;0;0;0
72;2022-05-02 00:57:47.527;5.174260279366209;52.36960895984148;26;0.1;0.0;10.44382668;-0.73025382;-0.06225114;0.01;0.0;0.0;7.84313726;12.94117641;1611.0;72;7.2;-0.0015804236058549264;0.030156741760701777;-0.004091702309802561;9.87955639981827;0.5084112982575244;-0.2233041254682666;25.61360325642234;9;1;0;0;0;0;0;0;0;0;0;0;0;0;0;0;0;0
73;2022-05-02 00:57:47.627;5.174260279366209;52.36960895984148;26;0.08;0.07;10.83409309;-1.02474964;2.34878349;0.1;0.0;0.0;7.84313726;12.94117641;1611.0;73;7.300000000000001;0.00584239817506621;0.03378199144695497;-0.009031011138790575;9.966407575889644;0.3689123853671201;0.010724421218087473;25.648760639009154;9;1;0;0;0;0;0;0;0;0;0;0;0;0;0;0;0;0
74;2022-05-02 00:57:47.727;5.174260279366209;52.36960895984148;26;-0.18000001;-0.02;8.03039742;-0.07661679;-0.4668836;0.04;0.0;0.0;7.84313726;12.94117641;1611.0;74;7.4;-0.011065659796357432;0.028888872389074994;-0.008061712581774481;9.790268166857606;0.3283778636772612;-0.032728653834433324;25.680716614697356;9;1;0;0;0;0;0;0;0;0;0;0;0;0;0;0;0;0
75;2022-05-02 00:57:47.829;5.174260279366209;52.36960895984148;26;0.02;-0.08;9.9170866;-0.89785308;-0.33998701;0.08;0.0;0.0;7.84313726;12.94117641;1611.0;75;7.5;-0.008239488891920999;0.018982803598642316;-0.010819629030401214;9.80180536156851;0.2168225888864565;-0.060681210838933526;25.709763138084508;9;1;0;0;0;0;0;0;0;0;0;0;0;0;0;0;0;0
76;2022-05-02 00:57:47.929;5.174260279366209;52.36960895984148;26;-0.03;-0.08;10.56114578;-1.15643477;-1.53951871;0.09;0.0;0.0;7.84313726;12.15686321;1611.0;76;7.6000000000000005;-0.010219003414247706;0.009978516143676277;-0.01423616546339554;9.870881192471982;0.0918998390803405;-0.19520839594093226;25.736165462929854;9;1;0;0;0;0;0;0;0;0;0;0;0;0;0;0;0;0
77;2022-05-02 00:57:48.029;5.174260279366209;52.36960895984148;25;0.1;-0.17;10.6401577;-1.03193247;-0.39266106;0.19;0.0;0.0;7.84313726;12.15686321;1590.5;77;7.7;-0.00019317170525032508;-0.006392837780744277;-0.026438004470734085;9.940856755335439;-0.010327120436124559;-0.213169247690872;25.669201774158587;9;1;0;0;0;0;0;0;0;0;0;0;0;0;0;0;0;0
78;2022-05-02 00:57:48.129;5.174260279366209;52.36960895984148;25;0.08;-0.23;10.69761944;-2.15245295;0.409421;0.13;0.0;0.0;7.84313726;12.15686321;1590.5;78;7.800000000000001;0.0071010336522177794;-0.0267316836693045;-0.03207185765026576;10.009690326965462;-0.2051704639542689;-0.15653972395903004;25.6083325621983;9;1;0;0;0;0;0;0;0;0;0;0;0;0;0;0;0;0
79;2022-05-02 00:57:48.229;5.174260279366209;52.36960895984148;25;-0.03;-0.28;10.4366436;-1.9106313;0.88588166;0.14;0.0;0.0;7.84313726;12.15686321;1590.5;79;7.9;0.00372656504328075;-0.04976732173555491;-0.03810255196350767;10.048523218545878;-0.3602880843676237;-0.061727857787636474;25.55300259068928;9;1;0;0;0;0;0;0;0;0;0;0;0;0;0;0;0;0
80;2022-05-02 00:57:48.329;5.174260279366209;52.36960895984148;25;0.04;-0.27000001;9.3687973;-2.87791824;-0.34956414;0.01;0.0;0.0;7.84313726;12.15686321;1590.5;80;8.0;0.007025614174895841;-0.06979736465371224;-0.03176106103397059;9.986702516867343;-0.5892651743117456;-0.08790641071522774;25.50270730658478;9;1;0;0;0;0;0;0;0;0;0;0;0;0;0;0;0;0
81;2022-05-02 00:57:48.439;5.174260279366209;52.36960895984148;25;0.07;-0.34999999;9.78300667;-3.15804839;0.62490571;0.15000001;0.0;0.0;7.84313726;12.15686321;1590.5;81;8.1;0.012752869055518826;-0.09528061204948382;-0.03872896857126596;9.96817723840931;-0.8228851773741355;-0.02307915366707606;25.456988196546003;9;1;0;0;0;0;0;0;0;0;0;0;0;0;0;0;0;0
82;2022-05-02 00:57:48.527;5.174362296275044;52.36959141265676;25;0.05;-0.31999999;10.36242104;-3.10058594;0.82841909;0.17;0.0;0.0;7.84313726;12.54901981;1590.5;82;8.200000000000001;0.01614021428338637;-0.11571714214477241;-0.04688178991228286;10.004030734398711;-1.030024858019368;0.05435818013784159;25.415428571750493;9;1;0;0;0;0;0;0;0;0;0;0;0;0;0;0;0;0
83;2022-05-02 00:57:48.628;5.174362296275044;52.36959141265676;25;-0.08;-0.19;10.80296803;-2.40385199;0.71109962;-0.01;0.0;0.0;8.23529434;12.54901981;1571.0;83;8.3;0.007397279580750984;-0.12247238167272954;-0.037923832092067004;10.07668562350009;-1.1549598916797947;0.11408186151330346;25.37764974107598;9;1;0;0;0;0;0;0;0;0;0;0;0;0;0;0;0;0
84;2022-05-02 00:57:48.729;5.174362296275044;52.36959141265676;25;-0.13;-0.31;9.7662468;-5.59302616;-0.34477556;0.03;0.0;0.0;8.23529434;12.54901981;1571.0;84;8.4;-0.005097169579267798;-0.139525516206681;-0.033418218865124784;10.048455354972551;-1.5585427975970212;0.07235490198186831;25.3433075364518;9;1;0;0;0;0;0;0;0;0;0;0;0;0;0;0;0;0
85;2022-05-02 00:57:48.828;5.174362296275044;52.36959141265676;25;0.2;-0.5;12.32093811;-2.18357873;0.37111259;0.08;0.0;0.0;8.23529434;12.54901981;1571.0;85;8.5;0.013553167094644951;-0.17230495679521604;-0.03386915141277732;10.255101641480872;-1.6153799084968046;0.09952217823871813;25.312089157618722;9;1;0;0;0;0;0;0;0;0;0;0;0;0;0;0;0;0
86;2022-05-02 00:57:48.930;5.174362296275044;52.36959141265676;25;0.0;-0.23999999;9.77821827;-2.31286955;0.26337022;0.11;2.7450981200000015;1.5686273600000007;8.23529434;12.54901981;1571.0;86;8.6;0.012320752254839926;-0.17846059281151172;-0.03700702464619108;10.21173774433675;-1.6788039464944222;0.11442118721053125;25.28371030664569;9;1;0;0;0;0;0;0;0;0;0;0;0;0;0;0;0;0
87;2022-05-02 00:57:49.029;5.174362296275044;52.36959141265676;25;-0.08;-0.30000001;10.27862167;-0.46448931;-0.82123625;0.19;2.7450981200000015;1.5686273600000007;8.23529434;15.68627453;1571.0;87;8.700000000000001;0.0039260447653010535;-0.18951214764427585;-0.04713388417447433;10.217819486285139;-1.5683865601033578;0.029342044071484566;25.257912585354557;9;1;0;0;0;0;0;0;0;0;0;0;0;0;0;0;0;0
88;2022-05-02 00:57:49.130;5.174362296275044;52.36959141265676;25;-0.15000001;-0.34;9.23232365;-1.87232292;-0.20111908;0.0;2.7450981200000015;1.5686273600000007;8.23529434;15.68627453;1719.0;88;8.8;-0.01007013068719561;-0.2031956945152175;-0.03906341562489903;10.128210403187525;-1.59602286005266;0.008386694228975455;25.234461131333116;9;1;0;0;0;0;0;0;0;0;0;0;0;0;0;0;0;0
89;2022-05-02 00:57:49.232;5.174362296275044;52.36959141265676;24;0.05;-0.2;11.61462688;-1.786129;-0.24900457;0.0;2.7450981200000015;1.5686273600000007;14.11764717;15.68627453;1719.0;89;8.9;-0.004608181685186984;-0.20290512214141979;-0.03172691607941661;10.263364612096641;-1.6133084898570649;-0.015016916562250274;25.122216265754012;9;1;0;0;0;0;0;0;0;0;0;0;0;0;0;0;0;0
90;2022-05-02 00:57:49.331;5.174362296275044;52.36959141265676;24;0.09;-0.25;10.72635078;-2.39906335;-0.79250497;0.01;2.7450981200000015;1.5686273600000007;14.11764717;15.68627453;1719.0;90;9.0;0.003994033996487658;-0.20718720736518706;-0.02596685721790349;10.305461466755464;-1.684752974461634;-0.08570974467147159;25.02017914605096;9;1;0;0;0;0;0;0;0;0;0;0;0;0;0;0;0;0
91;2022-05-02 00:57:49.428;5.174362296275044;52.36959141265676;24;-0.03;-0.25999999;10.02961731;-2.20752144;-0.12210801;0.1;2.7450981200000015;1.5686273600000007;14.11764717;15.68627453;1719.0;91;9.1;0.0009031864849380348;-0.2119891163649159;-0.02891370221931131;10.280380823911747;-1.732284774041314;-0.08901919267128912;24.92742115871612;9;1;0;0;0;0;0;0;0;0;0;0;0;0;0;0;0;0
92;2022-05-02 00:57:49.530;5.174448866527991;52.36955303256917;24;0.05;-0.12;8.55953217;-1.80049467;-0.34716985;0.0;2.7450981200000015;1.5686273600000007;14.11764717;15.68627453;1719.0;92;9.200000000000001;0.005367164419474887;-0.20362528669306662;-0.022500377836297485;10.123917911764039;-1.7384865506674736;-0.11249075336123127;24.8430982201763;9;1;0;0;0;0;0;0;0;0;0;0;0;0;0;0;0;0
93;2022-05-02 00:57:49.628;5.174448866527991;52.36955303256917;24;-0.05;-0.20999999;9.79258442;-2.08780766;-0.49800915;0.03;6.666666030000002;3.1372547200000014;14.11764717;15.68627453;1719.0;93;9.3;0.0003331386887611812;-0.20420487968485582;-0.01939786373601722;10.093792812520187;-1.770247098116475;-0.1475423863767813;24.766443073061826;9;1;0;0;0;0;0;0;0;0;0;0;0;0;0;0;0;0
94;2022-05-02 00:57:49.729;5.174448866527991;52.36955303256917;24;0.0;-0.2;9.80455494;-1.83640873;-0.83560193;0.0;6.666666030000002;3.1372547200000014;14.11764717;45.09803772;1719.0;94;9.4;0.00030284981362471724;-0.2038225732160033;-0.013849874105884202;10.067495387150357;-1.776262494930327;-0.21010056501629717;24.69675828614769;9;1;0;0;0;0;0;0;0;0;0;0;0;0;0;0;0;0
95;2022-05-02 00:57:49.829;5.174448866527991;52.36955303256917;24;0.01;-0.23;9.99849129;-1.85795724;-0.25858167;0.0;6.666666030000002;3.1372547200000014;14.11764717;45.09803772;1886.75;95;9.5;0.0011845025913227382;-0.20620259214873307;-0.008806359710360416;10.06122162086275;-1.7836900790689338;-0.21450840650098477;24.633409893417905;9;1;0;0;0;0;0;0;0;0;0;0;0;0;0;0;0;0
96;2022-05-02 00:57:49.929;5.174448866527991;52.36955303256917;24;0.0;-0.19;9.07909012;-1.50121033;-0.77095652;0.06;6.666666030000002;3.1372547200000014;22.74509811;45.09803772;1886.75;96;9.600000000000001;0.001076810136093798;-0.20472948694630233;-0.009676511962136744;9.971928314575019;-1.7580076213414946;-0.26509948497494756;24.57582161367231;9;1;0;0;0;0;0;0;0;0;0;0;0;0;0;0;0;0
97;2022-05-02 00:57:50.029;5.174448866527991;52.36955303256917;24;-0.04;-0.16;9.40950012;-1.786129;-0.96010423;0.04;6.666666030000002;3.1372547200000014;22.74509811;45.09803772;1886.75;97;9.700000000000001;-0.002657773244110881;-0.20066281287883472;-0.008649203399611137;9.920793988879833;-1.7605643348014381;-0.32828728269669094;24.5234695975041;9;1;0;0;0;0;0;0;0;0;0;0;0;0;0;0;0;0
98;2022-05-02 00:57:50.130;5.174448866527991;52.36955303256917;24;-0.04;-0.19;9.43344307;-1.73824346;-0.97925842;0.0;7.0588226400000025;3.1372547200000014;22.74509811;45.09803772;1886.75;98;9.8;-0.006052792129183376;-0.19969338887184432;-0.004078648258389099;9.87648582311161;-1.7585350023789879;-0.38747120119274886;24.47587765337861;9;1;0;0;0;0;0;0;0;0;0;0;0;0;0;0;0;0
99;2022-05-02 00:57:50.231;5.174448866527991;52.36955303256917;24;0.03;-0.2;9.64174461;-1.51078737;-0.4932206;0.04;7.0588226400000025;3.5294113200000012;22.74509811;43.52941132;1886.75;99;9.9;-0.0027750277186638812;-0.19972126463359216;-0.0035602889834236567;9.855144164155977;-1.7360108558637173;-0.3970854805695648;24.432612908988858;9;1;0;0;0;0;0;0;0;0;0;0;0;0;0;0;0;0
100;2022-05-02 00:57:50.331;5.174448866527991;52.36955303256917;24;-0.03;-0.15000001;10.4845295;-1.67599237;-0.46448931;0.02;7.0588226400000025;3.5294113200000012;22.74509811;43.52941132;1886.75;100;10.0;-0.0052501884822515115;-0.19520085236967277;-0.0012707580381559405;9.912364787646805;-1.7305542699115013;-0.4032135056855404;24.39328186809429;9;1;0;0;0;0;0;0;0;0;0;0;0;0;0;0;0;0
101;2022-05-02 00:57:50.427;5.174448866527991;52.36955303256917;25;-0.03;-0.23;10.08708;-1.67838669;-1.00798965;0.0;7.0588226400000025;3.5294113200000012;22.74509811;43.52941132;1920.25;101;10.100000000000001;-0.007500306290815128;-0.19836460098043218;0.0026288983796596624;9.928248941368985;-1.7258114782136997;-0.4581964525876023;24.44844136991112;9;1;0;0;0;0;0;0;0;0;0;0;0;0;0;0;0;0
102;2022-05-02 00:57:50.527;5.174513645737895;52.36950189988728;25;-0.02;-0.31999999;9.60822487;-3.01918054;-0.95770991;0.0;7.0588226400000025;3.5294113200000012;27.05882263;43.52941132;1920.25;102;10.200000000000001;-0.008636704038619401;-0.20942296651730644;0.006173999986644814;9.899154257738486;-1.8433968945518353;-0.5036092427893545;24.498585797414528;9;1;0;0;0;0;0;0;0;0;0;0;0;0;0;0;0;0
103;2022-05-02 00:57:50.628;5.174513645737895;52.36950189988728;25;0.06;-0.28;9.62977314;-2.99284363;-0.96249849;0.02;7.0588226400000025;3.5294113200000012;27.05882263;43.52941132;1920.25;103;10.3;-0.0023966943956256035;-0.2158393784892174;0.007578514145754861;9.87466385138997;-1.9478972317077183;-0.5453285148285454;24.544171166104537;9;1;0;0;0;0;0;0;0;0;0;0;0;0;0;0;0;0
104;2022-05-02 00:57:50.731;5.174513645737895;52.36950189988728;25;-0.01;-0.31999999;9.72793865;-2.20991564;-1.35994804;-0.01;8.23529435;4.313725470000001;27.05882263;43.52941132;1920.25;104;10.4;-0.0030879351416725404;-0.2253089516664411;0.011582728734623168;9.861324595683302;-1.9717181603208973;-0.619388172249122;24.585612018229476;9;1;0;0;0;0;0;0;0;0;0;0;0;0;0;0;0;0
105;2022-05-02 00:57:50.829;5.174513645737895;52.36950189988728;25;0.0;-0.25;10.67607117;-3.01918054;-0.8930645;0.02;8.23529435;4.313725470000001;27.05882263;53.33333206;1920.25;105;10.5;-0.0028072022659298423;-0.22755368437155468;0.01249550805660822;9.935395500127736;-2.066945913686317;-0.6442688575573604;24.623285196084062;9;1;0;0;0;0;0;0;0;0;0;0;0;0;0;0;0;0
106;2022-05-02 00:57:50.931;5.174513645737895;52.36950189988728;25;-0.07;-0.31999999;9.11979294;-3.0981915;-0.99601829;0.0;8.23529435;4.313725470000001;27.05882263;53.33333206;1920.25;106;10.600000000000001;-0.00891586589607207;-0.23595820693911482;0.015143550476616575;9.86124705172674;-2.16069900359025;-0.6762472694905789;24.65753327175915;9;1;0;0;0;0;0;0;0;0;0;0;0;0;0;0;0;0
107;2022-05-02 00:57:51.030;5.174513645737895;52.36950189988728;25;0.03;-0.34;9.05035877;-3.44536138;-0.99122977;-0.06;8.23529435;4.313725470000001;27.05882263;53.33333206;2026.75;107;10.700000000000001;-0.005377940138093475;-0.24541687196174086;0.02300557476382731;9.787527439617234;-2.2774904460303063;-0.7048830116539638;24.688667664665367;9;1;0;0;0;0;0;0;0;0;0;0;0;0;0;0;0;0
108;2022-05-02 00:57:51.134;5.174513645737895;52.36950189988728;26;-0.05;-0.31999999;10.06553173;-3.42381287;-0.45730647;-0.06;8.23529435;4.313725470000001;26.66666603;53.33333206;2026.75;108;10.8;-0.00943461587861252;-0.25219736408905225;0.030152823377860558;9.812801334727547;-2.3817047826728137;-0.682375360650012;24.807883364007196;9;1;0;0;0;0;0;0;0;0;0;0;0;0;0;0;0;0
109;2022-05-02 00:57:51.236;5.174513645737895;52.36950189988728;26;-0.09;-0.38999999;9.62259007;-3.02157474;-1.02235532;-0.13;8.23529435;4.313725470000001;26.66666603;53.33333206;2026.75;109;10.9;-0.01675894662227735;-0.26472522603031196;0.04301409834810895;9.795508917776662;-2.439876406274058;-0.7132834944056355;24.9162606357382;9;1;0;0;0;0;0;0;0;0;0;0;0;0;0;0;0;0
110;2022-05-02 00:57:51.338;5.174513645737895;52.36950189988728;26;0.11;-0.34;9.72793865;-4.36955166;-2.17639589;-0.04;8.23529435;4.313725470000001;26.66666603;53.33333206;2026.75;110;11.0;-0.005235112924901219;-0.2715685613525843;0.04652407777053848;9.78936600992286;-2.615305891185632;-0.8462970952336806;25.01478490197613;9;1;0;0;0;0;0;0;0;0;0;0;0;0;0;0;0;0
111;2022-05-02 00:57:51.429;5.174513645737895;52.36950189988728;26;0.0;-0.30000001;9.82370949;-2.5379312;-1.56585574;-0.04;9.80392075;5.09803868;26.66666603;53.33333206;2026.75;111;11.100000000000001;-0.004759182563785648;-0.27415329826579204;0.049714952660674765;9.792488216665973;-2.6082716657075107;-0.911713030011043;25.104351981828156;9;1;0;0;0;0;0;0;0;0;0;0;0;0;0;0;0;0
112;2022-05-02 00:57:51.527;5.174554697781301;52.36943775600295;26;-0.02;-0.41;9.57231045;-3.16283703;-1.31685114;-0.06;9.80392075;5.09803868;26.66666603;50.19607925;2026.75;112;11.200000000000001;-0.0061447405456407055;-0.2865032580159344;0.05443395524719211;9.772471635317379;-2.658687758556312;-0.9485445414702015;25.18577624044843;9;1;0;0;0;0;0;0;0;0;0;0;0;0;0;0;0;0
113;2022-05-02 00:57:51.629;5.174554697781301;52.36943775600295;28;-0.02;-0.31999999;9.57949352;-3.92421651;-0.58659732;0.0;9.80392075;5.09803868;26.66666603;50.19607925;2002.25;113;11.3;-0.007404333656285365;-0.28954847365951186;0.05326929069662642;9.754927835047187;-2.7737380253443273;-0.915639619835017;25.44161965291;9;1;0;0;0;0;0;0;0;0;0;0;0;0;0;0;0;0
114;2022-05-02 00:57:51.727;5.174554697781301;52.36943775600295;28;0.03;-0.31;10.14933109;-2.91383243;-1.26417708;-0.03;9.80392075;5.09803868;32.15686417;50.19607925;2002.25;114;11.4;-0.004003880616033581;-0.2914077356252872;0.054937828709473294;9.790783299275304;-2.7864741015597527;-0.9473253939207289;25.674203724833998;9;1;0;0;0;0;0;0;0;0;0;0;0;0;0;0;0;0
115;2022-05-02 00:57:51.827;5.174554697781301;52.36943775600295;28;-0.05;-0.31999999;9.87398911;-2.91622663;-1.57543278;-0.08;9.80392075;5.09803868;32.15686417;50.19607925;2002.25;115;11.5;-0.008185412051051727;-0.2940070725273384;0.06100020274813296;9.798347583344947;-2.7982699722486855;-1.0044269671541677;25.88564308898707;9;1;0;0;0;0;0;0;0;0;0;0;0;0;0;0;0;0
116;2022-05-02 00:57:51.930;5.174554697781301;52.36943775600295;28;0.0;-0.37;9.72075558;-3.94576478;-2.64806795;-0.06;13.725490570000002;5.09803868;32.15686417;50.19607925;2002.25;116;11.600000000000001;-0.007441272999363382;-0.3009156196636138;0.06469322733627847;9.791293663587751;-2.902589179728002;-1.1538510199278877;26.077860113234458;9;1;0;0;0;0;0;0;0;0;0;0;0;0;0;0;0;0
117;2022-05-02 00:57:52.027;5.174554697781301;52.36943775600295;28;-0.03;-0.38;9.33767128;-3.84520531;-2.48286295;-0.02;13.725490570000002;7.450980190000001;32.15686417;64.70587921;2002.25;117;11.700000000000001;-0.009492093129504409;-0.30810520262053387;0.0644141021172275;9.750054726846415;-2.9882826736429244;-1.274671863201205;26.252602383603463;9;1;0;0;0;0;0;0;0;0;0;0;0;0;0;0;0;0
118;2022-05-02 00:57:52.128;5.174554697781301;52.36943775600295;28;0.09;-0.34;10.77423668;-3.30170488;-1.76936913;-0.08;13.725490570000002;7.450980190000001;32.15686417;64.70587921;2002.25;118;11.8;-0.00044725007272265743;-0.311004764058543;0.06961496272425947;9.843163281873037;-3.0167759395682885;-1.3196448756092343;26.411458597207577;9;1;0;0;0;0;0;0;0;0;0;0;0;0;0;0;0;0
119;2022-05-02 00:57:52.229;5.174554697781301;52.36943775600295;30;0.02;-0.23999999;9.60822487;-2.44694877;-2.27695537;-0.09;13.725490570000002;7.450980190000001;32.15686417;64.70587921;2168.5;119;11.9;0.001411610893455477;-0.30454971497173206;0.07525210782673233;9.821805014050545;-2.9649729108377256;-1.4066740411061442;26.737693152731683;9;1;0;0;0;0;0;0;0;0;0;0;0;0;0;0;0;0
120;2022-05-02 00:57:52.327;5.174554697781301;52.36943775600295;30;-0.06;-0.23999999;9.1892271;-2.21949267;-2.81566715;-0.19;13.725490570000002;7.450980190000001;46.27450943;64.70587921;2168.5;120;12.0;-0.004171317569471583;-0.2986815006133101;0.08946777287547866;9.764297367043874;-2.897201315294607;-1.5347655797788398;27.034269410664642;9;1;0;0;0;0;0;0;0;0;0;0;0;0;0;0;0;0
121;2022-05-02 00:57:52.432;5.174554697781301;52.36943775600295;30;-0.01;-0.09;10.45819283;-1.04629815;-3.84999394;-0.2;13.725490570000002;7.450980190000001;46.27450943;64.70587921;2168.5;121;12.100000000000001;-0.004701202514038251;-0.2797102859858993;0.10330017955812451;9.827379335105434;-2.7289358911906056;-1.7452427615325465;27.30388368587352;9;1;0;0;0;0;0;0;0;0;0;0;0;0;0;0;0;0
122;2022-05-02 00:57:52.528;5.174550756602116;52.36936180289251;30;0.01;-0.18000001;9.9266634;-1.67359805;-1.99682522;-0.11;13.725490570000002;7.450980190000001;46.27450943;64.70587921;2168.5;122;12.200000000000001;-0.0033647187273446724;-0.270645641981802;0.10769318883562987;9.836405232332678;-2.6329953099430097;-1.7681140794697827;27.548987155295784;9;1;0;0;0;0;0;0;0;0;0;0;0;0;0;0;0;0
123;2022-05-02 00:57:52.627;5.174550756602116;52.36936180289251;30;-0.07;-0.16;9.9170866;-1.2665714;-2.15963578;-0.11;13.725490570000002;7.450980190000001;46.27450943;64.70587921;2168.5;123;12.3;-0.009422516199789574;-0.2605868731504403;0.11168682745463554;9.843739956157563;-2.5087740393210485;-1.803707223560743;27.771808146398467;9;1;0;0;0;0;0;0;0;0;0;0;0;0;0;0;0;0
124;2022-05-02 00:57:52.731;5.174550756602116;52.36936180289251;30;-0.07;-0.11;9.63695621;-0.53871185;-2.75581026;-0.1;16.47058869;8.23529434;46.27450943;94.50980377;2168.5;124;12.4;-0.014929597065439667;-0.24689706572166117;0.1144083059132028;9.824941307875182;-2.3296762771437263;-1.8902626247622003;27.974372398859607;9;1;0;0;0;0;0;0;0;0;0;0;0;0;0;0;0;0
125;2022-05-02 00:57:52.828;5.174550756602116;52.36936180289251;30;0.0;-0.08;9.65132141;0.35195839;-2.43976593;-0.16;16.47058869;8.23529434;46.27450943;94.50980377;2168.5;125;12.5;-0.013572352704783075;-0.23172451282100548;0.12233695274137693;9.809157584693908;-2.0858898230707372;-1.9402177748527965;28.158521483820675;9;1;0;0;0;0;0;0;0;0;0;0;0;0;0;0;0;0
126;2022-05-02 00:57:52.928;5.174550756602116;52.36936180289251;30;-0.02;-0.02;9.55794525;-0.15562786;-2.14766455;-0.12;16.47058869;8.23529434;46.27450943;94.50980377;2168.5;126;12.600000000000001;-0.014156687511453277;-0.21247672329797604;0.12590842135166574;9.78631997331225;-1.9104104914880733;-1.9590766769802053;28.325929548283035;9;1;0;0;0;0;0;0;0;0;0;0;0;0;0;0;0;0
127;2022-05-02 00:57:53.027;5.174550756602116;52.36936180289251;36;-0.08;-0.06;9.77342987;-0.36632404;-2.56187415;-0.15000001;16.47058869;8.23529434;46.27450943;94.50980377;2419.0;127;12.700000000000001;-0.020142473312403913;-0.19861513324733476;0.131882494926389;9.785148139841802;-1.7700382895523747;-2.0138767230058128;29.023575827141993;9;1;0;0;0;0;0;0;0;0;0;0;0;0;0;0;0;0
128;2022-05-02 00:57:53.127;5.174550756602116;52.36936180289251;36;0.07;0.01;10.09905148;-0.74940801;-1.60416412;-0.15000001;16.47058869;8.23529434;49.80392075;94.50980377;2419.0;128;12.8;-0.01194766552412955;-0.17965003437809937;0.13731346568614655;9.813684937670487;-1.677253294239033;-1.9766299523472115;29.657799107747003;9;1;0;0;0;0;0;0;0;0;0;0;0;0;0;0;0;0
129;2022-05-02 00:57:53.230;5.174550756602116;52.36936180289251;36;0.0;-0.07;9.72793865;-0.70870537;-2.05668211;-0.12;16.47058869;8.23529434;49.80392075;94.50980377;2419.0;129;12.9;-0.010861509595917685;-0.1696818079804087;0.1395234225414489;9.805889788192344;-1.5892031167759204;-1.9839074514892092;30.23436522295327;9;1;0;0;0;0;0;0;0;0;0;0;0;0;0;0;0;0
130;2022-05-02 00:57:53.343;5.174550756602116;52.36936180289251;36;-0.09;-0.14;9.62977314;-0.19633053;-2.19315577;-0.1;16.47058869;8.23529434;49.80392075;94.50980377;2419.0;130;13.0;-0.018055945013597488;-0.16698345159902378;0.1397142839410655;9.789879123281649;-1.462577857443212;-2.002930097815886;30.758515820640834;9;1;0;0;0;0;0;0;0;0;0;0;0;0;0;0;0;0
131;2022-05-02 00:57:53.428;5.174550756602116;52.36936180289251;36;-0.02;-0.03;10.05116558;0.20351335;-2.43258309;-0.12;15.68627549;8.23529434;49.80392075;94.50980377;2419.0;131;13.100000000000001;-0.018232677892499986;-0.15453036774469495;0.14170598224621547;9.813632519166566;-1.3111144998401087;-2.0419895949848876;31.235016020079254;9;1;0;0;0;0;0;0;0;0;0;0;0;0;0;0;0;0
132;2022-05-02 00:57:53.526;5.1745166714001805;52.369272207946885;36;0.01;-0.01;8.83008575;0.19872481;-2.07583618;-0.1;15.68627549;7.8431377399999995;49.80392075;91.37255096;2419.0;132;13.200000000000001;-0.015666062792116093;-0.14139120235166946;0.1416984283820488;9.724218897147122;-1.1738559519069613;-2.045066566872818;31.668197735342645;9;1;0;0;0;0;0;0;0;0;0;0;0;0;0;0;0;0
133;2022-05-02 00:57:53.628;5.1745166714001805;52.369272207946885;36;0.02;0.03;9.96018314;0.15323359;-1.61613548;-0.09;15.68627549;7.8431377399999995;49.80392075;91.37255096;2653.75;133;13.3;-0.012423684237711697;-0.125810139699543;0.1407824677456184;9.745670252882455;-1.0532111054170754;-2.006072720944267;32.06199905977563;9;1;0;0;0;0;0;0;0;0;0;0;0;0;0;0;0;0
134;2022-05-02 00:57:53.729;5.1745166714001805;52.369272207946885;39;0.03;0.01;10.14693642;0.2370332;-1.98964238;-0.11;15.68627549;7.8431377399999995;47.05882263;91.37255096;2653.75;134;13.4;-0.008566975711908658;-0.1134637314824998;0.1417679632225674;9.782149089542823;-0.9359158656828646;-2.0045790497287608;32.692728046637335;9;1;0;0;0;0;0;0;0;0;0;0;0;0;0;0;0;0
135;2022-05-02 00:57:53.828;5.1745166714001805;52.369272207946885;39;0.09;-0.03;8.95698166;-0.02633702;-1.94415116;-0.08;15.68627549;7.8431377399999995;47.05882263;91.37255096;2653.75;135;13.5;0.0003936794783352204;-0.10587610171802661;0.13993658863056163;9.70713369258102;-0.853226685603664;-1.9990855923123934;33.266117752032855;9;1;0;0;0;0;0;0;0;0;0;0;0;0;0;0;0;0
136;2022-05-02 00:57:53.927;5.1745166714001805;52.369272207946885;39;-0.02;-0.06;9.25626659;-0.42857519;-2.16681862;-0.06;15.294116980000002;7.8431377399999995;47.05882263;91.37255096;2653.75;136;13.600000000000001;-0.0014602953397841935;-0.10170553811624693;0.1364535176856869;9.666145686694605;-0.814621921801119;-2.0143340819157585;33.787380886970624;9;1;0;0;0;0;0;0;0;0;0;0;0;0;0;0;0;0
137;2022-05-02 00:57:54.029;5.1745166714001805;52.369272207946885;39;0.09;-0.03;10.04158878;0.01675992;-1.75021493;-0.01;15.294116980000002;7.450980190000001;47.05882263;78.4313736;2653.75;137;13.700000000000001;0.0068542930944207854;-0.09518684018645301;0.12874162748020065;9.700276943210909;-0.7390416077362385;-1.9903232033414842;34.26125627112606;9;1;0;0;0;0;0;0;0;0;0;0;0;0;0;0;0;0
138;2022-05-02 00:57:54.130;5.1745166714001805;52.369272207946885;39;0.0;0.0;9.74230385;0.07422252;-2.19076157;-0.13;15.294116980000002;7.450980190000001;47.05882263;78.4313736;2653.75;138;13.8;0.006231174441408287;-0.08653347581693435;0.1326399309482216;9.704097577839155;-0.6651083748211069;-2.00854490517474;34.69205191534951;9;1;0;0;0;0;0;0;0;0;0;0;0;0;0;0;0;0
139;2022-05-02 00:57:54.227;5.1745166714001805;52.369272207946885;42;-0.04;-0.06;10.32171917;-0.09098244;-1.69993508;-0.11;15.294116980000002;7.450980190000001;47.05882263;78.4313736;2303.75;139;13.9;0.002028333662721569;-0.08412133778429491;0.13436565726529945;9.760245085331546;-0.6129150243358;-1.9804894215401725;35.35641189732705;9;1;0;0;0;0;0;0;0;0;0;0;0;0;0;0;0;0
140;2022-05-02 00:57:54.330;5.1745166714001805;52.369272207946885;42;0.04;0.01;9.72793865;0.21548474;-2.10456753;-0.14;15.294116980000002;7.450980190000001;44.70588303;78.4313736;2303.75;140;14.0;0.005480308361264486;-0.07556484005942618;0.13866177559401205;9.757308132384209;-0.5376058450818285;-1.9917692660232127;35.96037533243848;9;1;0;0;0;0;0;0;0;0;0;0;0;0;0;0;0;0
141;2022-05-02 00:57:54.430;5.1745166714001805;52.369272207946885;42;-0.03;-0.01;9.69441891;0.37829542;-2.0351336;-0.13;15.294116980000002;7.450980190000001;44.70588303;78.4313736;2303.75;141;14.100000000000001;0.0022548215089729724;-0.06960439215601517;0.141658244510541;9.751590922773579;-0.45434198338033693;-1.9957114834266332;36.50943284793807;9;1;0;0;0;0;0;0;0;0;0;0;0;0;0;0;0;0
142;2022-05-02 00:57:54.527;5.174472305187472;52.36916999180505;42;-0.08;0.01;8.99289608;0.25618741;-1.30009127;-0.04;15.294116980000002;7.450980190000001;44.70588303;78.4313736;2303.75;142;14.200000000000001;-0.005222898545024491;-0.06236762051526245;0.1362004784351098;9.682618581254928;-0.3897483243538542;-1.9324732060286463;37.008575917579456;9;1;0;0;0;0;0;0;0;0;0;0;0;0;0;0;0;0
143;2022-05-02 00:57:54.631;5.174472305187472;52.36916999180505;42;0.04;-0.05;9.44062519;0.1340794;-1.37670803;-0.04;15.294116980000002;7.450980190000001;44.70588303;86.66666412;2303.75;143;14.3;-0.0011117214478768042;-0.06124329014625839;0.131238874053016;9.660619157958392;-0.34212756999043237;-1.8819490437879973;37.462342240173044;9;1;0;0;0;0;0;0;0;0;0;0;0;0;0;0;0;0
144;2022-05-02 00:57:54.729;5.174472305187472;52.36916999180505;42;-0.08;-0.02;9.44301987;-0.05985687;-2.34399509;-0.05;15.294116980000002;7.450980190000001;44.70588303;86.66666412;2303.75;144;14.4;-0.008283390274148499;-0.057493896400274073;0.12763741737187712;9.640837384813995;-0.3164665717173652;-1.9239532716243457;37.87485699265226;9;1;0;0;0;0;0;0;0;0;0;0;0;0;0;0;0;0
145;2022-05-02 00:57:54.830;5.174472305187472;52.36916999180505;42;0.03;0.02;10.29059315;0.44294083;-1.92978549;-0.1;15.294116980000002;7.450980190000001;44.70588303;86.66666412;2303.75;145;14.5;-0.004803078917585337;-0.05044899035159728;0.12890882512510912;9.699906144199609;-0.2474294727162409;-1.924483473774714;38.24987033272246;9;1;0;0;0;0;0;0;0;0;0;0;0;0;0;0;0;0
146;2022-05-02 00:57:54.931;5.174472305187472;52.36916999180505;45;0.04;0.0;10.26425648;0.22506183;-1.71430075;-0.08;15.294116980000002;7.450980190000001;41.17647171;86.66666412;2317.25;146;14.600000000000001;-0.0007300683921329586;-0.04586271472802959;0.12824646684149826;9.751210762393056;-0.2044756825830231;-1.9053759377105655;38.863518989181166;9;1;0;0;0;0;0;0;0;0;0;0;0;0;0;0;0;0
147;2022-05-02 00:57:55.031;5.174472305187472;52.36916999180505;45;-0.03;-0.01;9.44062519;-0.04309694;-1.03193247;-0.05;15.294116980000002;7.450980190000001;41.17647171;86.66666412;2317.25;147;14.700000000000001;-0.003390973255845175;-0.042602465496012626;0.12491704827470229;9.722975689238414;-0.18980487682946567;-1.8259719267089125;39.42138131651837;9;1;0;0;0;0;0;0;0;0;0;0;0;0;0;0;0;0
148;2022-05-02 00:57:55.129;5.174472305187472;52.36916999180505;45;-0.03;-0.03;9.61540794;-0.30167863;0.01675992;-0.01;15.294116980000002;7.450980190000001;41.17647171;86.66666412;2317.25;148;14.8;-0.005809977331982782;-0.041456786035528985;0.11825393844628562;9.713196796294657;-0.19997522494232112;-1.6584507358259493;39.928528814407365;9;1;0;0;0;0;0;0;0;0;0;0;0;0;0;0;0;0
149;2022-05-02 00:57:55.233;5.174472305187472;52.36916999180505;45;0.07;0.0;10.76226521;0.16520496;0.07422252;0.04;4.705881120000001;7.450980190000001;41.17647171;86.66666412;2317.25;149;14.9;0.0010818430493182208;-0.03768798497532399;0.10765110930607022;9.808566711039418;-0.1667770057895634;-1.5009348879271445;40.389571934457244;9;1;0;0;0;0;0;0;0;0;0;0;0;0;0;0;0;0
150;2022-05-02 00:57:55.330;5.174472305187472;52.36916999180505;45;0.0;-0.01;9.84525776;-0.02394275;-0.6751855;0.02;4.705881120000001;2.3529405600000004;41.17647171;22.35294151;2317.25;150;15.0;0.0009834936259300504;-0.035170894017611094;0.09983035770148663;9.811902262819368;-0.15379206614805543;-1.4258667195667254;40.808701994131354;9;1;0;0;0;0;0;0;0;0;0;0;0;0;0;0;0;0
151;2022-05-02 00:57:55.429;5.174472305187472;52.36916999180505;46;0.03;0.03;9.64653301;-0.16520496;-0.3998439;0.02;4.705881120000001;2.3529405600000004;9.4117651;22.35294151;2367.5;151;15.100000000000001;0.0036213591893654896;-0.029246264262011604;0.09272058427826027;9.796868686701014;-0.15482960248282565;-1.33259187013645;41.28063841758202;9;1;0;0;0;0;0;0;0;0;0;0;0;0;0;0;0;0
152;2022-05-02 00:57:55.527;5.174423027099134;52.36905694753341;46;-0.1;-0.04;10.72156239;-0.35195839;0.27773589;0.03;4.705881120000001;2.3529405600000004;9.4117651;22.35294151;2367.5;152;15.200000000000001;-0.005798768748283096;-0.030223877055860295;0.08534806319258889;9.880931789678614;-0.17275040967096283;-1.1861983694074105;41.709671487966254;9;1;0;0;0;0;0;0;0;0;0;0;0;0;0;0;0;0
153;2022-05-02 00:57:55.630;5.174423027099134;52.36905694753341;46;0.03;-0.01;9.60104179;-0.0670397;-0.02633702;0.02;4.705881120000001;2.3529405600000004;9.4117651;22.35294151;2367.5;153;15.3;-0.002544333851663369;-0.028385342001810556;0.07955486318369072;9.85548723351039;-0.16314034109797265;-1.0807563840337389;42.099701517370406;9;1;0;0;0;0;0;0;0;0;0;0;0;0;0;0;0;0
154;2022-05-02 00:57:55.733;5.174423027099134;52.36905694753341;46;-0.09;-0.08;8.88515377;-0.67757976;0.38547826;0.13;4.705881120000001;2.3529405600000004;9.4117651;22.35294151;2367.5;154;15.4;-0.010494852007669048;-0.03307758543901218;0.06428831430730111;9.767275066605915;-0.20990757894861445;-0.9474622743235417;42.45427424279441;9;1;0;0;0;0;0;0;0;0;0;0;0;0;0;0;0;0
155;2022-05-02 00:57:55.831;5.174423027099134;52.36905694753341;46;-0.05;0.01;9.10782146;0.57702023;-0.0287313;0.05;0.0;2.3529405600000004;9.4117651;22.35294151;2367.5;155;15.5;-0.014086230351028694;-0.029161439941723415;0.05768236433797201;9.70732471781404;-0.1383686622637777;-0.8639412475145851;42.77661306046933;9;1;0;0;0;0;0;0;0;0;0;0;0;0;0;0;0;0
156;2022-05-02 00:57:55.933;5.174423027099134;52.36905694753341;46;0.02;-0.06;10.83169937;-0.80208206;-0.31365001;0.12;0.0;0.0;9.4117651;11.76470566;2367.5;156;15.600000000000001;-0.010987481154341047;-0.03196494629087019;0.04531331729273868;9.809540627709515;-0.19870626301592065;-0.813914755507935;43.06964832974435;9;1;0;0;0;0;0;0;0;0;0;0;0;0;0;0;0;0
157;2022-05-02 00:57:56.033;5.174423027099134;52.36905694753341;46;0.04;0.08;8.97853088;-0.20111908;0.09337672;0.17;0.0;0.0;9.4117651;11.76470566;2367.5;157;15.700000000000001;-0.006352254258177673;-0.021786311874630874;0.02952327389451001;9.73399426522306;-0.19892561007772727;-0.7314336884945652;43.33604401295276;9;1;0;0;0;0;0;0;0;0;0;0;0;0;0;0;0;0
158;2022-05-02 00:57:56.132;5.174423027099134;52.36905694753341;45;0.0;-0.08;9.77821827;-0.67279124;0.29449579;0.12;0.0;0.0;9.4117651;11.76470566;2321.5;158;15.8;-0.00577477644695293;-0.027078466727954078;0.019714145514377036;9.738014630347662;-0.24200431500045047;-0.6381673478172724;43.48731277870428;9;1;0;0;0;0;0;0;0;0;0;0;0;0;0;0;0;0
159;2022-05-02 00:57:56.233;5.174423027099134;52.36905694753341;45;0.04;-0.04;9.95778847;-0.05027977;-0.17478207;0.09;0.0;0.0;6.66666651;11.76470566;2321.5;159;15.9;-0.001613432141839425;-0.028253151850824672;0.013524029901444468;9.757994075077665;-0.22457480675560548;-0.596041403430564;43.62482983159588;9;1;0;0;0;0;0;0;0;0;0;0;0;0;0;0;0;0
160;2022-05-02 00:57:56.335;5.174423027099134;52.36905694753341;45;-0.07;0.0;9.94581795;0.0191542;-0.26337022;0.05;0.0;0.0;6.66666651;11.76470566;2321.5;160;16.0;-0.007830394203181407;-0.025684682944266568;0.011533016751759464;9.775068976497318;-0.20241761952271312;-0.5657985620208418;43.749845328536594;9;1;0;0;0;0;0;0;0;0;0;0;0;0;0;0;0;0
161;2022-05-02 00:57:56.432;5.174423027099134;52.36905694753341;45;-0.02;0.01;9.12218666;-0.52674043;-1.07981789;0.02;0.0;0.0;6.66666651;11.76470566;2321.5;161;16.1;-0.008936722220798051;-0.022440620219463303;0.012450278136811668;9.71571602694358;-0.23190151719152632;-0.6125276010410281;43.863495775600036;9;1;0;0;0;0;0;0;0;0;0;0;0;0;0;0;0;0
162;2022-05-02 00:57:56.529;5.174373539518308;52.368942369583;45;-0.08;-0.02;9.03599358;-0.1340794;-0.71828246;0.01;6.666666030000002;3.5294113200000012;6.66666651;11.76470566;2321.5;162;16.2;-0.015397021357489991;-0.022218745614329252;0.014193243163737792;9.653923066156949;-0.22300859585449856;-0.6221416808496797;43.96681435995453;9;1;0;0;0;0;0;0;0;0;0;0;0;0;0;0;0;0
163;2022-05-02 00:57:56.633;5.174373539518308;52.368942369583;45;0.05;0.03;10.29777622;0.28252444;-0.34477556;0.04;6.666666030000002;3.5294113200000012;6.66666651;26.27450943;2321.5;163;16.3;-0.009451836629964143;-0.017471586149377393;0.013050483599198377;9.7124551805796;-0.17705103965950653;-0.5969265748497526;44.06074034252062;9;1;0;0;0;0;0;0;0;0;0;0;0;0;0;0;0;0
164;2022-05-02 00:57:56.728;5.174373539518308;52.368942369583;45;-0.02;-0.03;10.4222784;0.22027329;-0.16520496;0.09;6.666666030000002;3.5294113200000012;6.66666651;26.27450943;2321.5;164;16.400000000000002;-0.010410760714597546;-0.018610533031613242;0.007466156081985906;9.776984573712419;-0.1409306407089519;-0.5576791495100705;44.14612759674537;9;1;0;0;0;0;0;0;0;0;0;0;0;0;0;0;0;0
165;2022-05-02 00:57:56.829;5.174373539518308;52.368942369583;45;-0.03;-0.04;9.14373589;-0.16520496;-0.09337672;0.08;6.666666030000002;3.5294113200000012;14.50980377;26.27450943;2339.75;165;16.5;-0.01219160088920787;-0.02055503029032959;0.0032985858775120835;9.7194165038122;-0.1431373973050097;-0.5154698320580721;44.223752371120355;9;1;0;0;0;0;0;0;0;0;0;0;0;0;0;0;0;0
